     3.03           OBSERVATION DATA    M: Mixed            RINEX VERSION / TYPE
RTKCONV 2.4.3 b30                       20190514 073157 UTC PGM / RUN BY / DATE 
log: C:\Users\Administrator\Desktop\data20190428\COM3_1904  COMMENT             
format: u-blox                                              COMMENT             
                                                            MARKER NAME         
                                                            MARKER NUMBER       
                                                            MARKER TYPE         
                                                            OBSERVER / AGENCY   
                                                            REC # / TYPE / VERS 
                                                            ANT # / TYPE        
 -2419215.8865  5385498.5603  2405403.6314                  APPROX POSITION XYZ 
        0.0000        0.0000        0.0000                  ANTENNA: DELTA H/E/N
G    4 C1C L1C D1C S1C                                      SYS / # / OBS TYPES 
R    4 C1C L1C D1C S1C                                      SYS / # / OBS TYPES 
E    4 C1C L1C D1C S1C                                      SYS / # / OBS TYPES 
J    4 C1C L1C D1C S1C                                      SYS / # / OBS TYPES 
C    4 C2I L2I D2I S2I                                      SYS / # / OBS TYPES 
  2019     4    28    12    44   33.9970000     GPS         TIME OF FIRST OBS   
  2019     4    28    13    13   53.0010000     GPS         TIME OF LAST OBS    
G                                                           SYS / PHASE SHIFT   
R                                                           SYS / PHASE SHIFT   
E                                                           SYS / PHASE SHIFT   
J                                                           SYS / PHASE SHIFT   
C                                                           SYS / PHASE SHIFT   
  0                                                         GLONASS SLOT / FRQ #
 C1C    0.000 C1P    0.000 C2C    0.000 C2P    0.000        GLONASS COD/PHS/BIS 
                                                            END OF HEADER       
> 2019  4 28 12 44 33.9970000  0  8                     
G 2  21600712.022   113512506.8763        445.146          27.000  
G 6  20672491.775   108634688.6102       -811.224          27.000  
G19  19761890.586                3       -964.165          26.000  
G17  20524063.068   107854657.4332      -1660.820          29.000  
G 5  20604864.859   108279273.1403       1759.052          29.000  
G12  21702214.976   114045907.6593        807.990          29.000  
C11  22238239.302                3      -1212.376          20.000  
C28  22465076.704                3       1714.910          22.000  
> 2019  4 28 12 44 34.9970000  0  8                     
G 2  21600627.834                3        445.563          26.000  
G 6  20672641.982   108635499.0362       -811.194          27.000  
G19  19762079.447                2       -966.142          26.000  
G17  20524380.424   107856318.3782      -1661.057          29.000  
G 5  20604534.956   108277514.1342       1759.083          29.000  
G12  21702062.817                3        809.039          28.000  
C11  22238471.749                3      -1216.275          19.000  
C28  22464748.509                3       1714.722          20.000  
> 2019  4 28 12 44 35.9970000  0  8                     
G 2  21600535.557                3        446.411          25.000  
G 6  20672800.625   108636309.0342       -809.142          26.000  
G19  19762259.601                3       -966.446          25.000  
G17  20524693.380   107857979.5252      -1661.406          29.000  
G 5  20604194.169   108275755.3372       1758.610          28.000  
G12  21701906.690   114044288.5352        806.951          28.000  
C11  22238704.699                3      -1223.874          19.000  
C28  22464418.454                3       1717.116          20.000  
> 2019  4 28 12 44 36.9970000  0  8                     
G 2  21600451.829                3        447.284          26.000  
G 6  20672955.511                3       -809.767          27.000  
G19  19762446.445                3       -966.376          26.000  
G17  20525011.271   107859640.5781      -1661.882          29.000  
G 5  20603859.364   108273996.8382       1758.492          29.000  
G12  21701750.737   114043481.6132        806.406          28.000  
C11  22238938.846                3      -1218.316          19.000  
C28  22464088.448                3       1712.605          20.000  
> 2019  4 28 12 44 37.9970000  0  8                     
G 2  21600371.481                2        446.771          26.000  
G 6  20673104.682                2       -810.345          27.000  
G19  19762628.752                3       -966.911          26.000  
G17  20525331.168   107861302.730       -1662.612          28.000  
G 5  20603520.176   108272239.0602       1757.281          29.000  
G12  21701605.480   114042706.4513        805.857          29.000  
C11  22239171.359                3      -1213.625          19.000  
C28  22463760.945                3       1711.029          21.000  
> 2019  4 28 12 44 38.9970000  0  8                     
G 2  21600286.185   113510269.8703        445.976          31.000  
G 6  20673263.773   108638707.6892       -811.119          31.000  
G19  19762811.360   103854274.2542       -967.616          27.000  
G17  20525643.372   107862965.280       -1662.891          30.000  
G 5  20603190.978   108270481.5272       1757.905          32.000  
G12  21701444.837   114041900.7702        806.516          32.000  
C11  22239405.672                3      -1225.982          22.000  
C28  22463429.456                3       1718.314          22.000  
> 2019  4 28 12 44 39.9970000  0  8                     
G 2  21600198.901   113509823.8182        445.935          30.000  
G 6  20673418.504   108639517.9942       -810.984          31.000  
G19  19762994.713   103855237.2463       -967.667          28.000  
G17  20525960.535   107864650.4013      -1662.875          33.000  
G 5  20602855.340   108268724.6712       1756.443          32.000  
G12  21701293.950   114041095.9022        804.483          31.000  
C11  22239641.486                3      -1217.256          23.000  
C28  22463097.197                3       1712.718          24.000  
> 2019  4 28 12 44 40.9970000  0  8                     
G 2  21600114.387   113509377.6512        445.944          29.000  
G 6  20673574.023   108640328.2902       -809.967          30.000  
G19  19763179.476   103856205.6782       -968.801          29.000  
G17  20526276.176   107866313.9592      -1663.981          32.000  
G 5  20602521.018   108266968.1882       1755.706          32.000  
G12  21701142.805   114040291.5272        804.634          32.000  
C11  22239876.920                3      -1220.912          25.000  
C28  22462766.991                2       1717.659          25.000  
> 2019  4 28 12 44 41.9970000  0  9                     
G 2  21600027.564   113508931.3232        445.012          29.000  
G 6  20673733.742   108641138.4822       -812.474          31.000  
G19  19763364.955   103857174.3062       -967.107          29.000  
G17  20526592.174   107867977.7652      -1663.639          32.000  
G 5  20602186.338   108265211.9282       1756.339          33.000  
G12  21700986.627   114039487.5422        804.942          33.000  
C11  22240111.926                3      -1221.897          25.000  
C28  22462438.007   116967773.3552       1718.221          26.000  
C16  37230237.070                3       1207.685          24.000  
> 2019  4 28 12 44 42.9970000  0  8                     
G 2  21599946.296   113508483.7263        446.832          28.000  
G 6  20673887.758   108641948.4732       -810.165          30.000  
G19  19763551.218   103858162.4853       -969.101          28.000  
G17  20526908.928   107869641.9882      -1664.717          32.000  
G 5  20601856.324   108263485.0603       1755.457          31.000  
G12  21700837.869   114038684.1882        802.137          31.000  
C11  22240345.037                3      -1220.920          24.000  
C28  22462106.531                3       1717.188          25.000  
> 2019  4 28 12 44 43.9970000  0  8                     
G 2  21599860.921                3        447.678          29.000  
G 6  20674035.631   108642758.2682       -809.505          30.000  
G19  19763732.229   103859131.8392       -970.262          29.000  
G17  20527224.537   107871306.4142      -1665.708          32.000  
G 5  20601522.353   108261729.3692       1755.304          30.000  
G12  21700682.040   114037881.0352        801.934          33.000  
C11  22240581.117                3      -1221.856          25.000  
C28  22461775.729                3       1717.945          25.000  
> 2019  4 28 12 44 44.9970000  0  8                     
G 2  21599775.465   113507585.8652        446.364          28.000  
G 6  20674191.300   108643568.5242       -810.875          30.000  
G19  19763922.083   103860101.9532       -971.151          28.000  
G17  20527543.778   107872971.5952      -1666.056          31.000  
G 5  20601185.841   108259974.4782       1753.668          32.000  
G12  21700528.448   114037078.8432        801.419          31.000  
C11  22240816.732                3      -1221.911          24.000  
C28  22461446.841                3       1714.988          24.000  
> 2019  4 28 12 44 45.9970000  0  8                     
G 2  21599692.919   113507139.7812        445.413          29.000  
G 6  20674346.622   108644424.1703       -810.569          31.000  
G19  19764103.441   103861064.0763       -971.771          28.000  
G17  20527857.831   107874637.7812      -1666.577          32.000  
G 5  20600850.847   108258201.5193       1753.116          32.000  
G12  21700375.049   114036239.7693        800.696          33.000  
C11  22241052.874                3      -1224.116          25.000  
C28  22461118.321                3       1717.380          25.000  
> 2019  4 28 12 44 46.9970000  0  8                     
G 2  21599607.509   113506693.8982        444.873          30.000  
G 6  20674495.202   108645235.0662       -810.381          32.000  
G19  19764288.226   103862035.8402       -972.170          31.000  
G17  20528176.381   107876304.6312      -1667.202          32.000  
G 5  20600519.190   108256448.1992       1753.373          34.000  
G12  21700226.260   114035439.4762        800.468          34.000  
C11  22241286.991   115816186.2952      -1223.764          27.000  
C28  22460789.343                2       1716.774          26.000  
> 2019  4 28 12 44 47.9970000  0  9                     
G 2  21599520.875   113506247.7592        446.999          31.000  
G 6  20674649.698   108646045.9152       -810.391          32.000  
G19  19764475.397   103863007.9982       -971.916          31.000  
G17  20528491.724   107877971.8362      -1667.366          34.000  
G 5  20600183.522   108254695.2802       1753.057          35.000  
G12  21700071.691   114034639.7292        799.587          34.000  
C11  22241521.526   115817410.4392      -1224.473          27.000  
C28  22460460.661   116957475.7622       1716.755          27.000  
C16  37228848.755                3       1206.419          25.000  
> 2019  4 28 12 44 48.9970000  0 10                     
G 2  21599435.521   113505801.6362        446.943          30.000  
G 6  20674807.690   108646856.7282       -810.818          27.000  
C 3  35309574.379                3       -389.867          28.000  
G19  19764658.679   103863980.6432       -972.794          30.000  
G17  20528812.184   107879639.505       -1667.870          31.000  
G 5  20599854.112   108252942.7562       1752.560          31.000  
G12  21699916.706   114033840.5392        799.370          31.000  
C11  22241755.527                3      -1225.376          27.000  
C28  22460130.710   116955759.0622       1717.025          27.000  
C16  37228615.016                3       1204.271          25.000  
> 2019  4 28 12 44 49.9970000  0  9                     
G 2  21599348.004   113505355.2302        446.819          25.000  
G 6  20674963.278   108647667.3352       -810.167          28.000  
C 3  35309651.904                3       -455.811          27.000  
G19  19764846.219                3       -973.213          29.000  
G17  20529121.766   107881307.412       -1668.221          30.000  
G 5  20599518.396   108251190.5322       1751.149          31.000  
G12  21699766.833                3        799.023          30.000  
C11  22241989.439                3      -1218.967          25.000  
C28  22459800.003                3       1716.253          25.000  
> 2019  4 28 12 44 50.9970000  0  9                     
G 2  21599265.502   113504908.7572        446.368          27.000  
G 6  20675112.820   108648477.9492       -810.789          29.000  
C 3  35309744.350                3       -552.051          27.000  
G19  19765033.839   103865940.9012       -973.448          29.000  
G17  20529441.670   107882975.796       -1669.583          31.000  
G 5  20599187.546   108249438.6242       1751.893          33.000  
G12  21699612.331   114032245.9482        798.296          31.000  
C11  22242225.333                3      -1224.784          26.000  
C28  22459468.451                3       1716.272          26.000  
> 2019  4 28 12 44 51.9970000  0  9                     
G 2  21599181.078   113504462.2822        446.865          28.000  
G 6  20675268.009                3       -812.468          29.000  
C 3  35309842.504                3       -552.686          27.000  
G19  19765214.567                3       -974.953          28.000  
G17  20529760.780   107884644.609       -1669.012          28.000  
G 5  20598851.145   108247687.3072       1750.809          29.000  
G12  21699459.184   114031448.3742        796.587          28.000  
C11  22242461.836                2      -1225.674          26.000  
C28  22459138.177                2       1716.423          26.000  
> 2019  4 28 12 44 52.9970000  0  8                     
G 2  21599091.785   113504015.5562        445.939          28.000  
G 6  20675422.566   108650078.0092       -810.300          29.000  
G19  19765402.630   103867891.8632       -974.547          28.000  
G17  20530077.804   107886313.671       -1669.801          32.000  
G 5  20598515.757   108245936.0492       1751.298          29.000  
G12  21699309.240   114030651.1022        795.539          31.000  
C11  22242698.299                3      -1226.413          26.000  
C28  22458807.336                2       1717.021          26.000  
> 2019  4 28 12 44 53.9970000  0  8                     
G 2  21599011.365   113503568.6362        447.385          27.000  
G 6  20675580.316   108650888.4372       -809.674          29.000  
G19  19765585.523   103868866.4312       -974.718          27.000  
G17  20530397.680   107887983.205       -1669.772          32.000  
G 5  20598185.099                3       1749.567          29.000  
G12  21699157.509   114029854.3542        796.321          30.000  
C11  22242933.090                3      -1227.429          24.000  
C28  22458479.518                3       1715.738          24.000  
> 2019  4 28 12 44 54.9970000  0  8                     
G 2  21598918.611   113503121.456         446.526          28.000  
G 6  20675731.376   108651701.6783       -811.474          30.000  
G19  19765769.723   103869841.0872       -974.642          28.000  
G17  20530718.177   107889652.803       -1669.517          29.000  
G 5  20597853.281   108242442.2132       1751.204          29.000  
G12  21699006.876   114029057.9492        795.072          27.000  
C11  22243167.928                3      -1226.466          26.000  
C28  22458151.094                2       1717.475          26.000  
> 2019  4 28 12 44 55.9970000  0  8                     
G 2  21598834.466   113502674.513         446.437          28.000  
G 6  20675887.217   108652512.0482       -809.980          30.000  
G19  19765953.566   103870786.6673       -975.832          28.000  
G17  20531034.824   107891323.321       -1670.758          33.000  
G 5  20597520.285   108240692.4072       1750.095          33.000  
G12  21698856.477   114028259.4443        795.504          32.000  
C11  22243403.473                3      -1225.198          26.000  
C28  22457820.624                3       1714.337          26.000  
> 2019  4 28 12 44 56.9970000  0  8                     
G 2  21598756.933   113502227.586         446.849          28.000  
G 6  20676044.295   108653322.6352       -811.079          30.000  
G19  19766140.172                3       -976.505          28.000  
G17  20531351.225   107892994.363       -1671.542          32.000  
G 5  20597187.300   108238943.1482       1748.724          33.000  
G12  21698702.171   114027464.6622        794.082          31.000  
C11  22243638.355                2      -1226.650          26.000  
C28  22457491.437                2       1716.982          26.000  
> 2019  4 28 12 44 57.9970000  0  9                     
G 2  21598670.896   113501780.848         446.058          29.000  
G 6  20676195.325   108654133.4012       -810.195          30.000  
G19  19766330.220   103872743.4742       -976.094          29.000  
G17  20531671.049   107894665.997       -1671.857          33.000  
G 5  20596854.214   108237194.4722       1748.469          34.000  
G12  21698554.662   114026670.6132        793.687          32.000  
C11  22243874.149   115829657.0832      -1226.734          27.000  
C28  22457160.550   116940302.5212       1716.792          28.000  
C16  37226533.009                3       1207.502          25.000  
> 2019  4 28 12 44 58.9970000  0  9                     
G 2  21598582.697   113501333.814         446.564          30.000  
G 6  20676346.509   108654943.9442       -810.833          31.000  
G19  19766513.607   103873720.4282       -976.661          30.000  
G17  20531988.769   107896337.822       -1671.100          34.000  
G 5  20596522.830   108235446.0272       1748.226          31.000  
G12  21698405.328   114025876.9302        793.682          33.000  
C11  22244108.290   115830883.9982      -1227.146          28.000  
C28  22456829.760   116938585.7192       1716.983          28.000  
C16  37226300.875                3       1206.904          26.000  
> 2019  4 28 12 44 59.9970000  0  9                     
G 2  21598500.216   113500886.545         446.904          30.000  
G 6  20676502.915   108655754.3402       -810.065          31.000  
G19  19766701.201   103874697.8292       -979.081          30.000  
G17  20532310.555   107898010.079       -1672.799          34.000  
G 5  20596189.462   108233697.8902       1747.581          34.000  
G12  21698255.225   114025083.7382        793.630          33.000  
C11  22244345.689   115832111.0612      -1227.185          28.000  
C28  22456501.482   116936868.7762       1717.046          28.000  
C16  37226069.899                3       1204.403          26.000  
> 2019  4 28 12 45  0.9970000  0  8                     
G 2  21598414.051                3        445.885          22.000  
G 6  20676653.384   108656564.6612       -810.253          25.000  
G19  19766889.273   103875675.4762       -978.707          24.000  
G17  20532625.322   107899682.616       -1672.613          30.000  
G 5  20595854.273   108231950.033        1747.500          30.000  
G12  21698100.049   114024290.9652        793.100          28.000  
C11  22244582.194                3      -1225.736          27.000  
C28  22456171.666   116935151.7582       1717.047          27.000  
> 2019  4 28 12 45  1.9970000  0  8                     
G 2  21598326.379                3        447.400          24.000  
G 6  20676809.413   108657374.9642       -810.234          26.000  
G19  19767074.443   103876653.5322       -978.511          25.000  
G17  20532947.089   107901355.586       -1673.135          29.000  
G 5  20595520.108   108230202.675        1747.439          29.000  
G12  21697951.230   114023502.8213        792.169          28.000  
C11  22244817.816                3      -1228.031          24.000  
C28  22455844.719                3       1723.819          24.000  
> 2019  4 28 12 45  2.9970000  0  8                     
G 2  21598246.211   113499549.8182        448.456          30.000  
G 6  20676960.966   108658184.9692       -809.374          31.000  
G19  19767256.124   103877631.7812       -977.195          30.000  
G17  20533263.204   107903028.752       -1673.550          33.000  
G 5  20595186.822   108228455.384        1747.163          33.000  
G12  21697802.558   114022710.9692        791.709          33.000  
C11  22245052.176                2      -1226.944          26.000  
C28  22455513.130                3       1717.275          26.000  
> 2019  4 28 12 45  3.9970000  0  8                     
G 2  21598161.546   113499101.9852        447.202          29.000  
G 6  20677114.838   108658994.9822       -810.300          30.000  
G19  19767444.039   103878610.5872       -979.274          29.000  
G17  20533583.806   107904702.373       -1674.603          32.000  
G 5  20594855.443   108226708.595        1746.177          32.000  
G12  21697650.667   114021919.7082        790.020          32.000  
C11  22245287.373                3      -1225.697          25.000  
C28  22455185.188                3       1716.870          25.000  
> 2019  4 28 12 45  4.9970000  0  9                     
G 2  21598075.805   113498654.6882        447.455          29.000  
G 6  20677270.302                3       -809.997          30.000  
G 4  21242099.665                2        219.572          26.000  
G19  19767632.619   103879590.4932       -979.666          29.000  
G17  20533897.171   107906377.094       -1674.642          29.000  
G 5  20594526.028   108224962.853        1747.114          28.000  
G12  21697500.665   114021129.7042        789.679          28.000  
C11  22245525.254                3      -1229.866          25.000  
C28  22454858.177                2       1716.406          26.000  
> 2019  4 28 12 45  5.9970000  0  9                     
G 2  21597990.386   113498207.4862        446.899          29.000  
G 6  20677426.778   108660610.4832       -810.988          30.000  
G 4  21242056.602   111627766.8892        219.057          26.000  
G19  19767820.006   103880570.9802       -980.776          29.000  
G17  20534218.857   107908052.339       -1675.129          33.000  
G 5  20594194.603   108223217.681        1746.405          33.000  
G12  21697348.471   114020340.3462        788.795          32.000  
C11  22245759.264                3      -1229.151          26.000  
C28  22454525.175                3       1716.175          26.000  
> 2019  4 28 12 45  6.9970000  0  9                     
G 2  21597905.840   113497759.9662        447.781          28.000  
G 6  20677582.863   108661421.1142       -810.465          26.000  
G 4  21242015.496   111627547.6852        218.735          25.000  
G19  19768007.755   103881551.733        -981.094          28.000  
G17  20534537.581   107909727.924       -1675.436          32.000  
G 5  20593861.729   108221472.819        1745.115          32.000  
G12  21697201.014   114019551.3662        789.038          31.000  
C11  22245994.113                3      -1232.588          25.000  
C28  22454194.884                3       1722.503          25.000  
> 2019  4 28 12 45  7.9970000  0  9                     
G 2  21597821.677   113497312.4282        447.625          29.000  
G 6  20677737.747   108662231.7642       -811.592          31.000  
G 4  21241974.220   111627328.9082        218.207          26.000  
G19  19768191.172   103882532.935        -982.337          29.000  
G17  20534855.046   107911403.961       -1677.034          32.000  
G 5  20593529.422   108219728.350        1744.233          32.000  
G12  21697045.893   114018762.9812        788.475          32.000  
C11  22246231.761                2      -1229.521          26.000  
C28  22453864.339                3       1715.786          26.000  
> 2019  4 28 12 45  8.9970000  0  9                     
G 2  21597734.801   113496864.6032        448.432          30.000  
G 6  20677893.237   108663042.1172       -809.878          30.000  
G 4  21241932.701                3        218.713          26.000  
G19  19768378.276   103883514.360        -980.095          29.000  
G17  20535174.557   107913080.180       -1676.160          32.000  
G 5  20593196.856   108217979.0693       1744.828          32.000  
G12  21696893.094   114017975.0512        787.380          32.000  
C11  22246466.689                3      -1229.082          26.000  
C28  22453533.324                2       1717.206          26.000  
> 2019  4 28 12 45  9.9970000  0  8                     
G 2  21597645.184                3        447.612          21.000  
G 6  20678046.732                3       -810.644          24.000  
G19  19768572.135   103884496.360        -981.873          28.000  
G17  20535491.861   107914756.912       -1676.776          28.000  
G 5  20592864.499   108216235.0732       1744.404          27.000  
G12  21696747.387                3        786.926          26.000  
C11  22246701.992                3      -1231.645          25.000  
C28  22453204.287                3       1717.815          25.000  
> 2019  4 28 12 45 10.9970000  0  9                     
G 2  21597558.401   113495935.3432        448.861          28.000  
G 6  20678199.074   108664669.1852       -811.263          27.000  
G 4  21241852.203                3        214.928          25.000  
G19  19768753.246   103885498.5433       -983.894          28.000  
G17  20535814.880   107916435.214       -1680.310          31.000  
G 5  20592535.497   108214490.9922       1743.729          30.000  
G12  21696596.840   114016388.4542        787.492          31.000  
C11  22246939.018                3      -1232.389          25.000  
C28  22452875.117   116917981.0152       1717.938          26.000  
> 2019  4 28 12 45 11.9970000  0  8                     
G 2  21597474.073   113495485.9852        449.334          28.000  
G 6  20678353.993   108665479.9592       -810.504          28.000  
G19  19768939.771   103886482.8682       -983.958          28.000  
G17  20536132.982   107918114.940       -1680.350          31.000  
G 5  20592201.400   108212746.9222       1744.310          31.000  
G12  21696453.410   114015600.1712        788.232          31.000  
C11  22247176.193                3      -1236.755          23.000  
C28  22452545.958   116916263.1682       1718.151          26.000  
> 2019  4 28 12 45 12.9970000  0  8                     
G 2  21597387.527   113495035.6502        450.527          28.000  
G 6  20678510.126   108666290.1892       -809.906          28.000  
G19  19769127.211   103887464.0843       -984.280          30.000  
G17  20536449.549   107919795.214       -1679.661          31.000  
G 5  20591869.490   108211002.9972       1743.879          32.000  
G12  21696297.021   114014811.6192        788.102          31.000  
C11  22247414.268                3      -1228.001          22.000  
C28  22452213.619   116914544.4102       1719.172          28.000  
> 2019  4 28 12 45 13.9970000  0 10                     
G 2  21597302.867   113494584.4052        451.862          29.000  
G 6  20678662.079   108667100.0882       -810.244          29.000  
G19  19769314.833   103888449.8772       -986.189          29.000  
G17  20536772.897   107921477.065       -1682.718          29.000  
G 5  20591535.999   108209259.8282       1742.440          32.000  
G12  21696147.787   114014022.7482        788.859          30.000  
C13  36749229.987                3       -229.828          24.000  
C11  22247651.631                3      -1236.981          22.000  
C28  22451884.545   116912824.8962       1719.830          29.000  
C14  22529400.344                3      -2738.679          23.000  
> 2019  4 28 12 45 14.9970000  0 10                     
G 2  21597218.247   113494132.6282        452.235          34.000  
G 6  20678815.038   108667909.3042       -808.643          33.000  
G 4  21241690.017                3        210.963          23.000  
G19  19769501.123   103889436.5062       -986.069          33.000  
G17  20537094.823   107923160.325       -1683.525          34.000  
G 5  20591205.821   108207517.9842       1742.578          36.000  
G12  21695999.111   114013234.1522        788.658          33.000  
C13  36749276.653                2       -228.546          26.000  
C11  22247888.245                3      -1233.041          22.000  
C28  22451554.670   116911104.7272       1720.654          33.000  
> 2019  4 28 12 45 15.9970000  0 12                     
G 2  21597130.673   113493679.9952        452.634          34.000  
G 6  20678967.926   108668717.3142       -808.326          34.000  
G 4  21241651.443   111625630.8752        211.863          26.000  
G19  19769691.913   103890422.9762       -986.479          33.000  
G17  20537413.383   107924843.615       -1683.943          34.000  
G 5  20590878.619   108205777.0742       1740.662          36.000  
G12  21695849.682   114012445.8962        787.571          34.000  
C13  36749318.205   191363323.7922       -228.131          32.000  
C11  22248125.055                2      -1234.825          26.000  
C28  22451221.519   116909383.6472       1720.983          33.000  
C14  22530454.460                2      -2737.440          26.000  
C16  37222363.715                2       1200.678          26.000  
> 2019  4 28 12 45 16.9970000  0 13                     
G 2  21597047.863   113493227.4452        453.523          34.000  
G 6  20679121.013   108669525.3022       -807.662          34.000  
G 4  21241610.908   111625420.6052        210.561          30.000  
G19  19769879.987   103891410.4982       -987.825          32.000  
G17  20537734.777   107926528.160       -1685.514          32.000  
G 5  20590546.310   108204037.7882       1738.840          36.000  
G12  21695698.260   114011658.5192        786.617          37.000  
C 8  36273060.868   188883315.0932        -95.123          32.000  
C13  36749365.750   191363551.9882       -227.548          32.000  
C11  22248362.012   115853028.7052      -1235.894          32.000  
C28  22450893.243   116907662.6432       1720.894          35.000  
C14  22530978.468   117324694.0322      -2736.743          32.000  
C16  37222133.194   193825384.7002       1198.712          32.000  
> 2019  4 28 12 45 17.9970000  0 13                     
G 2  21596960.627   113492773.9942        453.944          33.000  
G 6  20679277.258   108670332.4712       -805.942          34.000  
G 4  21241570.760   111625210.7562        209.452          31.000  
G19  19770065.677   103892398.2902       -987.839          33.000  
G17  20538056.192   107928213.272       -1684.932          33.000  
G 5  20590216.040   108202298.9442       1737.760          36.000  
G12  21695548.760   114010871.0652        788.230          36.000  
C 8  36273081.727   188883407.8952        -92.151          31.000  
C13  36749407.696   191363779.2102       -225.715          32.000  
C11  22248596.835   115854264.2622      -1235.418          35.000  
C28  22450562.298   116905940.7892       1722.797          35.000  
C14  22531506.012   117327430.9382      -2736.686          32.000  
C16  37221902.249   193824185.8182       1198.475          31.000  
> 2019  4 28 12 45 18.9970000  0 14                     
G 2  21596874.383   113492318.3361        456.208          33.000  
G 6  20679429.186   108671138.156        -805.276          35.000  
G 4  21241530.053   111625001.5952        208.046          33.000  
G19  19770255.040   103893386.4882       -989.315          33.000  
G17  20538376.709   107929899.472       -1687.369          36.000  
G 5  20589884.401   108200560.851        1737.742          37.000  
G12  21695400.520   114010082.2921        788.120          37.000  
C 8  36273098.131   188883499.2412        -90.884          32.000  
C13  36749449.995   191364004.7352       -224.974          37.000  
C11  22248838.852   115855500.2852      -1236.612          35.000  
C28  22450230.486   116904217.1692       1723.690          38.000  
C14  22532031.050   117330166.7782      -2735.835          35.000  
C16  37221673.295   193822988.3912       1196.660          32.000  
C 2  36199371.504                3       -319.062          32.000  
> 2019  4 28 12 45 19.9970000  0 16                     
G 2  21596788.480   113491861.776         456.764          33.000  
G 6  20679583.472   108671942.690        -804.508          37.000  
C 3  35311733.483                3       -370.922          30.000  
G 4  21241492.382   111624793.8572        206.789          32.000  
G19  19770442.482   103894375.7012       -989.194          34.000  
G17  20538696.026   107931587.460       -1688.893          37.000  
G 5  20589554.101   108198824.177        1735.773          38.000  
G12  21695251.181   114009293.493         788.952          37.000  
C 8  36273112.996   188883586.7923        -89.050          30.000  
C13  36749494.046   191364228.7722       -223.442          33.000  
C11  22249072.611   115856737.5312      -1238.604          33.000  
C28  22449901.192   116902492.0742       1725.513          34.000  
C14  22532557.034   117332902.0762      -2734.706          35.000  
C16  37221443.792   193821793.2522       1194.326          31.000  
C 4  37431489.958                3       -360.438          28.000  
C 2  36199433.027   188499915.7492       -325.494          31.000  
> 2019  4 28 12 45 20.9970000  0 16                     
G 2  21596701.522   113491403.611         457.953          34.000  
G 6  20679738.096   108672746.062        -803.487          37.000  
C 3  35311811.141                3       -368.799          33.000  
G 4  21241454.594   111624587.3872        206.419          33.000  
G19  19770630.434   103895365.7492       -990.174          35.000  
G17  20539019.268   107933277.034       -1689.859          38.000  
G 5  20589223.605   108197088.385        1735.387          38.000  
G12  21695101.546   114008503.916         790.333          38.000  
C 8  36273133.251   188883675.5852        -88.883          31.000  
C13  36749537.286   191364451.1932       -221.394          34.000  
C11  22249310.605   115857967.6893      -1239.045          33.000  
C28  22449568.696   116900764.8971       1727.627          33.000  
C14  22533078.126   117335636.8792      -2734.378          35.000  
C16  37221213.576   193820599.9862       1193.610          31.000  
C 4  37431559.201                2       -363.696          29.000  
C 2  36199498.640   188500241.0822       -324.960          31.000  
> 2019  4 28 12 45 21.9970000  0 16                     
G 2  21596613.782   113490944.250         459.075          34.000  
G 6  20679888.929   108673548.548        -802.959          37.000  
C 3  35311879.169                3       -360.059          32.000  
G 4  21241414.227   111624381.9592        204.691          33.000  
G19  19770820.102   103896356.4552       -991.307          35.000  
G17  20539340.685   107934967.749       -1691.382          38.000  
G 5  20588893.360   108195353.322        1734.740          38.000  
G12  21694950.791   114007714.019         789.623          38.000  
C 8  36273151.092   188883763.3502        -88.612          31.000  
C13  36749580.032   191364672.450        -221.077          34.000  
C11  22249549.809   115859206.5202      -1239.012          33.000  
C28  22449236.426   116899037.126        1727.510          34.000  
C14  22533605.637   117338371.2792      -2734.894          35.000  
C16  37220986.860   193819407.9862       1192.084          31.000  
C 4  37431628.829   194916283.2592       -363.864          32.000  
C 2  36199558.642   188500566.7482       -325.910          31.000  
> 2019  4 28 12 45 22.9970000  0 16                     
G 2  21596526.468   113490484.557         459.919          37.000  
G 6  20680042.127   108674350.845        -802.456          39.000  
C 3  35311952.128   183878569.1432       -369.806          37.000  
G 4  21241375.073   111624177.2872        203.718          35.000  
G19  19771008.582   103897347.7762       -991.546          38.000  
G17  20539662.670   107936659.242       -1691.425          40.000  
G 5  20588563.442   108193618.806        1734.030          40.000  
G12  21694800.333   114006924.435         789.164          40.000  
C 8  36273165.201   188883850.8162        -87.020          36.000  
C13  36749621.086   191364893.340        -220.327          38.000  
C11  22249787.893   115860445.9222      -1239.445          37.000  
C28  22448904.516   116897309.032        1727.770          39.000  
C14  22534131.587   117341105.9032      -2734.802          39.000  
C16  37220756.555   193818216.3392       1192.108          33.000  
C 4  37431698.929   194916646.9662       -363.938          33.000  
C 2  36199622.770   188500892.3222       -325.769          35.000  
> 2019  4 28 12 45 23.9970000  0 16                     
G 2  21596439.031   113490024.383         461.306          37.000  
G 6  20680194.768   108675152.902        -801.453          39.000  
C 3  35312022.365   183878939.3132       -370.174          37.000  
G 4  21241336.685   111623973.1862        203.906          35.000  
G19  19771197.459   103898339.5572       -992.277          38.000  
G17  20539984.703   107938351.330       -1692.380          40.000  
G 5  20588233.238   108191884.535        1734.076          41.000  
G12  21694650.244   114006135.041         788.531          40.000  
C 8  36273181.032   188883937.8942        -86.636          36.000  
C13  36749663.163   191365113.705        -219.895          38.000  
C11  22250025.632   115861685.6682      -1239.859          37.000  
C28  22448572.631   116895580.574        1728.531          39.000  
C14  22534656.825   117343840.6022      -2734.649          39.000  
C16  37220529.543   193817024.9162       1191.381          34.000  
C 4  37431768.165   194917010.8772       -364.163          34.000  
C 2  36199684.602   188501217.8352       -325.739          36.000  
> 2019  4 28 12 45 24.9970000  0 16                     
G 2  21596351.276   113489563.372         461.608          37.000  
G 6  20680347.360   108675954.340        -800.933          41.000  
C 3  35312091.499   183879309.6452       -370.459          39.000  
G 4  21241298.165   111623769.7612        202.897          36.000  
G19  19771386.240   103899331.2431       -991.946          38.000  
G17  20540306.710   107940044.106       -1692.966          41.000  
G 5  20587903.256   108190150.705        1733.906          41.000  
G12  21694500.037   114005345.427         790.048          41.000  
C 8  36273197.872   188884024.2622        -86.198          38.000  
C13  36749705.163   191365333.221        -219.338          40.000  
C11  22250263.983   115862925.8292      -1240.109          39.000  
C28  22448240.461   116893851.357        1729.392          41.000  
C14  22535181.575   117346575.0612      -2734.221          42.000  
C16  37220300.210   193815834.0792       1190.575          37.000  
C 4  37431836.991   194917375.0512       -364.573          35.000  
C 2  36199746.614   188501543.2702       -325.660          38.000  
> 2019  4 28 12 45 25.9970000  0 16                     
G 2  21596263.770   113489101.719         461.946          37.000  
G 6  20680499.726   108676755.383        -801.198          40.000  
C 3  35312163.926   183879680.7742       -371.799          39.000  
G 4  21241259.535   111623567.5962        201.476          36.000  
G19  19771575.177   103900324.444        -993.819          38.000  
G17  20540629.294   107941738.298       -1695.165          41.000  
G 5  20587573.427   108188417.885        1732.234          41.000  
G12  21694349.758   114004555.965         789.335          41.000  
C 8  36273213.557   188884110.0362        -85.594          38.000  
C13  36749747.257   191365552.045        -218.369          40.000  
C11  22250502.477   115864166.9632      -1241.988          39.000  
C28  22447908.349   116892121.438        1730.426          41.000  
C14  22535706.698   117349309.6112      -2734.700          42.000  
C16  37220072.118   193814644.6412       1188.154          37.000  
C 4  37431907.457   194917740.2602       -366.176          36.000  
C 2  36199809.343   188501869.1882       -326.601          38.000  
> 2019  4 28 12 45 26.9970000  0 16                     
G 2  21596175.633   113488639.735         462.450          37.000  
G 6  20680652.570   108677556.335        -800.677          40.000  
C 3  35312235.949   183880053.0892       -372.467          39.000  
G 4  21241221.605   111623367.0162        199.662          36.000  
G19  19771764.510   103901318.938        -995.074          38.000  
G17  20540952.045   107943434.210       -1696.232          41.000  
G 5  20587244.065   108186686.438        1731.183          41.000  
G12  21694199.417   114003766.950         789.601          41.000  
C 8  36273231.036   188884195.6492        -85.725          37.000  
C13  36749789.398   191365770.480        -217.867          40.000  
C11  22250741.074   115865409.3982      -1242.894          39.000  
C28  22447576.228   116890391.257        1730.770          40.000  
C14  22536231.690   117352043.9861      -2734.917          42.000  
C16  37219842.065   193813456.9252       1187.324          36.000  
C 4  37431978.542   194918103.8053       -367.573          35.000  
C 2  36199872.046   188502195.5261       -327.431          37.000  
> 2019  4 28 12 45 27.9970000  0 16                     
G 2  21596087.588   113488176.785         463.648          38.000  
G 6  20680804.898   108678356.503        -799.022          40.000  
C 3  35312307.685   183880425.6492       -372.368          40.000  
G 4  21241183.633   111623167.0522        200.120          36.000  
G19  19771953.810   103902313.879        -994.794          38.000  
G17  20541274.922   107945130.901       -1696.562          41.000  
G 5  20586914.915   108184955.470        1731.064          41.000  
G12  21694049.132   114002977.661         789.765          39.000  
C 8  36273247.295   188884279.7961        -82.771          39.000  
C13  36749831.424   191365987.872        -216.268          41.000  
C11  22250979.614   115866652.2092      -1242.627          40.000  
C28  22447243.831   116888660.120        1732.393          42.000  
C14  22536756.868   117354778.552       -2733.799          44.000  
C16  37219614.008   193812269.3881       1187.313          38.000  
C 4  37432049.129   194918470.6712       -366.373          36.000  
C 2  36199934.830   188502522.316        -326.010          39.000  
> 2019  4 28 12 45 28.9970000  0 16                     
G 2  21595999.299   113487712.419         464.215          37.000  
G 6  20680957.031   108679155.959        -799.419          41.000  
C 3  35312379.154   183880797.2911       -372.204          40.000  
G 4  21241145.651   111622967.7552        199.035          37.000  
G19  19772143.256   103903309.091        -995.938          40.000  
G17  20541598.320   107946828.157       -1697.484          42.000  
G 5  20586585.267   108183224.050        1731.421          43.000  
G12  21693898.946   114002187.527         790.451          42.000  
C 8  36273263.338   188884363.605         -83.697          39.000  
C13  36749873.126   191366203.991        -215.902          41.000  
C11  22251218.388   115867895.4472      -1244.043          40.000  
C28  22446911.283   116886927.734        1733.315          42.000  
C14  22537281.973   117357512.919       -2734.747          40.000  
C16  37219386.811   193811082.416        1186.829          38.000  
C 4  37432119.841   194918837.7822       -367.447          36.000  
C 2  36199997.522   188502848.266        -325.658          39.000  
> 2019  4 28 12 45 29.9970000  0 16                     
G 2  21595910.883   113487247.980         464.175          37.000  
G 6  20681109.321   108679955.540        -799.573          39.000  
C 3  35312450.585   183881168.980        -371.184          39.000  
G 4  21241107.943   111622768.8342        199.711          36.000  
G19  19772332.888   103904304.672        -995.415          38.000  
G17  20541921.424   107948525.634       -1696.582          40.000  
G 5  20586255.855   108181492.482        1732.805          43.000  
G12  21693748.700   114001397.780         789.263          41.000  
C 8  36273279.209   188884447.433         -83.556          38.000  
C13  36749914.555   191366419.995        -215.687          42.000  
C11  22251457.006   115869138.8182      -1243.208          40.000  
C28  22446578.839   116885195.477        1731.762          42.000  
C14  22537807.233   117360247.666       -2734.507          42.000  
C16  37219158.954   193809894.847        1188.289          38.000  
C 4  37432190.320   194919204.7142       -366.816          35.000  
C 2  36200060.031   188503173.653        -325.119          38.000  
> 2019  4 28 12 45 30.9970000  0 16                     
G 2  21595822.611   113486783.961         463.878          37.000  
G 6  20681261.465   108680755.390        -800.057          39.000  
C 3  35312521.985   183881539.957        -371.106          40.000  
G 4  21241070.067   111622569.8472        199.124          36.000  
G19  19772522.563   103905300.254        -995.350          38.000  
G17  20542244.142   107950222.789       -1697.266          42.000  
G 5  20585926.293   108179760.956        1731.552          43.000  
G12  21693598.914   114000609.053         788.366          42.000  
C 8  36273295.309   188884531.403         -84.066          37.000  
C13  36749956.119   191366636.329        -215.917          41.000  
C11  22251695.758   115870381.8832      -1242.998          40.000  
C28  22446246.229   116883463.690        1731.716          42.000  
C14  22538332.450   117362982.800       -2735.071          41.000  
C16  37218930.649   193808706.202        1189.047          38.000  
C 4  37432260.758   194919572.6683       -365.732          35.000  
C 2  36200122.834   188503498.629        -324.644          38.000  
> 2019  4 28 12 45 31.9970000  0 16                     
G 2  21595734.258   113486319.578         464.202          37.000  
G 6  20681413.592   108681555.108        -800.302          40.000  
C 3  35312593.201   183881910.493        -369.983          40.000  
G 4  21241032.643   111622371.0612        198.833          37.000  
G19  19772711.944   103906296.007        -995.741          38.000  
G17  20542567.170   107951920.062       -1697.726          42.000  
G 5  20585596.774   108178029.356        1732.056          43.000  
G12  21693448.665   113999820.491         788.005          42.000  
C 8  36273311.641   188884614.961         -83.643          38.000  
C13  36749997.720   191366852.225        -215.436          41.000  
C11  22251934.752   115871624.9602      -1243.503          40.000  
C28  22445913.763   116881731.625        1732.084          43.000  
C14  22538857.928   117365718.069       -2735.035          36.000  
C16  37218702.319   193807517.130        1189.270          38.000  
C 4  37432330.954   194919938.3322       -365.250          35.000  
C 2  36200184.970   188503823.124        -324.170          38.000  
> 2019  4 28 12 45 32.9970000  0 16                     
G 2  21595646.023   113485855.004         464.750          37.000  
G 6  20681565.902   108682354.717        -799.935          40.000  
C 3  35312664.370   183882280.924        -370.678          40.000  
G 4  21240995.153   111622172.7682        198.381          36.000  
G19  19772901.593   103907292.244        -996.553          38.000  
G17  20542890.151   107953617.758       -1698.458          40.000  
G 5  20585267.423   108176298.080        1731.549          41.000  
G12  21693298.591   113999032.420         787.781          41.000  
C 8  36273327.743   188884698.391         -83.370          38.000  
C13  36750038.822   191367067.955        -215.629          42.000  
C11  22252173.652   115872867.7881      -1243.662          41.000  
C28  22445581.133   116879999.535        1732.344          43.000  
C14  22539383.954                3      -2733.325          26.000  
C16  37218473.802   193806328.056        1189.083          38.000  
C 4  37432401.110   194920304.0043       -366.150          35.000  
C 2  36200247.308   188504147.481        -324.318          38.000  
> 2019  4 28 12 45 33.9970000  0 16                     
G 2  21595557.348   113485390.053         465.301          37.000  
G 6  20681718.072   108683154.106        -798.259          39.000  
C 3  35312735.534   183882651.106        -370.181          40.000  
G 4  21240957.456   111621974.9542        197.729          36.000  
G19  19773091.296   103908288.808        -996.822          38.000  
G17  20543213.225   107955315.790       -1698.112          40.000  
G 5  20584937.733   108174566.878        1730.986          42.000  
G12  21693148.528   113998244.515         788.086          42.000  
C 8  36273343.797   188884781.505         -82.406          38.000  
C13  36750080.035   191367283.271        -215.551          41.000  
C11  22252412.550   115874111.346       -1243.903          40.000  
C28  22445248.451   116878267.117        1732.752          43.000  
C14  22539908.988                3      -2732.740          25.000  
C16  37218245.307   193805138.793        1189.515          38.000  
C 4  37432471.323   194920669.5513       -364.954          35.000  
C 2  36200309.590   188504471.448        -323.888          38.000  
> 2019  4 28 12 45 34.9970000  0 16                     
G 2  21595468.917   113484924.322         465.547          36.000  
G 6  20681869.994   108683953.022        -798.260          37.000  
C 3  35312806.848   183883021.221        -371.092          34.000  
G 4  21240920.032   111621777.6452        196.797          35.000  
G19  19773281.268   103909285.693        -997.760          37.000  
G17  20543536.392   107957014.379       -1699.015          40.000  
G 5  20584608.734   108172835.849        1730.176          41.000  
G12  21692998.426   113997456.515         787.720          41.000  
C 8  36273359.417   188884863.925         -82.782          32.000  
C13  36750121.316   191367497.683        -214.331          36.000  
C11  22252651.471   115875355.167       -1244.382          34.000  
C28  22444915.798   116876534.025        1732.898          39.000  
C14  22540434.130                3      -2731.060          20.000  
C16  37218016.982   193803949.742        1188.953          32.000  
C 4  37432541.811   194921036.2592       -366.963          29.000  
C 2  36200371.763                3       -327.539          32.000  
> 2019  4 28 12 45 35.9970000  0 16                     
G 2  21595380.411   113484458.949         464.917          36.000  
G 6  20682022.037   108684752.243        -798.950          39.000  
C 3  35312877.980   183883391.346        -370.064          35.000  
G 4  21240882.746   111621581.0052        196.164          35.000  
G19  19773471.333   103910283.194        -997.048          37.000  
G17  20543859.807   107958713.480       -1698.949          40.000  
G 5  20584279.585   108171105.370        1729.884          42.000  
G12  21692848.766   113996669.379         787.304          42.000  
C 8  36273375.179   188884946.586         -82.596          30.000  
C13  36750162.760   191367712.407        -214.215          37.000  
C11  22252890.419   115876599.380       -1243.636          35.000  
C28  22444582.802   116874801.317        1732.490          39.000  
C14  22540960.407                3      -2731.060          18.000  
C16  37217788.539   193802760.677        1189.141          33.000  
C 4  37432612.083   194921401.9202       -365.980          30.000  
C 2  36200433.993   188505127.4552       -324.114          33.000  
> 2019  4 28 12 45 36.9970000  0 16                     
G 2  21595291.740   113483993.681         466.838          36.000  
G 6  20682174.325   108685551.796        -799.941          34.000  
C 3  35312948.747   183883759.1363       -368.808          35.000  
G 4  21240845.232   111621383.7701        195.728          35.000  
G19  19773660.869   103911280.758        -997.706          37.000  
G17  20544182.999   107960412.289       -1698.986          40.000  
G 5  20583950.047   108169374.557        1731.115          41.000  
G12  21692698.893   113995883.011         786.488          42.000  
C 8  36273391.410   188885029.426         -81.461          28.000  
C13  36750204.008   191367927.260        -214.352          37.000  
C11  22253129.346   115877843.366       -1243.425          35.000  
C28  22444250.273   116873068.966        1732.809          37.000  
C14  22541484.620                3      -2731.060          12.000  
C16  37217559.792   193801570.467        1190.467          34.000  
C 4  37432682.105   194921766.6832       -362.470          30.000  
C 2  36200496.349   188505452.5593       -322.523          33.000  
> 2019  4 28 12 45 37.9970000  0 16                     
G 2  21595202.936   113483527.552         467.305          35.000  
G 6  20682324.607                3       -806.714          22.000  
C 3  35313019.560   183884128.2872       -369.575          34.000  
G 4  21240807.965   111621187.781         194.415          34.000  
G19  19773850.930   103912278.762        -998.331          36.000  
G17  20544506.355   107962111.747       -1700.121          38.000  
G 5  20583620.632   108167643.668        1731.144          41.000  
G12  21692549.150   113995096.194         787.249          40.000  
C 8  36273407.569                3        -80.703          17.000  
C13  36750244.944   191368141.234        -213.608          33.000  
C11  22253368.329   115879087.820       -1245.758          34.000  
C28  22443917.495   116871335.844        1733.056          31.000  
C14  22542010.428                3      -2731.060          11.000  
C16  37217331.306   193800380.329        1190.952          33.000  
C 4  37432751.949                3       -373.535          29.000  
C 2  36200558.123   188505775.0582       -322.278          32.000  
> 2019  4 28 12 45 38.9970000  0 15                     
G 2  21595113.827   113483059.911         468.369          36.000  
G 6  20682478.845                3       -798.816          21.000  
C 3  35313090.255   183884496.0583       -368.358          35.000  
G 4  21240770.767   111620992.493         194.969          34.000  
G19  19774040.817   103913277.048        -998.657          36.000  
G17  20544829.845   107963811.884       -1700.632          38.000  
G 5  20583291.242   108165912.373        1731.863          42.000  
G12  21692399.556   113994308.427         787.752          41.000  
C 8  36273423.579                3        -77.818          17.000  
C13  36750285.791   191368353.674        -212.076          37.000  
C11  22253607.390   115880332.669       -1244.951          35.000  
C28  22443581.733   116869601.474        1734.901          25.000  
C16  37217102.859   193799190.440        1190.357          34.000  
C 4  37432822.108                2       -365.260          29.000  
C 2  36200619.890   188506095.8023       -321.031          33.000  
> 2019  4 28 12 45 39.9970000  0 15                     
G 2  21595024.918   113482591.369         468.969          40.000  
G 6  20682629.366                3       -800.806          20.000  
C 3  35313161.055   183884864.1242       -367.013          37.000  
G 4  21240733.655   111620798.319         193.884          36.000  
G19  19774230.900   103914275.988        -998.357          38.000  
G17  20545153.392   107965512.789       -1701.006          38.000  
G 5  20582961.710   108164180.134        1732.797          43.000  
G12  21692249.377   113993519.906         788.666          43.000  
C 8  36273440.074                3        -75.272          17.000  
C13  36750326.485   191368565.485        -212.003          34.000  
C11  22253846.598   115881578.349       -1246.216          37.000  
C28  22443249.850                3       1732.471          23.000  
C16  37216874.494   193798000.007        1191.165          36.000  
C 4  37432892.140   194922862.4212       -365.947          30.000  
C 2  36200681.411   188506416.1662       -319.387          36.000  
> 2019  4 28 12 45 40.9970000  0 15                     
G 2  21594935.675   113482122.118         469.227          41.000  
G 6  20682783.129                3       -814.457          18.000  
C 3  35313231.521   183885230.6302       -365.212          35.000  
G 4  21240696.600   111620604.572         194.631          34.000  
G19  19774420.732   103915275.053        -998.986          38.000  
G17  20545476.771   107967213.561       -1700.884          37.000  
G 5  20582631.783   108162446.227        1735.018          42.000  
G12  21692099.430   113992730.742         789.109          42.000  
C 8  36273455.060                3        -84.162          16.000  
C13  36750366.313   191368776.729        -211.745          28.000  
C11  22254085.775   115882824.147       -1246.058          37.000  
C28  22442920.291                3       1740.069          25.000  
C16  37216645.739   193796807.794        1193.265          35.000  
C 4  37432961.398                3       -360.742          29.000  
C 2  36200742.611   188506734.4713       -317.367          35.000  
> 2019  4 28 12 45 41.9970000  0 15                     
G 2  21594846.426   113481653.268         468.788          39.000  
G 6  20682936.494                3       -805.880          16.000  
C 3  35313301.758   183885596.2022       -365.300          36.000  
G 4  21240660.083   111620412.595         191.890          34.000  
G19  19774611.140   103916275.318       -1000.704          37.000  
G17  20545800.446   107968915.288       -1702.349          39.000  
G 5  20582301.446   108160710.989        1735.778          41.000  
G12  21691949.197   113991941.758         789.052          42.000  
C 8  36273473.210                3        -84.162          15.000  
C13  36750408.283                3       -211.723          26.000  
C11  22254325.379   115884071.396       -1248.642          36.000  
C28  22442593.868                3       1731.865          24.000  
C16  37216416.467   193795614.374        1194.094          35.000  
C 4  37433030.592                3       -368.701          27.000  
C 2  36200803.288   188507051.1513       -315.293          35.000  
> 2019  4 28 12 45 42.9970000  0 15                     
G 2  21594757.005   113481184.242         469.169          37.000  
G 6  20683092.916                3       -805.880          16.000  
C 3  35313371.668   183885959.7272       -362.104          38.000  
G 4  21240623.553   111620221.883         189.883          33.000  
G19  19774801.618   103917276.253       -1001.310          37.000  
G17  20546124.481   107970617.261       -1701.706          39.000  
G 5  20581970.337   108158973.316        1740.010          44.000  
G12  21691798.867   113991152.186         790.023          40.000  
C 8  36273490.409                3        -85.809          16.000  
C13  36750453.058                3       -210.793          27.000  
C11  22254565.392   115885319.546       -1248.334          34.000  
C28  22442256.518                3       1738.581          25.000  
C16  37216187.113   193794418.613        1196.762          34.000  
C 4  37433101.320                2       -364.775          29.000  
C 2  36200863.415   188507365.0892       -311.841          35.000  
> 2019  4 28 12 45 43.9970000  0 15                     
G 2  21594668.133   113480716.310         466.539          39.000  
G 6  20683249.706                3       -798.127          16.000  
C 3  35313441.205   183886321.0012       -360.874          38.000  
G 4  21240589.377   111620032.309         189.052          32.000  
G19  19774992.288   103918277.834       -1001.827          37.000  
G17  20546448.525   107972318.964       -1701.405          39.000  
G 5  20581638.816   108157233.272        1741.084          41.000  
G12  21691648.532   113990363.185         787.393          42.000  
C 8  36273507.556                3        -85.809          14.000  
C13  36750490.955                2       -214.089          27.000  
C11  22254805.086   115886568.346       -1249.524          34.000  
C28  22441916.812                2       1731.453          28.000  
C16  37215956.820   193793219.614        1200.818          35.000  
C 4  37433171.553   194924316.2982       -366.337          29.000  
C 2  36200923.149   188507676.3762       -309.968          35.000  
> 2019  4 28 12 45 44.9970000  0 15                     
G 2  21594579.691   113480251.594         463.682          38.000  
G 6  20683403.527                3       -804.239          17.000  
C 3  35313510.371   183886680.7731       -360.556          38.000  
G 4  21240554.476   111619844.311         188.016          34.000  
G19  19775183.350   103919281.210       -1003.797          37.000  
G17  20546772.539   107974021.380       -1703.011          38.000  
G 5  20581307.434   108155492.398        1740.883          42.000  
G12  21691499.029   113989577.086         784.021          39.000  
C 8  36273525.979                3        -85.212          16.000  
C13  36750528.288   191369613.5432       -217.716          35.000  
C11  22255045.126   115887818.658       -1251.176          36.000  
C28  22441586.290   116859197.2542       1726.842          41.000  
C16  37215726.189   193792018.322        1202.695          35.000  
C 4  37433241.694                3       -366.677          29.000  
C 2  36200982.560   188507986.6242       -309.441          35.000  
> 2019  4 28 12 45 45.9970000  0 15                     
G 2  21594491.567   113479790.199         461.165          37.000  
G 6  20683557.827                3       -810.303          17.000  
C 3  35313579.352   183887039.808        -358.713          38.000  
G 4  21240516.614   111619656.996         188.563          30.000  
G19  19775374.336   103920285.512       -1003.954          40.000  
G17  20547096.511   107975723.369       -1701.045          40.000  
G 5  20580976.390   108153751.224        1741.046          43.000  
G12  21691350.473   113988794.158         781.288          40.000  
C 8  36273542.010                3        -85.212          15.000  
C13  36750573.671   191369833.2722       -220.565          38.000  
C11  22255285.268   115889069.320       -1249.590          34.000  
C28  22441254.825   116857471.6532       1724.219          41.000  
C16  37215492.812   193790814.419        1204.312          35.000  
C 4  37433312.090   194925045.4972       -363.680          32.000  
C 2  36201041.983   188508294.1833       -309.538          36.000  
> 2019  4 28 12 45 46.9970000  0 15                     
G 2  21594404.013   113479330.465         460.223          39.000  
G 6  20683714.538                3       -810.303          17.000  
C 3  35313647.962   183887396.907        -355.623          38.000  
G 4  21240481.905   111619468.610         188.874          34.000  
G19  19775564.917   103921289.321       -1003.969          39.000  
G17  20547420.036   107977423.691       -1699.760          41.000  
G 5  20580644.930   108152009.239        1743.650          42.000  
G12  21691201.856   113988013.151         781.191          41.000  
C 8  36273558.476                3        -83.874          15.000  
C13  36750613.329   191370054.5852       -221.877          36.000  
C11  22255525.223   115890318.879       -1249.587          35.000  
C28  22440925.086   116855747.9242       1723.482          41.000  
C16  37215261.854   193789607.176        1209.510          33.000  
C 4  37433381.961   194925408.3452       -362.322          34.000  
C 2  36201101.276   188508602.5883       -306.058          35.000  
> 2019  4 28 12 45 47.9970000  0 15                     
G 2  21594316.921   113478871.144         457.905          37.000  
G 6  20683870.377                3       -814.514          17.000  
C 3  35313716.177   183887751.135        -353.911          38.000  
G 4  21240443.271   111619280.676         187.299          35.000  
G19  19775755.944   103922293.218       -1004.771          36.000  
G17  20547743.513   107979123.236       -1700.052          41.000  
G 5  20580313.177   108150264.066        1745.593          40.000  
G12  21691053.176   113987232.097         779.907          41.000  
C 8  36273577.165                3        -91.836          15.000  
C13  36750654.649   191370276.4372       -222.835          35.000  
C11  22255765.188   115891568.494       -1250.249          39.000  
C28  22440592.805   116854025.1252       1722.145          38.000  
C16  37215029.738   193788396.141        1212.510          36.000  
C 4  37433451.816   194925775.1883       -361.070          33.000  
C 2  36201159.830   188508907.5822       -304.524          35.000  
> 2019  4 28 12 45 48.9970000  0 15                     
G 2  21594229.816   113478414.158         455.149          34.000  
G 6  20684022.851                3       -816.506          18.000  
C 3  35313783.971   183888104.269        -352.880          37.000  
G 4  21240411.023   111619094.336         185.439          36.000  
G19  19775947.417   103923298.527       -1006.370          36.000  
G17  20548066.996   107980823.295       -1700.779          38.000  
G 5  20579980.899   108148518.075        1745.912          41.000  
G12  21690904.884   113986453.119         777.948          40.000  
C 8  36273595.654                3        -92.808          16.000  
C13  36750701.664   191370500.8552       -225.330          35.000  
C11  22256005.425   115892819.353       -1252.021          40.000  
C28  22440262.905   116852305.1752       1718.593          39.000  
C16  37214795.096   193787183.104        1213.763          36.000  
C 4  37433521.656   194926139.1673       -362.158          33.000  
C 2  36201218.241   188509211.4603       -304.109          36.000  
> 2019  4 28 12 45 49.9970000  0 15                     
G 2  21594143.370   113477959.351         454.052          35.000  
G 6  20684178.354                3       -817.119          20.000  
C 3  35313851.578   183888457.054        -351.858          37.000  
G 4  21240374.536   111618909.289         184.260          35.000  
G19  19776139.129   103924305.165       -1006.772          37.000  
G17  20548390.669   107982523.966       -1701.338          39.000  
G 5  20579648.634   108146772.188        1746.361          42.000  
G12  21690756.897   113985676.390         776.073          41.000  
C 8  36273612.940                3       -101.881          22.000  
C13  36750744.760   191370727.3392       -226.847          35.000  
C11  22256245.935   115894071.245       -1252.090          39.000  
C28  22439933.372   116850587.5472       1717.330          38.000  
C16  37214565.008   193785968.869        1215.663          37.000  
C 4  37433591.342   194926501.3052       -361.833          33.000  
C 2  36201276.498   188509515.0332       -303.224          36.000  
> 2019  4 28 12 45 50.9970000  0 15                     
G 2  21594056.802   113477504.691         455.337          36.000  
G 6  20684323.501   108696853.5642       -823.122          30.000  
C 3  35313919.025   183888808.541        -351.051          38.000  
G 4  21240340.303   111618724.884         184.104          35.000  
G19  19776330.735   103925312.244       -1007.096          37.000  
G17  20548714.220   107984224.659       -1700.925          40.000  
G 5  20579316.185   108145025.077        1747.814          41.000  
G12  21690609.650   113984899.877         776.560          41.000  
C 8  36273631.049                2       -100.292          25.000  
C13  36750787.432   191370954.1512       -226.768          35.000  
C11  22256486.547   115895323.549       -1252.635          39.000  
C28  22439602.813   116848870.5002       1716.852          37.000  
C16  37214331.147   193784753.012        1217.076          36.000  
C 4  37433660.709   194926863.1373       -362.059          33.000  
C 2  36201334.802   188509817.0522       -301.316          36.000  
> 2019  4 28 12 45 51.9970000  0 15                     
G 2  21593970.353   113477049.817         455.332          36.000  
G 6  20684483.168   108697675.5662       -821.177          33.000  
C 3  35313986.324   183889158.785        -349.503          38.000  
G 4  21240302.596   111618541.465         183.137          34.000  
G19  19776522.578   103926319.875       -1008.071          37.000  
G17  20549037.889   107985925.679       -1700.724          40.000  
G 5  20578983.560   108143276.719        1748.349          31.000  
G12  21690462.246   113984123.122         776.146          40.000  
C 8  36273650.897   188886385.2712       -102.015          32.000  
C13  36750831.490   191371180.8332       -226.164          36.000  
C11  22256727.253   115896576.489       -1253.088          39.000  
C28  22439272.432   116847153.4412       1717.402          37.000  
C16  37214098.071   193783535.754        1218.308          36.000  
C 4  37433730.431   194927225.0622       -361.717          32.000  
C 2  36201392.531   188510117.3102       -299.986          36.000  
> 2019  4 28 12 45 52.9970000  0 15                     
G 2  21593884.007   113476594.761         454.539          36.000  
G 6  20684639.577   108698498.1442       -822.869          36.000  
C 3  35314053.536   183889507.927        -348.805          35.000  
G 4  21240268.435   111618359.043         181.721          34.000  
G19  19776714.373   103927328.029       -1009.006          37.000  
G17  20549361.748   107987627.128       -1702.345          40.000  
G 5  20578651.397   108141527.747        1749.369          29.000  
G12  21690314.379   113983346.163         776.787          40.000  
C 8  36273670.986   188886487.3282       -101.816          32.000  
C13  36750875.013   191371407.4812       -227.623          35.000  
C11  22256967.870   115897830.045       -1253.988          37.000  
C28  22438942.804   116845436.5052       1716.707          36.000  
C14  22549962.202                3      -2871.442          13.000  
C16  37213863.756   193782317.320        1217.626          35.000  
C 4  37433800.140   194927589.0753       -363.006          31.000  
> 2019  4 28 12 45 53.9970000  0 15                     
G 2  21593797.561   113476139.711         454.917          36.000  
G 6  20684795.383   108699321.7212       -824.062          36.000  
C 3  35314120.651   183889856.853        -348.834          37.000  
G 4  21240234.402   111618178.009         181.345          33.000  
G19  19776906.570   103928337.316       -1010.266          37.000  
G17  20549685.779   107989329.546       -1702.731          40.000  
G 5  20578319.621                3       1748.487          27.000  
G12  21690166.454   113982569.457         775.990          40.000  
C 8  36273691.929   188886590.1142       -103.228          33.000  
C13  36750918.667   191371634.2222       -226.754          35.000  
C11  22257208.759   115899084.752       -1254.772          38.000  
C28  22438613.174   116843719.9372       1716.675          38.000  
C14  22550515.972                3      -2871.442          11.000  
C16  37213629.587   193781098.538        1218.351          35.000  
C 4  37433869.939   194927951.7372       -363.376          32.000  
> 2019  4 28 12 45 54.9970000  0 15                     
G 2  21593710.303   113475684.077         456.383          36.000  
G 6  20684953.877   108700145.3492       -822.345          37.000  
C 3  35314187.617   183890205.128        -348.220          38.000  
G 4  21240199.807   111617998.024         180.220          33.000  
G19  19777098.621   103929347.105       -1009.413          37.000  
G17  20550009.847   107991032.593       -1702.385          40.000  
G 5  20577986.127                3       1752.200          24.000  
G12  21690018.705   113981792.390         777.339          39.000  
C 8  36273709.209   188886692.7902       -102.058          33.000  
C13  36750962.176   191371860.4192       -224.750          35.000  
C11  22257449.945   115900340.132       -1255.217          38.000  
C28  22438283.276   116842002.8832       1717.570          38.000  
C14  22551066.277                3      -2871.442          10.000  
C16  37213396.862   193779879.395        1219.844          29.000  
C 4  37433939.554   194928314.7303       -362.956          32.000  
> 2019  4 28 12 45 55.9970000  0 12                     
G 2  21593623.022   113475226.549         459.341          36.000  
G 6  20685109.951   108700967.0522       -820.802          37.000  
C 3  35314254.599   183890553.461        -348.646          35.000  
G 4  21240165.694   111617817.828         179.982          34.000  
G19  19777290.682   103930356.597       -1008.610          37.000  
G17  20550333.869   107992735.753       -1703.243          38.000  
G12  21689870.616   113981014.442         778.836          41.000  
C 8  36273728.714   188886793.3752        -99.023          32.000  
C13  36751005.228   191372084.6672       -221.606          34.000  
C11  22257691.110   115901595.038       -1254.981          36.000  
C28  22437953.451   116840283.9382       1720.047          34.000  
C 4  37434009.034                2       -363.617          30.000  
> 2019  4 28 12 45 56.9970000  0 13                     
G 2  21593535.358   113474766.716         460.457          34.000  
G 6  20685264.168   108701786.2252       -818.751          39.000  
C 3  35314321.593   183890908.1573       -350.461          34.000  
C16  37212929.604                3       1213.470          34.000  
G 4  21240131.453   111617637.627         179.318          35.000  
G19  19777482.600   103931366.000       -1009.217          36.000  
G17  20550657.991   107994439.754       -1704.390          38.000  
G12  21689722.204   113980235.445         778.994          39.000  
C 8  36273746.507   188886891.465         -96.163          31.000  
C13  36751047.604   191372306.0481       -221.097          33.000  
C11  22257932.322   115902849.843       -1255.167          36.000  
C28  22437622.913   116838562.506        1722.609          35.000  
C 4  37434079.211   194929041.8932       -364.124          30.000  
> 2019  4 28 12 45 57.9970000  0 13                     
G 2  21593447.699   113474305.035         462.442          37.000  
G 6  20685419.381   108702603.2552       -815.758          39.000  
C 3  35314389.027   183891259.0303       -351.942          34.000  
C16  37212696.011                2       1210.900          33.000  
G 4  21240097.614   111617458.350         178.278          35.000  
G19  19777675.025   103932376.040       -1010.655          36.000  
G17  20550982.474   107996145.322       -1706.365          38.000  
G12  21689573.722   113979455.910         780.002          40.000  
C 8  36273767.434   188886987.355         -93.770          30.000  
C13  36751090.667   191372525.782        -218.077          33.000  
C11  22258173.451   115904105.260       -1255.869          36.000  
C28  22437291.905   116836838.973        1726.068          35.000  
C 4  37434148.955                3       -367.285          29.000  
> 2019  4 28 12 45 58.9970000  0 13                     
G 2  21593359.513   113473841.434         464.754          37.000  
G 6  20685575.567   108703417.9392       -813.344          38.000  
C 3  35314456.814   183891612.0342       -353.416          34.000  
C16  37212463.400                2       1207.902          31.000  
G 4  21240063.591   111617279.846         178.660          35.000  
G19  19777867.442   103933386.688       -1010.855          37.000  
G17  20551307.454   107997852.621       -1707.965          40.000  
G12  21689425.413   113978676.050         779.954          40.000  
C 8  36273781.959   188887080.961         -91.865          30.000  
C13  36751130.582   191372743.530        -216.799          32.000  
C11  22258414.343   115905361.271       -1256.575          35.000  
C28  22436960.586   116835113.425        1727.194          37.000  
C 4  37434218.939   194929769.8882       -365.602          31.000  
> 2019  4 28 12 45 59.9970000  0 13                     
G 2  21593270.940   113473375.401         468.408          37.000  
G 6  20685730.130   108704229.4532       -808.619          36.000  
C 3  35314524.696   183891965.4632       -355.234          35.000  
C16  37212231.973                3       1215.108          32.000  
G 4  21240029.460   111617101.128         178.591          31.000  
G19  19778059.519   103934397.058       -1009.521          38.000  
G17  20551632.363   107999560.651       -1708.116          40.000  
G12  21689276.635   113977895.392         781.506          40.000  
C 8  36273798.290                3        -87.523          31.000  
C13  36751173.446   191372958.556        -213.201          32.000  
C11  22258655.367   115906616.791       -1254.274          33.000  
C28  22436628.829   116833385.147        1730.119          37.000  
C 4  37434289.368   194930136.3903       -365.197          31.000  
> 2019  4 28 12 46  0.9970000  0 13                     
G 2  21593181.800   113472907.784         468.297          34.000  
G 6  20685884.017   108705038.448        -808.006          37.000  
C 3  35314593.098   183892321.1682       -358.001          35.000  
C16  37211999.584                3       1212.876          32.000  
G 4  21239994.215                3        179.195          29.000  
G19  19778251.823   103935407.164       -1010.081          37.000  
G17  20551957.714   108001269.140       -1709.496          38.000  
G12  21689128.066   113977114.694         780.485          35.000  
C 8  36273819.730                3        -87.993          31.000  
C13  36751215.120   191373171.724        -212.692          35.000  
C11  22258894.911   115907871.728       -1254.164          31.000  
C28  22436296.767   116831654.985        1729.741          37.000  
C 4  37434359.721   194930502.8263       -365.717          31.000  
> 2019  4 28 12 46  1.9970000  0 13                     
G 2  21593092.428   113472439.322         468.824          35.000  
G 6  20686037.736   108705845.824        -807.776          35.000  
C 3  35314661.977   183892680.5603       -357.201          39.000  
C16  37211768.004   193771408.9232       1202.685          33.000  
G 4  21239961.948   111616744.0182        178.936          30.000  
G19  19778444.105   103936417.836       -1011.629          35.000  
G17  20552283.110   108002978.705       -1710.300          35.000  
G12  21688979.702   113976334.722         779.457          33.000  
C 8  36273836.798                3        -84.562          30.000  
C13  36751252.982   191373383.828        -211.520          32.000  
C11  22259137.552   115909126.899       -1255.855          32.000  
C28  22435964.425   116829923.740        1731.838          37.000  
C 4  37434430.451                3       -367.480          29.000  
> 2019  4 28 12 46  2.9970000  0 13                     
G 2  21593002.972   113471969.946         469.310          34.000  
G 6  20686190.912   108706666.5913       -806.514          34.000  
C 3  35314730.907   183893039.1702       -359.458          27.000  
C16  37211537.690                3       1198.098          23.000  
G 4  21239922.645   111616565.9852        177.462          29.000  
G19  19778636.502   103937429.241       -1012.345          34.000  
G17  20552608.989   108004689.840       -1712.463          33.000  
G12  21688831.283   113975555.296         778.864          33.000  
C 8  36273850.595                3        -78.888          29.000  
C13  36751292.758   191373594.761        -211.168          31.000  
C11  22259377.089   115910382.623       -1256.388          32.000  
C28  22435631.998   116828191.314        1733.391          35.000  
C 4  37434501.663                3       -387.109          27.000  
> 2019  4 28 12 46  3.9970000  0 11                     
G 2  21592913.169   113471498.728         472.557          38.000  
G 6  20686343.634   108707470.3212       -803.084          36.000  
C16  37211304.998   193768998.1932       1196.505          36.000  
G 4  21239891.831   111616388.7982        176.052          31.000  
G19  19778828.823   103938441.295       -1011.745          35.000  
G17  20552935.175   108006402.675       -1713.793          37.000  
G12  21688682.950   113974775.197         782.624          31.000  
C 8  36273869.343                2        -78.730          32.000  
C13  36751334.490   191373803.647        -208.093          35.000  
C11  22259618.484   115911639.047       -1257.070          34.000  
C28  22435299.053   116826456.879        1735.513          37.000  
> 2019  4 28 12 46  4.9970000  0 10                     
G 2  21592823.420   113471026.013         472.473          33.000  
G 6  20686496.062   108708272.2742       -801.552          34.000  
G 4  21239861.408   111616211.4432        177.190          30.000  
G19  19779021.349   103939453.148       -1012.413          37.000  
G17  20553261.114   108008115.807       -1713.188          36.000  
G12  21688530.688   113973994.894         780.619          23.000  
C 8  36273884.874   188887605.4762        -78.918          32.000  
C13  36751374.824   191374010.890        -207.131          36.000  
C11  22259860.617   115912895.135       -1255.839          33.000  
C28  22434965.664   116824720.893        1736.392          39.000  
> 2019  4 28 12 46  5.9970000  0 10                     
G 2  21592733.403   113470553.433         472.189          32.000  
G 6  20686648.624   108709073.6302       -801.289          31.000  
G 4  21239827.321   111616033.7302        177.559          29.000  
G19  19779214.104   103940465.005       -1013.359          29.000  
G17  20553587.102   108009828.903       -1712.777          33.000  
G12  21688384.606                3        778.482          20.000  
C 8  36273899.534   188887685.5992        -80.483          28.000  
C13  36751414.251   191374218.152        -208.310          28.000  
C11  22260103.456                3      -1255.437          30.000  
C28  22434632.062   116822985.000        1735.735          34.000  
> 2019  4 28 12 46  6.9970000  0 10                     
G 2  21592642.775   113470082.281         470.163          31.000  
G 6  20686800.919   108709875.3402       -801.827          30.000  
G 4  21239794.210   111615855.5952        177.077          27.000  
G19  19779404.497                3      -1007.816          19.000  
G17  20553910.991                3      -1711.537          31.000  
G12  21688238.565                3        778.482          17.000  
C 8  36273917.111                2        -80.096          27.000  
C13  36751454.718   191374426.375        -208.574          29.000  
C11  22260339.283                2      -1254.732          17.000  
C28  22434299.426   116821250.447        1733.351          33.000  
> 2019  4 28 12 46  7.9970000  0  9                     
G 2  21592554.373   113469612.121         469.830          27.000  
G 6  20686953.975   108710676.0323       -802.414          29.000  
G 4  21239757.987                3        175.690          18.000  
G19  19779599.265                2      -1013.404          33.000  
G17  20554238.410   108013251.6002      -1713.169          31.000  
C 8  36273929.202                3        -85.031          17.000  
C13  36751497.172                3       -210.671          29.000  
C11  22260582.399                3      -1255.605          21.000  
C28  22433968.958   116819532.0373       1732.709          32.000  
> 2019  4 28 12 46  8.9970000  0 10                     
G 2  21592465.636   113469142.968         466.218          31.000  
G 6  20687104.149   108711479.3972       -803.211          30.000  
G 4  21239730.431                3        175.093          27.000  
G 5  20573358.879   108113730.1522       1726.920          33.000  
G19  19779789.789   103943508.2882      -1013.391          24.000  
G17  20554560.543                3      -1710.883          31.000  
C 8  36273945.103                3        -77.308          21.000  
C13  36751537.065   191374868.7712       -211.141          29.000  
C11  22260824.691                2      -1256.659          24.000  
C28  22433633.360   116817799.5582       1731.741          32.000  
> 2019  4 28 12 46  9.9970000  0 10                     
G 2  21592375.122   113468696.6273        465.760          28.000  
G 6  20687259.003   108712284.0832       -805.773          29.000  
G 4  21239699.392                3        177.201          25.000  
G 5  20573030.228                3       1719.897          29.000  
G19  19779986.008   103944527.1813      -1015.023          30.000  
G17  20554889.573   108016657.2022      -1713.747          29.000  
C 8  36273956.764                3        -85.240          22.000  
C13  36751581.576   191375080.5032       -213.453          28.000  
C11  22261064.282                3      -1242.708          24.000  
C28  22433300.667   116816069.2512       1727.814          30.000  
> 2019  4 28 12 46 10.9970000  0 10                     
G 2  21592283.720   113468232.5942        462.989          28.000  
G 6  20687406.732   108713091.3562       -808.176          28.000  
G 4  21239663.918                3        175.323          24.000  
G 5  20572697.389                2       1724.408          29.000  
G19  19780177.395   103945542.0592      -1014.952          25.000  
G17  20555218.580   108018370.4262      -1712.359          29.000  
C 8  36273974.225                3        -78.501          21.000  
C13  36751622.386                2       -214.959          26.000  
C11  22261304.862                3      -1251.467          23.000  
C28  22432970.280                2       1726.966          28.000  
> 2019  4 28 12 46 11.9970000  0 10                     
G 2  21592191.943                3        461.572          28.000  
G 6  20687568.153   108713900.0262       -809.602          27.000  
G 4  21239627.684                3        182.136          23.000  
G 5  20572370.926   108108528.1692       1726.835          30.000  
G19  19780367.313                3      -1009.906          25.000  
G17  20555541.348                2      -1711.938          28.000  
C 8  36273989.481                3        -96.286          21.000  
C13  36751658.303                3       -217.923          25.000  
C11  22261547.704                3      -1254.437          23.000  
C28  22432639.533   116812617.1872       1723.641          27.000  
> 2019  4 28 12 46 12.9970000  0 10                     
G 2  21592110.310                2        459.424          26.000  
G 6  20687719.712   108714710.0972       -811.348          27.000  
G 4  21239591.582                3        182.849          21.000  
G 5  20572043.122   108106801.9662       1725.770          34.000  
G19  19780560.297                3      -1013.033          26.000  
G17  20555866.238                3      -1710.013          28.000  
C 8  36274007.241                3        -94.862          19.000  
C13  36751699.732                3       -218.488          24.000  
C11  22261789.398                3      -1244.838          22.000  
C28  22432305.812   116810894.2762       1721.693          27.000  
> 2019  4 28 12 46 13.9970000  0 10                     
G 2  21592024.488   113466816.6322        455.639          27.000  
G 6  20687873.545   108715522.2772       -813.936          28.000  
G 4  21239555.561                3        180.903          21.000  
G 5  20571711.915   108105076.7062       1724.510          32.000  
G19  19780754.387   103948565.6092      -1014.505          27.000  
G17  20556188.642                3      -1707.501          30.000  
C 8  36274023.769                3        -88.715          21.000  
C13  36751743.130                3       -221.091          24.000  
C11  22262028.444                3      -1244.124          23.000  
C28  22431975.033   116809174.3342       1717.405          28.000  
> 2019  4 28 12 46 14.9970000  0 11                     
G 2  21591938.072   113466363.0522        452.135          29.000  
G 6  20688026.921   108716336.8522       -814.846          29.000  
G 4  21239519.949                2        182.035          30.000  
G 5  20571381.246   108103352.8932       1723.223          32.000  
G19  19780948.558   103949580.2012      -1014.395          28.000  
G17  20556513.388   108025206.7392      -1706.476          31.000  
G12  21687078.566                3        728.219          16.000  
C 8  36274043.123                3        -88.836          22.000  
C13  36751786.058                3       -231.134          24.000  
C11  22262269.338                2      -1250.569          30.000  
C28  22431648.212                3       1714.075          28.000  
> 2019  4 28 12 46 15.9970000  0 10                     
G 2  21591852.468   113465910.7102        452.424          36.000  
G 6  20688182.824   108717151.4022       -814.081          36.000  
G 4  21239486.951   111614248.2162        181.426          31.000  
G 5  20571055.389   108101629.8032       1722.742          38.000  
G19  19781144.923   103950593.6112      -1014.087          36.000  
G17  20556839.604   108026912.8952      -1706.389          36.000  
C 8  36274060.663                3        -97.249          23.000  
C13  36751830.059                2       -225.670          27.000  
C11  22262510.709   115926696.6792      -1250.919          29.000  
C28  22431317.731   116805726.4302       1714.426          29.000  
> 2019  4 28 12 46 16.9970000  0 13                     
G 2  21591764.478   113465459.3292        452.737          32.000  
G 6  20688341.313   108717964.7502       -812.336          34.000  
C 3  35315700.435                3       -363.859          34.000  
G 4  21239449.629   111614065.3002        183.700          30.000  
G 5  20570729.389   108099910.0282       1717.943          36.000  
G19  19781335.804   103951606.5432      -1012.678          33.000  
G17  20557167.806   108028618.5032      -1704.998          36.000  
C 4  37435466.259                3       -366.680          31.000  
C 8  36274080.608                2        -90.551          30.000  
C13  36751872.133   191376617.8562       -224.049          32.000  
C11  22262747.978   115927945.5082      -1248.259          30.000  
C28  22430987.538   116804012.0962       1715.097          35.000  
C14  22562641.960                3      -2755.082          25.000  
> 2019  4 28 12 46 17.9970000  0 13                     
G 2  21591684.368   113465006.4582        454.139          31.000  
G 6  20688491.119   108718774.8662       -809.838          33.000  
C 3  35315769.468                2       -361.359          33.000  
G 4  21239415.409   111613881.4262        183.890          30.000  
G 5  20570406.431   108098193.7272       1714.917          36.000  
G19  19781527.831   103952618.9972      -1012.028          33.000  
G17  20557487.596   108030324.5272      -1706.293          36.000  
C 4  37435532.057                3       -331.539          28.000  
C 8  36274100.356   188888712.9682        -86.844          28.000  
C13  36751914.356   191376841.6862       -223.270          30.000  
C11  22262988.112   115929193.2642      -1247.696          30.000  
C28  22430659.943   116802295.9452       1716.618          33.000  
C14  22563164.356                3      -2750.441          28.000  
> 2019  4 28 12 46 18.9970000  0 15                     
G 2  21591594.571                3        454.038          26.000  
G 6  20688648.867   108719583.485        -807.889          28.000  
C 3  35315836.640                3       -359.521          29.000  
G 4  21239375.852   111613697.2262        184.798          29.000  
G 5  20570079.028   108096478.0402       1716.658          34.000  
G19  19781719.807   103953631.2582      -1011.954          29.000  
G17  20557815.730   108032030.4762      -1705.548          32.000  
C 4  37435601.123                3       -323.047          27.000  
G12  21686554.542                3        744.861          23.000  
C 8  36274116.669   188888799.4722        -85.160          27.000  
C13  36751959.212   191377064.2372       -222.167          29.000  
C11  22263225.394   115930440.5022      -1246.180          28.000  
C28  22430327.204                3       1716.691          28.000  
C14  22563696.110   117495055.3442      -2751.185          28.000  
C 2  36202994.130                3       -334.912          29.000  
> 2019  4 28 12 46 19.9970000  0 13                     
G 2  21591507.255   113464136.3562        455.777          31.000  
G 6  20688799.506   108720391.139        -807.139          32.000  
C 3  35315903.638   183899146.4562       -359.356          31.000  
G 4  21239348.348   111613528.5803        184.446          29.000  
G 5  20569751.633   108094761.8432       1715.826          37.000  
G19  19781914.617   103954642.8982      -1012.178          33.000  
G17  20558142.337   108033735.8982      -1705.920          35.000  
C 8  36274129.199   188888884.9392        -85.216          25.000  
C13  36752002.716   191377285.6092       -221.839          28.000  
C11  22263464.619   115931687.1372      -1246.759          27.000  
C28  22430002.126   116798875.2602       1718.085          31.000  
C14  22564226.839   117497806.9272      -2751.696          28.000  
C 2  36203051.316                3       -320.020          29.000  
> 2019  4 28 12 46 20.9970000  0 13                     
G 2  21591424.971   113463681.9842        454.582          31.000  
G 6  20688950.829   108721199.564        -807.862          32.000  
C 3  35315973.845   183899506.1362       -358.760          31.000  
G 4  21239313.079   111613345.2852        182.249          29.000  
G 5  20569426.385   108093046.8092       1714.806          37.000  
G19  19782109.189   103955655.8162      -1013.392          33.000  
G17  20558463.840   108035442.4982      -1706.388          35.000  
C 8  36274142.559                3        -85.987          25.000  
C13  36752047.639   191377507.6212       -222.307          28.000  
C11  22263706.538   115932934.7652      -1248.171          27.000  
C28  22429670.764   116797157.7052       1717.000          31.000  
C14  22564758.889   117500559.5842      -2753.114          28.000  
C 2  36203112.774                3       -316.553          28.000  
> 2019  4 28 12 46 21.9970000  0 13                     
G 2  21591338.393   113463227.8142        454.556          32.000  
G 6  20689109.459   108722008.322        -809.079          33.000  
C 3  35316042.974   183899866.1612       -359.655          31.000  
G 4  21239278.521   111613162.6222        182.743          29.000  
G 5  20569099.410   108091332.5152       1714.260          38.000  
G19  19782300.714   103956669.4452      -1014.051          34.000  
G17  20558787.221   108037149.8742      -1707.296          35.000  
C 8  36274160.539                3        -85.947          25.000  
C13  36752089.306   191377729.7792       -221.580          28.000  
C11  22263945.835   115934182.9022      -1248.176          27.000  
C28  22429338.209   116795440.4672       1717.142          31.000  
C14  22565285.271   117503312.7032      -2752.915          28.000  
C 2  36203173.317                3       -300.830          28.000  
> 2019  4 28 12 46 22.9970000  0 14                     
G 2  21591253.034   113462773.0382        455.162          32.000  
G 6  20689265.285   108722816.505        -808.942          33.000  
C 3  35316112.352   183900225.5702       -358.819          32.000  
G 4  21239245.355   111612980.0082        182.505          29.000  
G 5  20568773.684   108089618.1012       1714.581          36.000  
G19  19782492.008   103957682.9502      -1013.229          34.000  
G17  20559112.986   108038857.1682      -1707.720          35.000  
C 8  36274179.185   188889138.7302        -85.749          26.000  
C13  36752128.817                3       -221.389          29.000  
C11  22264183.430   115935430.8192      -1247.600          28.000  
C28  22429010.601   116793722.6402       1718.221          33.000  
C14  22565815.040   117506065.5902      -2753.818          29.000  
C 2  36203237.002                3       -326.953          30.000  
G 9  21657819.219                3       -886.539          26.000  
> 2019  4 28 12 46 23.9970000  0 14                     
G 2  21591166.470   113462317.3242        455.448          32.000  
G 6  20689417.272   108723623.706        -806.910          33.000  
C 3  35316181.245   183900584.0762       -357.771          33.000  
G 4  21239208.545   111612797.0852        182.137          29.000  
G 5  20568447.651   108087903.2202       1715.007          38.000  
G19  19782684.599   103958696.0672      -1012.772          34.000  
G17  20559438.793   108040563.9322      -1706.594          36.000  
C 8  36274195.348   188889223.2112        -84.161          26.000  
C13  36752172.838   191378176.7532       -219.835          29.000  
C11  22264423.460   115936678.1422      -1247.251          28.000  
C28  22428680.246   116792003.9662       1719.347          33.000  
C14  22566341.637   117508817.7942      -2752.589          30.000  
C 2  36203299.136                3       -317.383          30.000  
G 9  21657988.942                2       -885.025          27.000  
> 2019  4 28 12 46 24.9970000  0 14                     
G 2  21591078.558   113461861.3302        455.033          33.000  
G 6  20689569.608   108724430.871        -808.937          34.000  
C 3  35316250.095   183900942.4042       -358.672          33.000  
G 4  21239172.077   111612614.3642        181.749          30.000  
G 5  20568121.303   108086188.5862       1714.159          40.000  
G19  19782877.773   103959709.469       -1013.730          35.000  
G17  20559762.420   108042271.053       -1708.235          37.000  
C 8  36274210.824   188889307.4062        -84.801          27.000  
C13  36752213.645   191378396.9462       -220.739          30.000  
C11  22264663.409   115937925.5172      -1247.915          28.000  
C28  22428349.342   116790285.1622       1718.538          33.000  
C14  22566872.259   117511593.5963      -2753.201          30.000  
C 2  36203360.475                3       -319.385          30.000  
G 9  21658159.393   113814385.5302       -887.365          27.000  
> 2019  4 28 12 46 25.9970000  0 15                     
G 2  21590990.877   113461406.4752        454.966          33.000  
G 6  20689723.900   108725239.093        -808.331          34.000  
C 3  35316319.446   183901301.8792       -359.525          33.000  
G 4  21239138.289   111612433.4202        180.882          30.000  
G 5  20567795.473   108084475.6112       1712.802          38.000  
G19  19783071.741   103960724.540       -1015.021          35.000  
G17  20560089.119   108043979.746       -1709.164          36.000  
G12  21685522.489                3        744.347          25.000  
C 8  36274229.234   188889392.7052        -85.645          27.000  
C13  36752256.300   191378618.1842       -221.168          30.000  
C11  22264903.812   115939174.4032      -1249.252          29.000  
C28  22428019.367   116788567.5282       1718.511          33.000  
C14  22567399.454   117514347.3002      -2753.924          30.000  
C 2  36203421.979   188520687.0382       -318.758          30.000  
G 9  21658328.516   113815273.3842       -888.011          27.000  
> 2019  4 28 12 46 26.9970000  0 15                     
G 2  21590903.818   113460951.2082        455.153          32.000  
G 6  20689878.429   108726047.023        -807.928          34.000  
C 3  35316388.351   183901660.4701       -358.705          34.000  
G 4  21239103.419   111612252.6082        180.893          30.000  
G 5  20567469.483   108082762.6862       1712.932          38.000  
G19  19783264.607   103961739.672       -1014.291          34.000  
G17  20560414.947   108045688.590       -1709.572          36.000  
G12  21685386.388                2        743.138          26.000  
C 8  36274244.462   188889477.4582        -84.716          28.000  
C13  36752299.653   191378839.0132       -221.277          31.000  
C11  22265147.391   115940422.6871      -1248.451          30.000  
C28  22427689.800   116786849.638        1717.886          34.000  
C14  22567930.080   117517100.9792      -2754.682          31.000  
C 2  36203483.198   188521005.7702       -319.282          31.000  
G 9  21658497.177   113816161.5432       -888.712          28.000  
> 2019  4 28 12 46 27.9970000  0 15                     
G 2  21590817.404   113460496.3722        453.861          32.000  
G 6  20690032.289   108726855.453        -808.457          33.000  
C 3  35316457.259   183902028.5663       -359.896          34.000  
G 4  21239066.213   111612072.8852        178.877          29.000  
G 5  20567143.661   108081050.7082       1710.963          37.000  
G19  19783458.104   103962755.866       -1017.312          34.000  
G17  20560740.252   108047398.315       -1710.295          35.000  
G12  21685249.916                2        743.771          26.000  
C 8  36274261.181   188889562.5632        -85.359          28.000  
C13  36752341.706                3       -233.398          31.000  
C11  22265386.488   115941672.198       -1249.570          29.000  
C28  22427360.048   116785132.168        1717.063          33.000  
C14  22568458.831   117519855.2972      -2754.632          31.000  
C 2  36203544.584   188521324.8842       -319.197          30.000  
G 9  21658671.093   113817050.6232       -889.411          27.000  
> 2019  4 28 12 46 28.9970000  0 15                     
G 2  21590731.231   113460041.8572        455.508          31.000  
G 6  20690186.146   108727664.245        -807.982          33.000  
C 3  35316526.500   183902389.5502       -360.107          32.000  
G 4  21239032.802   111611894.0562        178.122          29.000  
G 5  20566817.997   108079339.5932       1710.836          37.000  
G19  19783651.718   103963772.844       -1016.572          34.000  
G17  20561065.947   108049108.976       -1711.104          34.000  
G12  21685113.052   113955986.8022        742.459          26.000  
C 8  36274276.542   188889647.9732        -85.233          26.000  
C13  36752384.315                2       -221.331          29.000  
C11  22265623.747                3      -1251.290          28.000  
C28  22427030.435   116783415.190        1717.012          32.000  
C14  22568988.988   117522610.3712      -2755.471          29.000  
C 2  36203605.856                2       -319.165          29.000  
G 9  21658842.870   113817940.7502       -890.022          27.000  
> 2019  4 28 12 46 29.9970000  0 15                     
G 2  21590643.875   113459586.6582        455.643          31.000  
G 6  20690339.712   108728472.490        -808.085          32.000  
C 3  35316595.557   183902748.7862       -358.823          31.000  
G 4  21238998.628   111611715.0482        179.282          28.000  
G 5  20566492.330   108077628.2082       1711.865          34.000  
G19  19783845.235   103964789.649       -1015.623          32.000  
G17  20561391.485   108050819.392       -1710.289          34.000  
G12  21684973.603   113955243.5742        743.619          26.000  
C 8  36274291.944   188889732.6332        -84.125          25.000  
C13  36752424.507                2       -219.759          28.000  
C11  22265864.648                3      -1248.845          27.000  
C28  22426700.351   116781697.552        1718.242          31.000  
C14  22569516.859                3      -2753.877          28.000  
C 2  36203666.312                3       -309.033          28.000  
G 9  21659015.252   113818830.8042       -890.029          27.000  
> 2019  4 28 12 46 30.9970000  0 15                     
G 2  21590556.528   113459130.487         456.000          31.000  
G 6  20690493.398   108729279.768        -807.993          33.000  
C 3  35316664.461   183903107.2472       -359.412          32.000  
G 4  21238963.322   111611535.1991        179.057          29.000  
G 5  20566166.794   108075916.434        1710.988          37.000  
G19  19784038.756   103965806.072       -1016.834          34.000  
G17  20561716.953   108052529.367       -1710.594          35.000  
G12  21684835.572   113954500.1462        742.480          27.000  
C 8  36274306.639   188889816.2582        -83.959          26.000  
C13  36752471.745   191379718.3042       -219.849          28.000  
C11  22266104.054                2      -1250.045          28.000  
C28  22426370.335   116779979.049        1718.019          32.000  
C14  22570043.612   117528108.0162      -2754.654          29.000  
C 2  36203727.630   188522278.3332       -319.451          29.000  
G 9  21659187.263   113819720.4842       -890.621          27.000  
> 2019  4 28 12 46 31.9970000  0 15                     
G 2  21590470.298   113458675.135         455.913          32.000  
G 6  20690647.198   108730087.948        -808.365          33.000  
C 3  35316733.232   183903466.4132       -358.027          33.000  
G 4  21238929.346   111611357.297         177.515          29.000  
G 5  20565841.155   108074205.967        1709.769          37.000  
G19  19784232.468   103966823.840       -1017.646          34.000  
G17  20562042.771   108054240.700       -1711.683          35.000  
G12  21684696.511   113953758.1632        741.461          27.000  
C 8  36274322.761   188889900.6162        -84.296          27.000  
C13  36752512.609   191379938.7762       -221.188          29.000  
C11  22266343.981   115946665.6092      -1250.740          29.000  
C28  22426040.286   116778261.508        1716.572          33.000  
C14  22570568.894   117530863.1452      -2755.052          29.000  
C 2  36203788.688                3       -315.625          30.000  
G 9  21659359.530   113820611.5932       -891.157          28.000  
> 2019  4 28 12 46 32.9970000  0 15                     
G 2  21590384.746   113458220.020         456.115          31.000  
G 6  20690801.148   108730896.396        -808.708          32.000  
C 3  35316802.521   183903827.0163       -360.037          33.000  
G 4  21238895.397   111611180.177         176.895          29.000  
G 5  20565515.630   108072496.207        1709.021          36.000  
G19  19784426.153   103967842.369       -1018.664          33.000  
G17  20562368.719   108055952.768       -1712.378          35.000  
G12  21684556.109   113953017.0922        740.474          26.000  
C 8  36274340.649   188889985.179         -84.269          26.000  
C13  36752551.154   191380159.3152       -220.434          29.000  
C11  22266584.111   115947916.6222      -1251.353          28.000  
C28  22425710.420   116776544.152        1717.635          33.000  
C14  22571098.453   117533618.8682      -2756.389          29.000  
C 2  36203850.059   188522916.2532       -319.907          30.000  
G 9  21659531.958   113821503.6382       -892.984          27.000  
> 2019  4 28 12 46 33.9970000  0 15                     
G 2  21590298.411   113457764.233         456.297          31.000  
G 6  20690954.865   108731704.204        -807.181          32.000  
C 3  35316871.504   183904185.8492       -358.119          31.000  
G 4  21238869.250   111611003.000         176.243          29.000  
G 5  20565190.118   108070786.255        1709.866          37.000  
G19  19784620.114   103968860.672       -1017.762          33.000  
G17  20562694.240   108057664.640       -1712.223          35.000  
G12  21684414.873   113952275.8672        741.400          25.000  
C 8  36274358.141                3        -83.059          25.000  
C13  36752593.253   191380379.0792       -219.473          28.000  
C11  22266820.250   115949167.2962      -1250.984          28.000  
C28  22425383.300   116774826.313        1717.388          31.000  
C14  22571627.745   117536374.1352      -2755.417          28.000  
C 2  36203910.925                3       -317.347          29.000  
G 9  21659704.822   113822395.5092       -892.154          27.000  
> 2019  4 28 12 46 34.9970000  0 14                     
G 2  21590209.408   113457308.238         455.725          31.000  
G 6  20691108.795   108732511.855        -807.037          33.000  
C 3  35316940.316   183904544.4992       -357.788          31.000  
G 4  21238832.399   111610826.008         177.010          29.000  
G 5  20564864.759   108069076.549        1709.736          37.000  
G19  19784813.971   103969879.280       -1018.118          33.000  
G17  20563019.782   108059376.787       -1712.313          35.000  
C 8  36274374.900                3        -84.683          25.000  
C13  36752636.630   191380598.6212       -219.235          28.000  
C11  22267062.044   115950418.0502      -1250.678          27.000  
C28  22425049.842   116773108.209        1718.425          31.000  
C14  22572154.586   117539129.5332      -2755.198          28.000  
C 2  36203971.909                3       -318.018          29.000  
G 9  21659877.714   113823287.7432       -892.328          27.000  
> 2019  4 28 12 46 35.9970000  0 14                     
G 2  21590124.836   113456851.225         456.912          31.000  
G 6  20691262.427   108733318.661        -806.020          33.000  
C 3  35317009.064   183904902.3343       -357.785          33.000  
G 4  21238795.761   111610648.820         176.379          29.000  
G 5  20564539.304   108067366.406        1710.353          37.000  
G19  19785007.500   103970897.505       -1017.860          33.000  
G17  20563345.401   108061088.516       -1711.796          35.000  
C 8  36274389.872   188890234.9172        -81.827          26.000  
C13  36752680.982   191380817.1162       -218.213          29.000  
C11  22267303.023   115951668.2472      -1249.902          28.000  
C28  22424719.568   116771389.315        1719.730          33.000  
C14  22572681.382   117541884.2952      -2754.389          28.000  
C 2  36204032.758   188523867.2452       -316.359          30.000  
G 9  21660053.508   113824179.6542       -891.570          28.000  
> 2019  4 28 12 46 36.9970000  0 14                     
G 2  21590037.519   113456393.526         458.756          32.000  
G 6  20691416.046   108734124.863        -805.849          34.000  
C 3  35317077.652   183905259.4932       -356.262          33.000  
G 4  21238763.929   111610471.381         178.374          30.000  
G 5  20564213.611   108065656.135        1710.342          37.000  
G19  19785200.846   103971915.572       -1017.097          33.000  
G17  20563671.064   108062800.098       -1711.466          35.000  
C 8  36274407.222   188890316.6852        -81.554          27.000  
C13  36752722.984   191381034.9082       -216.866          30.000  
C11  22267543.230   115952918.1172      -1250.100          29.000  
C28  22424389.279   116769669.847        1719.731          33.000  
C14  22573209.439   117544638.7752      -2754.517          29.000  
C 2  36204093.644   188524184.0522       -316.857          30.000  
G 9  21660228.335   113825071.5892       -892.147          28.000  
> 2019  4 28 12 46 37.9970000  0 14                     
G 2  21589950.781   113455936.357         456.219          32.000  
G 6  20691569.965   108734931.525        -807.687          34.000  
C 3  35317146.264   183905617.1563       -358.732          33.000  
G 4  21238732.274   111610295.105         175.362          30.000  
G 5  20563888.465   108063946.752        1708.037          37.000  
G19  19785394.744   103972934.613       -1020.196          33.000  
G17  20563996.737   108064512.620       -1713.463          35.000  
C 8  36274421.464   188890398.8262        -83.250          27.000  
C13  36752763.715   191381253.0302       -218.498          30.000  
C11  22267788.490   115954168.7182      -1251.810          29.000  
C28  22424060.185   116767950.875        1717.601          34.000  
C14  22573736.130   117547393.8822      -2755.176          29.000  
C 2  36204154.563   188524501.2412       -317.834          30.000  
G 9  21660404.010   113825964.5122       -894.247          28.000  
> 2019  4 28 12 46 38.9970000  0 14                     
G 2  21589863.937   113455480.720         455.376          31.000  
G 6  20691723.900   108735739.893        -809.185          34.000  
C 3  35317215.426   183905976.4062       -359.892          33.000  
G 4  21238700.166   111610120.964         173.381          29.000  
G 5  20563563.723   108062239.474        1706.788          37.000  
G19  19785588.967   103973955.797       -1021.919          33.000  
G17  20564322.633   108066227.251       -1715.471          35.000  
C 8  36274438.211   188890487.4903        -84.483          27.000  
C13  36752806.239   191381472.710        -220.370          30.000  
C11  22268029.670   115955420.7931      -1253.218          29.000  
C28  22423729.196   116766233.539        1717.073          33.000  
C14  22574269.009   117550150.5041      -2757.808          29.000  
C 2  36204215.617                3       -318.342          30.000  
G 9  21660577.245   113826859.6932       -896.333          28.000  
> 2019  4 28 12 46 39.9970000  0 14                     
G 2  21589777.205   113455025.351         456.440          31.000  
G 6  20691877.850   108736548.598        -808.112          35.000  
C 3  35317284.498   183906337.0143       -358.946          34.000  
G 4  21238664.688   111609947.707         173.282          30.000  
G 5  20563238.560   108060533.003        1707.068          37.000  
G19  19785783.129   103974977.762       -1021.421          34.000  
G17  20564649.068   108067942.673       -1714.775          35.000  
C 8  36274455.666   188890571.3292        -83.549          28.000  
C13  36752848.456   191381692.541        -219.099          31.000  
C11  22268268.849   115956673.996       -1252.593          30.000  
C28  22423398.724   116764516.620        1717.683          34.000  
C14  22574798.844   117552908.175       -2757.115          30.000  
C 2  36204276.913   188525139.3012       -318.253          31.000  
G 9  21660748.940   113827755.7632       -896.131          29.000  
> 2019  4 28 12 46 40.9970000  0 14                     
G 2  21589690.421   113454569.077         456.259          31.000  
G 6  20692031.851   108737356.324        -807.389          35.000  
C 3  35317353.452   183906695.6782       -358.140          35.000  
G 4  21238625.091   111609774.045         173.565          30.000  
G 5  20562913.855   108058826.033        1707.314          37.000  
G19  19785977.307   103975999.320       -1021.374          34.000  
G17  20564975.415   108069657.680       -1715.223          36.000  
C 8  36274470.318   188890654.1652        -82.678          29.000  
C13  36752893.263   191381911.436        -219.451          31.000  
C11  22268509.900   115957926.563       -1252.434          31.000  
C28  22423069.316   116762798.820        1718.123          35.000  
C14  22575327.326   117555665.176       -2756.534          31.000  
C 2  36204338.176   188525457.5422       -317.913          32.000  
G 9  21660920.419   113828651.4432       -895.424          29.000  
> 2019  4 28 12 46 41.9970000  0 14                     
G 2  21589602.976   113454112.146         456.696          31.000  
G 6  20692185.336   108738163.627        -807.742          34.000  
C 3  35317422.335   183907053.8823       -358.675          35.000  
G 4  21238590.969   111609600.337         173.044          29.000  
G 5  20562589.054   108057119.043        1705.974          37.000  
G19  19786171.606   103977020.788       -1022.003          33.000  
G17  20565301.599   108071372.586       -1715.254          36.000  
C 8  36274488.021   188890736.3682        -82.599          29.000  
C13  36752932.372   191382129.651        -218.926          31.000  
C11  22268749.186                3      -1250.781          31.000  
C28  22422739.252   116761080.497        1718.155          35.000  
C14  22575861.218   117558421.993       -2757.863          31.000  
C 2  36204399.182   188525775.2712       -317.771          32.000  
G 9  21661094.832   113829547.2032       -896.462          29.000  
> 2019  4 28 12 46 42.9970000  0 14                     
G 2  21589516.150   113453655.743         456.133          31.000  
G 6  20692339.134   108738971.412        -808.151          34.000  
C 3  35317491.379   183907412.5222       -359.259          35.000  
G 4  21238556.621   111609427.746         171.877          29.000  
G 5  20562264.216   108055412.985        1704.880          37.000  
G19  19786365.908   103978043.288       -1023.486          34.000  
G17  20565628.001   108073088.488       -1716.742          36.000  
C 8  36274503.785   188890818.9962        -83.408          29.000  
C13  36752974.697   191382348.271        -218.208          32.000  
C11  22268989.220   115960438.5302      -1252.830          31.000  
C28  22422409.620   116759362.732        1717.272          35.000  
C14  22576392.356   117561179.531       -2758.332          31.000  
C 2  36204460.277   188526093.5382       -318.433          32.000  
G 9  21661264.383   113830444.028        -897.607          29.000  
> 2019  4 28 12 46 43.9970000  0 16                     
G 2  21589428.988   113453199.187         457.603          31.000  
G 6  20692492.571   108739779.122        -806.327          34.000  
G12  21682980.044                3        737.805          21.000  
C 3  35317560.246   183907771.1112       -358.306          34.000  
G 4  21238524.927   111609255.604         172.587          29.000  
G 5  20561939.444   108053707.289        1706.365          37.000  
G19  19786560.718   103979066.200       -1023.065          34.000  
G17  20565954.610   108074804.752       -1715.337          36.000  
C 4  37437269.191                3       -282.031          27.000  
C 8  36274519.111   188890901.3702        -81.711          28.000  
C13  36753014.776   191382566.755        -218.275          31.000  
C11  22269230.877   115961691.9642      -1253.571          30.000  
C28  22422079.638   116757644.953        1718.767          35.000  
C14  22576918.997   117563937.265       -2756.883          30.000  
C 2  36204521.360   188526411.7312       -317.827          31.000  
G 9  21661438.939   113831341.334        -896.634          29.000  
> 2019  4 28 12 46 44.9970000  0 15                     
G 2  21589341.901   113452741.503         457.431          32.000  
G 6  20692646.064   108740585.770        -806.100          34.000  
G12  21682846.879                3        737.805          23.000  
C 3  35317628.898   183908129.5473       -357.419          34.000  
G 4  21238481.960   111609082.888         172.448          29.000  
G 5  20561614.721   108052000.946        1706.450          37.000  
G19  19786755.207   103980088.413       -1021.893          33.000  
G17  20566281.221   108076520.383       -1716.011          36.000  
C 8  36274529.954   188890982.5472        -81.003          28.000  
C13  36753056.739   191382784.025        -218.043          31.000  
C11  22269470.055   115962944.4982      -1252.701          30.000  
C28  22421749.617   116755926.082        1719.015          34.000  
C14  22577449.802   117566694.171       -2756.919          30.000  
C 2  36204582.418   188526728.7722       -317.024          31.000  
G 9  21661600.825   113832238.070        -895.845          30.000  
> 2019  4 28 12 46 45.9970000  0 15                     
G 2  21589254.672   113452283.675         457.714          31.000  
G 6  20692799.399   108741392.380        -806.956          34.000  
G12  21682717.240                3        737.805          25.000  
C 3  35317697.754   183908486.9742       -358.003          34.000  
G 4  21238447.967   111608910.638         171.198          29.000  
G 5  20561290.376   108050295.013        1705.194          37.000  
G19  19786949.794   103981111.134       -1023.401          34.000  
G17  20566607.909   108078236.444       -1716.820          36.000  
C 8  36274553.217   188891063.5482        -81.322          29.000  
C13  36753097.673   191383001.053        -218.093          31.000  
C11  22269711.064   115964197.3142      -1253.543          30.000  
C28  22421419.603   116754207.181        1718.847          35.000  
C14  22577974.890   117569451.308       -2757.505          31.000  
C 2  36204643.239                3       -307.959          31.000  
G 9  21661772.912   113833135.400        -897.835          30.000  
> 2019  4 28 12 46 46.9970000  0 14                     
G 2  21589167.416   113451827.073         456.453          32.000  
G 6  20692952.786   108742200.231        -808.160          34.000  
C 3  35317766.695   183908847.6113       -359.167          34.000  
G 4  21238418.524   111608740.200         169.661          29.000  
G 5  20560965.883   108048590.755        1703.863          37.000  
G19  19787144.835   103982135.548       -1025.183          33.000  
G17  20566934.883   108079954.200       -1718.472          36.000  
C 8  36274563.068   188891145.7232        -82.403          29.000  
C13  36753141.802   191383219.221        -218.352          31.000  
C11  22269952.732   115965451.6052      -1254.688          31.000  
C28  22421089.737   116752489.566        1717.097          35.000  
C14  22578509.192   117572209.923       -2759.305          31.000  
C 2  36204704.048   188527363.4712       -318.445          31.000  
G 9  21661938.657   113834034.523        -899.972          30.000  
> 2019  4 28 12 46 47.9970000  0 14                     
G 2  21589080.451   113451370.351         457.399          32.000  
G 6  20693106.461   108743008.046        -807.405          35.000  
C 3  35317835.707   183909207.1983       -358.670          35.000  
G 4  21238394.194   111608570.175         170.749          30.000  
G 5  20560641.370   108046886.901        1704.196          37.000  
G19  19787339.575   103983160.380       -1024.890          33.000  
G17  20567262.070   108081672.357       -1718.026          36.000  
C 8  36274580.834   188891227.7042        -81.589          29.000  
C13  36753181.644   191383437.265        -217.732          31.000  
C11  22270193.288   115966706.1832      -1254.584          31.000  
C28  22420760.112   116750771.965        1717.351          35.000  
C14  22579040.401   117574968.748       -2758.371          31.000  
C 2  36204765.187   188527681.6172       -317.300          31.000  
G 9  21662103.803   113834934.165        -899.580          30.000  
> 2019  4 28 12 46 48.9970000  0 15                     
G 2  21588993.272   113450913.402         456.028          31.000  
G 6  20693260.006   108743815.668        -808.081          35.000  
G12  21682306.265                3        730.686          25.000  
C 3  35317904.234   183909563.5703       -358.951          35.000  
G 4  21238366.267   111608400.514         169.010          30.000  
G 5  20560316.892   108045183.300        1702.764          37.000  
G19  19787534.754   103984185.478       -1026.172          34.000  
G17  20567589.172   108083390.766       -1718.948          36.000  
C 8  36274597.351   188891309.3512        -81.999          29.000  
C13  36753222.586   191383654.960        -218.072          31.000  
C11  22270434.114   115967960.8302      -1255.487          30.000  
C28  22420430.569   116749054.127        1717.244          35.000  
C14  22579569.118   117577727.650       -2760.009          30.000  
C 2  36204826.261   188527999.5282       -317.248          32.000  
G 9  21662274.861   113835834.092        -900.731          29.000  
> 2019  4 28 12 46 49.9970000  0 15                     
G 2  21588906.468   113450457.211         455.810          31.000  
G 6  20693414.189   108744624.172        -808.495          35.000  
G12  21682167.911                3        731.561          24.000  
C 3  35317973.114   183909922.7622       -359.169          33.000  
G 4  21238333.631   111608232.176         169.031          30.000  
G 5  20559992.820   108043480.970        1702.115          37.000  
G19  19787730.144   103985211.895       -1026.776          33.000  
G17  20567916.571   108085110.512       -1720.237          36.000  
C 8  36274613.333   188891391.7472        -82.495          28.000  
C13  36753265.141   191383873.409        -218.900          30.000  
C11  22270676.794   115969216.6272      -1256.209          30.000  
C28  22420100.862   116747337.185        1716.470          34.000  
C14  22580097.668   117580487.564       -2759.177          29.000  
C 2  36204887.478   188528318.3522       -319.236          31.000  
G 9  21662451.209   113836735.459        -901.537          29.000  
> 2019  4 28 12 46 50.9970000  0 15                     
G 2  21588819.385   113450000.956         456.826          31.000  
G 6  20693568.192   108745432.643        -808.330          35.000  
G12  21682025.650                3        730.996          24.000  
C 3  35318041.768   183910279.9223       -358.836          32.000  
G 4  21238304.642   111608064.482         168.110          30.000  
G 5  20559668.898   108041779.104        1701.877          37.000  
G19  19787925.635   103986238.820       -1027.167          33.000  
G17  20568243.989   108086830.699       -1720.271          36.000  
C 8  36274629.586   188891474.004         -81.376          27.000  
C13  36753309.551   191384091.668        -217.602          29.000  
C11  22270916.204   115970472.1741      -1255.626          29.000  
C28  22419771.157   116745620.274        1717.387          34.000  
C14  22580626.706   117583247.831       -2759.766          28.000  
C 2  36204948.654                3       -318.176          30.000  
G 9  21662616.768   113837637.374        -901.173          29.000  
> 2019  4 28 12 46 51.9970000  0 15                     
G 2  21588730.474   113449543.334         458.581          31.000  
G 6  20693722.077   108746239.838        -806.664          35.000  
G12  21681884.600                3        730.105          23.000  
C 3  35318110.556   183910637.8423       -358.580          33.000  
G 4  21238275.668   111607895.962         167.959          30.000  
G 5  20559344.856   108040076.384        1702.467          36.000  
G19  19788120.837   103987264.885       -1025.964          33.000  
G17  20568571.294   108088550.049       -1719.645          35.000  
C 8  36274644.375   188891554.845         -80.559          28.000  
C13  36753349.063   191384308.587        -216.825          29.000  
C11  22271154.810                3      -1255.763          29.000  
C28  22419441.381   116743902.089        1718.117          34.000  
C14  22581159.631   117586007.031       -2758.685          29.000  
C 2  36205009.794   188528954.1112       -317.783          30.000  
G 9  21662784.163   113838538.626        -901.299          29.000  
> 2019  4 28 12 46 52.9970000  0 14                     
G 2  21588640.138   113449085.994         456.712          31.000  
G 6  20693875.898   108747047.360        -808.024          35.000  
C 3  35318179.428   183910997.0072       -359.453          33.000  
G 4  21238241.171   111607728.252         167.021          29.000  
G 5  20559020.762   108038374.401        1701.010          36.000  
G19  19788316.214   103988291.754       -1027.765          33.000  
G17  20568898.772   108090270.138       -1720.063          35.000  
C 8  36274660.603   188891635.913         -81.875          28.000  
C13  36753386.795   191384525.705        -218.187          29.000  
C11  22271397.654   115972970.9152      -1256.210          29.000  
C28  22419111.694   116742184.210        1718.542          34.000  
C14  22581689.909   117588766.860       -2760.162          29.000  
C 2  36205070.813   188529271.7922       -316.975          30.000  
G 9  21662952.432   113839440.711        -903.419          28.000  
> 2019  4 28 12 46 53.9970000  0 15                     
G 2  21588551.458   113448629.085         458.044          31.000  
G 6  20694029.746   108747855.398        -808.000          35.000  
C 3  35318248.478   183911355.6542       -358.785          33.000  
G 4  21238209.148   111607561.697         164.774          30.000  
G 5  20558696.945   108036673.410        1700.826          37.000  
G19  19788511.763   103989319.573       -1027.301          33.000  
G17  20569226.340   108091991.244       -1721.143          35.000  
C 4  37437953.205                3       -374.109          27.000  
C 8  36274676.627   188891717.331         -81.699          28.000  
C13  36753436.591   191384743.138        -217.423          29.000  
C11  22271637.413   115974227.4602      -1257.699          29.000  
C28  22418781.918   116740466.936        1717.703          34.000  
C14  22582217.274   117591527.505       -2761.774          29.000  
C 2  36205131.701   188529590.1722       -318.297          30.000  
G 9  21663124.022   113840343.848        -903.475          28.000  
> 2019  4 28 12 46 54.9970000  0 15                     
G 2  21588461.723   113448171.845         456.846          31.000  
G 6  20694183.694   108748663.082        -807.433          35.000  
C 3  35318317.320   183911714.9463       -358.418          34.000  
G 4  21238175.508   111607395.145         166.105          30.000  
G 5  20558373.428   108034972.456        1701.042          37.000  
G19  19788707.027   103990347.533       -1027.924          33.000  
G17  20569554.034   108093712.453       -1721.355          36.000  
C 4  37438019.902                3       -371.094          27.000  
C 8  36274693.423   188891798.219         -80.581          28.000  
C13  36753477.250   191384960.128        -217.250          30.000  
C11  22271879.208   115975483.8002      -1255.936          30.000  
C28  22418452.168   116738749.286        1718.429          34.000  
C14  22582749.130   117594287.893       -2760.787          29.000  
C 2  36205192.676   188529908.0112       -317.488          31.000  
G 9  21663295.265   113841247.174        -903.435          28.000  
> 2019  4 28 12 46 55.9970000  0 15                     
G 2  21588378.357   113447714.270         457.220          31.000  
G 6  20694337.356   108749470.606        -808.334          34.000  
C 3  35318385.945   183912072.0262       -357.904          34.000  
G 4  21238144.001   111607229.001         165.739          30.000  
G 5  20558049.790   108033271.798        1700.127          37.000  
G19  19788902.596   103991375.758       -1027.869          33.000  
G17  20569881.840   108095433.884       -1721.736          36.000  
C 4  37438083.316                3       -262.793          27.000  
C 8  36274706.576   188891878.815         -80.266          28.000  
C13  36753517.909   191385176.813        -216.968          30.000  
C11  22272123.578   115976740.2642      -1256.433          30.000  
C28  22418122.590   116737031.512        1717.621          34.000  
C14  22583281.102   117597048.318       -2759.391          30.000  
C 2  36205253.911   188530225.7332       -318.473          31.000  
G 9  21663462.730   113842150.872        -903.978          29.000  
> 2019  4 28 12 46 56.9970000  0 14                     
G 2  21588294.853   113447256.068         457.768          31.000  
G 6  20694490.757   108750277.515        -807.441          34.000  
C 3  35318454.470   183912428.5283       -357.578          34.000  
G 4  21238113.658   111607062.792         165.491          30.000  
G 5  20557726.075   108031570.971        1700.779          37.000  
G19  19789098.062   103992403.890       -1028.094          33.000  
G17  20570209.549   108097155.214       -1721.245          36.000  
C 8  36274721.548   188891958.799         -80.157          28.000  
C13  36753558.357   191385392.849        -216.457          30.000  
C11  22272366.505   115977996.5052      -1256.300          30.000  
C28  22417792.493   116735313.158        1718.096          34.000  
C14  22583811.567   117599808.622       -2761.097          29.000  
C 2  36205314.435   188530541.6803       -315.023          30.000  
G 9  21663634.875   113843054.563        -903.773          28.000  
> 2019  4 28 12 46 57.9970000  0 14                     
G 2  21588206.271   113446798.052         458.609          30.000  
G 6  20694644.098   108751084.714        -807.481          30.000  
C 3  35318523.317   183912787.2243       -356.187          33.000  
G 4  21238085.995   111606897.420         164.312          30.000  
G 5  20557402.655   108029870.877        1700.134          34.000  
G19  19789293.725   103993432.852       -1030.518          32.000  
G17  20570537.031   108098877.291       -1722.460          33.000  
C 8  36274735.855                2        -78.603          27.000  
C13  36753598.089   191385608.985        -215.645          30.000  
C11  22272605.385   115979253.2562      -1256.202          29.000  
C28  22417462.714   116733595.108        1718.773          32.000  
C14  22584339.345   117602569.320       -2760.568          29.000  
C 2  36205375.352                3       -298.291          30.000  
G 9  21663806.242   113843959.162        -905.491          28.000  
> 2019  4 28 12 46 58.9970000  0 14                     
G 2  21588114.933   113446339.503         459.034          31.000  
G 6  20694797.560   108751891.401        -806.095          33.000  
C 3  35318592.110   183913145.5472       -357.083          31.000  
G 4  21238058.932   111606731.966         165.597          29.000  
G 5  20557079.205   108028170.670        1701.052          37.000  
G19  19789489.285   103994461.576       -1028.094          32.000  
G17  20570864.597   108100599.234       -1721.371          36.000  
C 8  36274752.581                3        -78.740          26.000  
C13  36753642.159   191385824.471        -214.536          29.000  
C11  22272846.135   115980509.7542      -1255.634          28.000  
C28  22417132.933   116731876.590        1719.018          32.000  
C14  22584870.837   117605329.746       -2759.967          28.000  
C 2  36205435.797   188531172.9432       -316.289          29.000  
G 9  21663978.459   113844863.666        -904.739          28.000  
> 2019  4 28 12 46 59.9970000  0 14                     
G 2  21588033.981   113445880.174         460.459          31.000  
G 6  20694950.659   108752697.329        -805.666          34.000  
C 3  35318660.853   183913504.0073       -355.479          33.000  
G 4  21238030.165   111606566.429         164.688          30.000  
G 5  20556755.885   108026470.263        1700.060          37.000  
G19  19789685.184   103995490.173       -1028.741          32.000  
G17  20571192.160   108102320.994       -1721.917          36.000  
C 8  36274766.823   188892198.4562        -78.374          27.000  
C13  36753683.106   191386039.205        -214.785          29.000  
C11  22273089.400   115981765.8662      -1255.894          28.000  
C28  22416802.603   116730157.353        1719.457          33.000  
C14  22585399.683   117608089.812       -2760.145          29.000  
C 2  36205496.548   188531489.0302       -315.272          29.000  
G 9  21664151.911   113845768.050        -904.830          28.000  
> 2019  4 28 12 47  0.9970000  0 14                     
G 2  21587944.743   113445421.872         457.657          31.000  
G 6  20695104.239   108753504.373        -808.113          35.000  
C 3  35318729.273   183913859.5733       -358.521          34.000  
G 4  21237995.832   111606402.397         161.529          30.000  
G 5  20556432.923   108024771.255        1698.281          38.000  
G19  19789881.145   103996520.248       -1031.042          33.000  
G17  20571520.180   108104044.213       -1724.513          36.000  
C 8  36274781.952   188892277.9552        -80.243          28.000  
C13  36753724.989   191386254.792        -216.736          30.000  
C11  22273328.058   115983023.3262      -1258.653          30.000  
C28  22416472.615   116728439.186        1717.454          37.000  
C14  22585927.856   117610851.082       -2761.890          30.000  
C 2  36205557.425   188531806.1492       -318.180          31.000  
G 9  21664322.461   113846673.989        -906.713          29.000  
> 2019  4 28 12 47  1.9970000  0 14                     
G 2  21587861.254   113444964.656         457.146          31.000  
G 6  20695258.243   108754312.521        -808.210          35.000  
C 3  35318798.069   183914218.1822       -358.540          34.000  
G 4  21237965.287   111606239.976         162.302          30.000  
G 5  20556109.993   108023073.887        1696.923          37.000  
G19  19790077.591   103997551.955       -1032.019          33.000  
G17  20571848.321   108105768.998       -1725.006          36.000  
C 8  36274796.853   188892358.4982        -80.961          28.000  
C13  36753764.716   191386471.393        -216.423          30.000  
C11  22273572.618   115984282.1662      -1259.150          30.000  
C28  22416143.015   116726722.185        1716.808          36.000  
C14  22586455.493   117613613.787       -2763.644          30.000  
C 2  36205618.756                3       -317.761          31.000  
G 9  21664492.852   113847581.769        -908.639          28.000  
> 2019  4 28 12 47  2.9970000  0 15                     
G 2  21587768.989   113444507.321         457.669          29.000  
G 6  20695411.912   108755120.649        -808.065          32.000  
C 3  35318867.012   183914576.7802       -358.196          33.000  
G 4  21237939.417   111606078.076         162.571          29.000  
G 5  20555787.164   108021376.898        1697.308          35.000  
G19  19790274.283   103998584.094       -1032.153          31.000  
G17  20572176.612   108107494.250       -1724.925          34.000  
C 4  37438755.108                3       -402.547          26.000  
C 8  36274813.522   188892438.8522        -80.191          27.000  
C13  36753808.730   191386687.807        -215.351          30.000  
C11  22273814.118   115985541.231       -1258.489          29.000  
C28  22415813.463   116725005.186        1717.571          33.000  
C14  22586984.630   117616376.640       -2762.679          29.000  
C 2  36205680.152                2       -316.897          30.000  
G 9  21664665.816   113848489.956        -907.911          27.000  
> 2019  4 28 12 47  3.9970000  0 14                     
G 2  21587681.809   113444048.748         458.523          30.000  
G 6  20695565.540   108755927.642        -807.604          36.000  
C 3  35318935.446   183914934.2442       -358.048          33.000  
G 4  21237908.033   111605915.614         162.106          30.000  
G 5  20555464.340   108019679.206        1697.631          38.000  
G19  19790470.531   103999615.498       -1031.268          32.000  
G17  20572504.857   108109218.785       -1724.897          35.000  
C 8  36274828.592   188892517.8782        -78.988          27.000  
C13  36753848.102   191386902.985        -215.094          29.000  
C11  22274053.468   115986799.506       -1258.592          29.000  
C28  22415483.731   116723287.048        1717.165          35.000  
C14  22587516.179   117619138.664       -2761.556          29.000  
C 2  36205741.041   188532762.5753       -317.525          30.000  
G 9  21664838.783   113849397.528        -907.700          27.000  
> 2019  4 28 12 47  4.9970000  0 15                     
G 2  21587594.992   113443590.669         458.257          31.000  
G 6  20695719.514   108756735.176        -807.259          35.000  
G12  21680076.965                3        720.384          22.000  
C 3  35319003.988   183915292.2192       -358.673          33.000  
G 4  21237878.965   111605754.197         161.437          30.000  
G 5  20555141.498   108017982.543        1696.719          38.000  
G19  19790667.393   104000648.020       -1032.690          33.000  
G17  20572833.357   108110944.368       -1725.757          36.000  
C 8  36274841.791   188892597.4402        -79.416          27.000  
C13  36753893.471   191387118.599        -215.747          29.000  
C11  22274295.550   115988058.616       -1259.750          29.000  
C28  22415153.858   116721569.468        1717.223          34.000  
C14  22588046.971   117621901.535       -2763.510          28.000  
C 2  36205801.981   188533080.1382       -317.531          30.000  
G 9  21665012.548   113850306.337        -909.159          28.000  
> 2019  4 28 12 47  5.9970000  0 15                     
G 2  21587511.663   113443132.384         458.804          31.000  
G 6  20695873.241   108757542.586        -807.362          35.000  
G12  21679941.327                3        720.384          22.000  
C 3  35319072.692   183915647.9833       -357.605          34.000  
G 4  21237847.439   111605593.192         160.224          31.000  
G 5  20554818.830   108016286.155        1696.002          38.000  
G19  19790862.393   104001680.772       -1032.074          33.000  
G17  20573162.041   108112670.223       -1725.934          36.000  
C 8  36274858.046   188892676.6892        -78.788          28.000  
C13  36753933.595   191387333.889        -214.459          30.000  
C11  22274537.476   115989317.792       -1259.845          30.000  
C28  22414823.787   116719851.781        1717.952          35.000  
C14  22588574.089   117624664.364       -2761.871          29.000  
C 2  36205863.059   188533398.5353       -315.928          31.000  
G 9  21665186.227   113851215.456        -908.959          29.000  
> 2019  4 28 12 47  6.9970000  0 15                     
G 2  21587424.257   113442673.231         459.246          31.000  
G 6  20696026.535   108758349.169        -806.553          35.000  
G12  21679805.274                3        720.384          22.000  
C 3  35319141.291   183916004.9663       -356.909          34.000  
G 4  21237815.244   111605472.3433        161.049          31.000  
G 5  20554496.073   108014589.377        1696.810          38.000  
G19  19791060.954   104002713.264       -1032.733          34.000  
G17  20573490.399   108114395.728       -1725.804          36.000  
C 8  36274874.702   188892755.0042        -78.012          28.000  
C13  36753975.862   191387548.362        -215.183          30.000  
C11  22274778.734   115990576.493       -1258.677          30.000  
C28  22414493.836   116718133.311        1718.817          35.000  
C14  22589105.645   117627426.814       -2762.384          29.000  
C 2  36205924.152   188533716.1612       -316.823          31.000  
G 9  21665361.759   113852124.371        -909.295          29.000  
> 2019  4 28 12 47  7.9970000  0 15                     
G 2  21587335.575   113442214.696         457.784          31.000  
G 6  20696179.770   108759156.416        -807.559          35.000  
G12  21679668.593                3        720.384          22.000  
C 3  35319209.988   183916363.5562       -357.820          36.000  
G 4  21237785.029   111605312.1872        158.831          31.000  
G 5  20554173.298   108012893.706        1694.882          38.000  
G19  19791258.897   104003746.879       -1034.937          34.000  
G17  20573818.900   108116122.332       -1727.548          36.000  
C 8  36274889.195   188892833.8832        -79.484          29.000  
C13  36754012.920   191387763.315        -216.595          31.000  
C11  22275021.032   115991836.123       -1260.383          30.000  
C28  22414164.263   116716415.525        1717.382          37.000  
C14  22589637.593   117630190.090       -2764.239          31.000  
C 2  36205985.095   188534033.3593       -318.056          32.000  
G 9  21665536.730   113853034.417        -910.988          29.000  
> 2019  4 28 12 47  8.9970000  0 16                     
G 2  21587249.386   113441757.336         456.559          31.000  
G 6  20696331.013   108759964.919        -808.430          35.000  
G12  21679528.108                3        720.384          21.000  
C 3  35319278.899   183916722.4113       -359.110          35.000  
G 4  21237754.835   111605153.7712        158.437          31.000  
G 5  20553850.600   108011199.742        1693.353          38.000  
G19  19791457.894   104004782.150       -1035.132          34.000  
G17  20574148.059   108117850.636       -1728.713          36.000  
C 4  37438957.343                3       -349.578          28.000  
C 8  36274906.501   188892913.3191        -79.945          29.000  
C13  36754055.411   191387979.313        -216.181          31.000  
C11  22275264.703   115993097.266       -1261.800          31.000  
C28  22413834.711   116714698.992        1716.160          36.000  
C14  22590167.613   117632954.824       -2764.809          31.000  
C 2  36206046.382   188534353.3022       -319.443          32.000  
G 9  21665713.390   113853946.373        -912.720          29.000  
> 2019  4 28 12 47  9.9970000  0 16                     
G 2  21587162.635   113441299.674         459.210          31.000  
G 6  20696489.400   108760773.228        -807.270          35.000  
G12  21679389.863                3        720.384          20.000  
C 3  35319347.768   183917081.0063       -357.351          34.000  
G 4  21237715.527   111604995.7452        158.577          30.000  
G 5  20553528.275   108009506.006        1694.629          37.000  
G19  19791648.451   104005817.739       -1034.772          33.000  
G17  20574477.072   108119579.235       -1728.141          36.000  
C 4  37439031.744                3       -368.262          28.000  
C 8  36274920.849   188892992.991         -78.667          29.000  
C13  36754096.986   191388195.083        -215.980          31.000  
C11  22275507.254   115994358.548       -1261.300          30.000  
C28  22413505.251   116712982.327        1716.973          36.000  
C14  22590698.189   117635719.659       -2763.876          30.000  
C 2  36206107.713   188534672.5313       -317.905          31.000  
G 9  21665890.904   113854858.648        -911.926          29.000  
> 2019  4 28 12 47 10.9970000  0 15                     
G 2  21587074.858   113440840.858         459.388          31.000  
G 6  20696640.818   108761580.430        -806.893          35.000  
G12  21679251.240                3        720.384          20.000  
C 3  35319416.537   183917438.5682       -357.585          34.000  
G 4  21237687.554   111604801.1513        157.938          30.000  
G 5  20553205.760   108007811.607        1694.336          37.000  
G19  19791850.060   104006852.677       -1035.046          33.000  
G17  20574806.061   108121307.144       -1728.098          36.000  
C 4  37439095.799                3       -311.865          27.000  
C 8  36274932.059   188893071.412         -78.368          28.000  
C13  36754136.997   191388404.0913       -214.762          30.000  
C11  22275747.954   115995618.925       -1260.307          30.000  
C28  22413175.481   116711264.523        1717.807          37.000  
C14  22591233.588   117638483.647       -2763.251          29.000  
G 9  21666068.329   113855770.324        -911.879          28.000  
> 2019  4 28 12 47 11.9970000  0 15                     
G 2  21586986.529                3        457.938          31.000  
G 6  20696793.745   108762388.198        -808.664          35.000  
G12  21679112.886                3        720.384          20.000  
C 3  35319485.245   183917796.5382       -357.951          30.000  
G 4  21237657.937   111604643.4832        158.694          30.000  
G 5  20552883.564   108006118.155        1692.775          37.000  
G19  19792047.435   104007888.603       -1035.791          33.000  
G17  20575135.113   108123036.037       -1729.252          36.000  
C 4  37439151.982                3       -279.443          27.000  
C 8  36274949.509   188893150.273         -79.359          27.000  
C13  36754182.736   191388618.9922       -214.538          30.000  
C11  22275988.812   115996880.149       -1261.606          29.000  
C28  22412846.041   116709547.293        1717.120          34.000  
C14  22591762.187   117641248.415       -2764.812          29.000  
G 9  21666244.777   113856683.148        -913.498          28.000  
> 2019  4 28 12 47 12.9970000  0 14                     
G 2  21586902.313   113439936.8092        457.440          31.000  
G 6  20696947.702   108763196.840        -809.519          34.000  
G12  21678977.723                2        718.800          29.000  
C 3  35319553.990   183918154.1613       -357.241          34.000  
G 4  21237628.197   111604486.8092        156.371          30.000  
G 5  20552561.031   108004424.663        1693.517          37.000  
G19  19792242.919   104008925.263       -1036.798          33.000  
G17  20575464.215   108124765.389       -1729.644          36.000  
C 8  36274968.855   188893229.802         -79.895          28.000  
C13  36754218.706   191388834.4752       -215.831          30.000  
C11  22276233.220   115998141.900       -1261.065          30.000  
C28  22412516.157   116707830.822        1716.465          36.000  
C14  22592298.540   117644014.440       -2767.641          31.000  
G 9  21666414.880   113857597.183        -914.993          28.000  
> 2019  4 28 12 47 13.9970000  0 13                     
G 2  21586811.543   113439479.7282        455.766          27.000  
G 6  20697101.536   108764006.765        -810.955          29.000  
C 3  35319622.367   183918510.1612       -354.737          31.000  
G 4  21237595.214   111604330.4302        157.678          29.000  
G 5  20552238.593   108002729.710        1696.402          31.000  
G19  19792439.934   104009962.183       -1036.244          28.000  
G17  20575793.060   108126494.340       -1727.618          29.000  
C 8  36274983.845   188893310.434         -81.483          27.000  
C13  36754263.607                3       -220.580          26.000  
C11  22276473.403   115999403.932       -1262.637          30.000  
C28  22412186.837   116706115.281        1714.934          32.000  
C14  22592828.409   117646781.926       -2768.540          31.000  
G 9  21666583.383   113858512.466        -915.672          29.000  
> 2019  4 28 12 47 14.9970000  0 14                     
G 2  21586721.572   113439023.8742        453.741          32.000  
G 6  20697256.442   108764819.273        -814.813          31.000  
C 3  35319690.170   183918863.4823       -353.706          31.000  
G 4  21237568.705   111604174.9682        153.183          32.000  
G 5  20551915.661   108001032.245        1698.314          35.000  
G19  19792636.029   104010999.481       -1038.342          31.000  
G17  20576120.664   108128222.634       -1729.142          36.000  
C 4  37439355.059                3       -348.094          27.000  
C 8  36274998.302                3        -83.776          25.000  
C13  36754301.520                3       -218.771          26.000  
C11  22276715.492   116000666.101       -1263.282          29.000  
C28  22411857.455   116704401.668        1710.365          31.000  
C14  22593360.305   117649552.419       -2773.207          30.000  
G 9  21666756.025   113859429.841        -919.340          29.000  
> 2019  4 28 12 47 15.9970000  0 14                     
G 2  21586638.491   113438569.9852        453.608          32.000  
G 6  20697408.291   108765634.914        -815.854          31.000  
C 3  35319758.204   183919216.1432       -352.458          31.000  
G 4  21237537.116   111604021.9012        151.090          30.000  
G 5  20551592.071   107999333.808        1698.832          34.000  
G19  19792837.995   104012038.740       -1040.174          31.000  
G17  20576452.330   108129952.548       -1730.593          28.000  
C 4  37439429.397                2       -361.860          27.000  
C 8  36275013.709                3        -86.490          25.000  
C13  36754346.712   191389496.7602       -220.972          27.000  
C11  22276959.954   116001930.273       -1264.388          30.000  
C28  22411529.062   116702690.286        1710.827          31.000  
C14  22593891.760   117652326.617       -2775.428          30.000  
G 9  21666929.443   113860350.719        -922.350          29.000  
> 2019  4 28 12 47 16.9970000  0 15                     
G 2  21586555.053   113438116.8922        451.828          33.000  
G 6  20697565.328   108766452.584        -818.931          32.000  
C 3  35319825.455   183919567.0932       -351.186          34.000  
G 4  21237507.535   111603869.8762        151.072          31.000  
G 5  20551268.413   107997633.659        1699.870          37.000  
G19  19793032.314   104013078.729       -1041.144          32.000  
G17  20576779.979                3      -1724.791          25.000  
C 4  37439501.855                3       -364.990          27.000  
C 2  36206518.474                3       -312.867          29.000  
C 8  36275032.566                3        -87.753          26.000  
C13  36754385.244   191389717.4262       -221.230          30.000  
C11  22277204.000   116003195.268       -1265.214          33.000  
C28  22411200.688   116700980.102        1710.307          34.000  
C14  22594428.873   117655103.207       -2778.628          33.000  
G 9  21667110.232   113861273.572        -923.819          30.000  
> 2019  4 28 12 47 17.9970000  0 15                     
G 2  21586468.664   113437665.0882        451.888          33.000  
G 6  20697720.914   108767272.622        -821.972          33.000  
G12  21678300.651                3        720.916          29.000  
C 3  35319892.799   183919917.3052       -350.159          32.000  
G 4  21237483.129                3        148.334          23.000  
G 5  20550944.746   107995932.741        1701.291          37.000  
G19  19793228.618   104014120.216       -1042.902          32.000  
G17  20577104.028                3      -1724.791          21.000  
C 2  36206585.225                3       -316.455          29.000  
C 8  36275049.274                3        -91.036          26.000  
C13  36754429.585                3       -221.433          30.000  
C11  22277446.769                3      -1275.820          17.000  
C28  22410871.178                        1706.903          34.000  
C14  22594961.624   117657882.589       -2779.832          31.000  
G 9  21667281.128   113862199.189        -926.467          30.000  
> 2019  4 28 12 47 18.9970000  0 14                     
G 2  21586385.343   113437213.2232        452.693          34.000  
G 6  20697877.966   108768093.425        -820.449          35.000  
G12  21678142.929   113919409.4492        713.838          35.000  
C 3  35319959.708   183920267.1723       -347.486          35.000  
G 4  21237460.533                3        148.904          20.000  
G 5  20550620.552   107994230.325        1703.336          38.000  
G19  19793426.848   104015162.126       -1042.517          33.000  
G17  20577432.225                3      -1724.791          14.000  
C 2  36206645.376                3       -298.242          31.000  
C 8  36275064.005   188893745.5462        -90.180          28.000  
C13  36754475.195   191390150.9112       -221.626          33.000  
C28  22410546.174   116697563.544        1707.190          34.000  
C14  22595496.988   117660663.441       -2781.202          33.000  
G 9  21667454.551   113863126.160        -926.868          32.000  
> 2019  4 28 12 47 19.9970000  0 14                     
G 2  21586299.187   113436761.6512        451.121          32.000  
G 6  20698034.763   108768915.415        -822.532          36.000  
G12  21678016.762                3        724.108          28.000  
C 3  35320026.756   183920616.5032       -349.266          33.000  
G 4  21237443.572                3        148.904          18.000  
G 5  20550296.896   107992527.471        1702.828          36.000  
G19  19793626.551                3      -1046.757          26.000  
G17  20577765.402                3      -1724.791          10.000  
C 2  36206704.862   188537781.8502       -304.515          31.000  
C 8  36275079.513   188893836.6192        -93.129          29.000  
C13  36754518.642                3       -225.540          30.000  
C28  22410217.733   116695855.761        1709.778          35.000  
C14  22596031.436   117663445.825       -2783.820          34.000  
G 9  21667635.996                3       -930.300          24.000  
> 2019  4 28 12 47 20.9970000  0 13                     
G 2  21586212.658   113436310.3072        452.470          37.000  
G 6  20698191.453   108769738.420        -822.970          38.000  
G12  21677882.775                3        708.821          28.000  
C 3  35320093.817   183920965.2062       -347.951          37.000  
G 5  20549973.046   107990824.895        1703.223          40.000  
G19  19793825.479                3      -1047.766          23.000  
G17  20578096.487                3      -1724.791          12.000  
C 2  36206761.348   188538086.9452       -303.408          31.000  
C 8  36275097.843   188893922.2803        -90.603          28.000  
C13  36754558.917   191390601.4952       -224.442          33.000  
C28  22409887.239   116694148.564        1707.903          39.000  
C14  22596565.349   117666229.694       -2783.403          33.000  
G 9  21667823.306                3       -930.300          20.000  
> 2019  4 28 12 47 21.9970000  0 13                     
G 2  21586125.588   113435857.6562        450.409          37.000  
G 6  20698350.134   108770560.739        -822.155          38.000  
G12  21677757.550                3        707.994          27.000  
C 3  35320160.730   183921312.9552       -347.739          39.000  
G 5  20549649.059   107989121.424        1702.426          43.000  
G19  19794025.999                3      -1042.042          21.000  
G17  20578427.240                3      -1724.791          12.000  
C 2  36206821.390   188538390.6422       -303.866          33.000  
C 8  36275115.088   188894013.2242        -90.337          34.000  
C13  36754602.992   191390823.0492       -221.501          35.000  
C28  22409557.041   116692440.236        1706.307          37.000  
C14  22597098.200   117669013.483       -2782.794          34.000  
G 9  21668007.546                3       -931.471          17.000  
> 2019  4 28 12 47 22.9970000  0 13                     
G 2  21586039.299   113435404.1882        453.708          37.000  
G 6  20698506.761   108771383.403        -823.314          38.000  
G12  21677643.800                3        727.704          27.000  
C 3  35320227.458   183921660.3072       -347.118          39.000  
G 5  20549324.718   107987417.193        1704.894          40.000  
G19  19794228.688                3      -1040.382          18.000  
G17  20578760.173                3      -1724.791          12.000  
C 2  36206880.631   188538696.8083       -301.319          35.000  
C 8  36275132.340   188894104.2972        -91.437          34.000  
C13  36754644.164   191391044.1562       -220.651          36.000  
C28  22409231.302   116690731.401        1709.085          38.000  
C14  22597633.771   117671798.276       -2785.661          34.000  
G 9  21668187.983                3       -931.471          15.000  
> 2019  4 28 12 47 23.9970000  0 13                     
G 2  21585953.219   113434951.0772        452.070          34.000  
G 6  20698662.772   108772207.722        -824.920          38.000  
G12  21677522.897                3        734.537          28.000  
C 3  35320293.993   183922007.6912       -347.124          41.000  
G 5  20549000.321   107985712.536        1705.077          43.000  
G19  19794425.788                3      -1044.086          17.000  
G17  20579092.297                3      -1726.929          14.000  
C 2  36206939.181   188538998.6492       -301.646          37.000  
C 8  36275154.438   188894196.6782        -93.202          37.000  
C13  36754688.976   191391265.6422       -221.151          38.000  
C28  22408906.056   116689022.943        1708.239          42.000  
C14  22598169.615   117674585.414       -2788.187          34.000  
G 9  21668369.234                3       -931.471          13.000  
> 2019  4 28 12 47 24.9970000  0 12                     
G 2  21585869.796   113434510.5373        454.468          38.000  
G 6  20698819.844   108773032.972        -825.104          36.000  
C 3  35320360.997   183922355.2372       -348.334          40.000  
G 5  20548675.830   107984007.243        1705.864          42.000  
G19  19794625.691                3      -1057.919          17.000  
G17  20579425.700                3      -1726.929          14.000  
C 2  36206996.479   188539300.4293       -300.257          37.000  
C 8  36275166.867   188894289.7512        -92.380          33.000  
C13  36754728.339   191391486.7112       -222.390          38.000  
C28  22408576.402   116687314.211        1709.484          40.000  
C14  22598704.922   117677374.497       -2790.536          33.000  
G 9  21668553.024                3       -914.805          14.000  
> 2019  4 28 12 47 25.9970000  0 13                     
G 2  21585783.640                3        453.583          37.000  
G 6  20698977.151   108773858.993        -826.490          38.000  
G12  21677254.617                3        699.816          28.000  
C 3  35320427.851   183922702.9622       -347.541          39.000  
G 5  20548351.175   107982301.541        1705.798          42.000  
G19  19794824.020                3      -1048.751          20.000  
G17  20579758.299                3      -1726.929          14.000  
C 2  36207054.150   188539600.3282       -299.689          37.000  
C 8  36275187.118   188894383.3002        -93.678          33.000  
C13  36754770.983   191391707.1352       -220.181          38.000  
C28  22408247.662   116685605.042        1708.090          39.000  
C14  22599240.609   117680165.062       -2788.666          32.000  
G 9  21668733.407                3       -915.460          15.000  
> 2019  4 28 12 47 26.9970000  0 13                     
G 2  21585694.764                2        455.036          37.000  
G 6  20699134.491   108774685.539        -827.137          39.000  
G12  21677125.911                3        698.718          28.000  
C 3  35320494.492   183923050.3391       -348.007          41.000  
G 5  20548026.433   107980595.586        1706.462          42.000  
G19  19795024.571                2      -1052.667          30.000  
G17  20580090.532                3      -1729.552          14.000  
C 2  36207111.613   188539899.6172       -299.300          38.000  
C 8  36275204.503   188894477.1752        -94.401          33.000  
C13  36754813.093   191391927.2262       -220.480          39.000  
C28  22407919.521                2       1713.488          39.000  
C14  22599776.108                3      -2793.373          31.000  
G 9  21668912.213                3       -904.165          16.000  
> 2019  4 28 12 47 27.9970000  0 12                     
G 2  21585605.779   113433134.3182        456.283          37.000  
G 6  20699292.020   108775512.607        -827.310          37.000  
C 3  35320561.500   183923398.224        -348.043          43.000  
G 5  20547701.538   107978888.866        1707.838          42.000  
G19  19795224.347   104024609.7352      -1054.901          39.000  
G17  20580425.044                3      -1729.552          15.000  
C 2  36207168.987   188540197.6822       -297.126          40.000  
C 8  36275222.219   188894571.2012        -93.756          36.000  
C13  36754855.202   191392146.3862       -218.420          40.000  
C28  22407590.844   116682174.2543       1710.885          44.000  
C14  22600313.771   117685726.8102      -2794.747          34.000  
G 9  21669095.707                3       -908.359          16.000  
> 2019  4 28 12 47 28.9970000  0 13                     
G 2  21585521.795   113432676.4452        458.772          36.000  
G 6  20699449.369   108776339.886        -827.289          36.000  
G12  21676788.142                3        719.958          38.000  
C 3  35320627.962   183923745.944        -347.888          42.000  
G 5  20547376.639   107977181.120        1708.282          42.000  
G19  19795424.951   104025665.1722      -1056.482          37.000  
G17  20580760.947                3      -1717.727          16.000  
C 2  36207225.993   188540494.3562       -296.094          40.000  
C 8  36275240.520   188894665.2182        -93.693          36.000  
C13  36754897.070   191392364.2562       -216.582          40.000  
C28  22407262.047   116680462.6672       1711.485          42.000  
C14  22600849.899   117688521.3822      -2795.189          36.000  
G 9  21669277.261                3       -903.672          16.000  
> 2019  4 28 12 47 29.9970000  0 13                     
G 2  21585430.701   113432217.2532        460.131          36.000  
G 6  20699606.960   108777167.508        -827.237          36.000  
G12  21676647.031                3        716.561          32.000  
C 3  35320695.012   183924094.188        -348.201          38.000  
G 5  20547051.725   107975473.137        1707.782          42.000  
G19  19795625.526   104026722.5072      -1057.941          38.000  
G17  20581101.174                3      -1730.322          20.000  
C 2  36207282.846   188540790.3912       -295.602          39.000  
C 8  36275258.875   188894759.2702        -93.530          36.000  
C13  36754938.564   191392581.0742       -215.443          39.000  
C28  22406932.930   116678749.9962       1715.762          39.000  
C14  22601383.760   117691317.2532      -2796.094          36.000  
G 9  21669457.805                3       -907.189          17.000  
> 2019  4 28 12 47 30.9970000  0 14                     
G 2  21585346.519                3        462.201          38.000  
G 6  20699764.121   108777994.608        -825.823          39.000  
G12  21676533.053                3        684.652          27.000  
C 3  35320762.115   183924443.695        -350.376          40.000  
C11  22280724.221                3      -1248.438          35.000  
G 5  20546726.627   107973766.284        1705.270          41.000  
G19  19795827.828   104027781.1382      -1058.813          36.000  
G17  20581440.254                3      -1719.877          22.000  
C 2  36207339.487   188541086.5721       -298.020          39.000  
C 8  36275276.542   188894852.6872        -93.320          36.000  
C13  36754979.989   191392797.0852       -217.324          34.000  
C28  22406603.529   116677036.5162       1715.680          40.000  
C14  22601923.137   117694113.2102      -2795.121          37.000  
G 9  21669634.931                3       -911.209          17.000  
> 2019  4 28 12 47 31.9970000  0 13                     
G 2  21585272.621                3        449.481          29.000  
G 6  20699920.996   108778818.698        -823.408          39.000  
C 3  35320829.632   183924795.427        -352.724          40.000  
C11  22280962.356   116022786.0532      -1252.019          37.000  
G 5  20546402.673   107972063.584        1700.420          39.000  
G19  19796028.569   104028839.1722      -1057.520          37.000  
G17  20581783.273                3      -1714.170          23.000  
C 2  36207397.151   188541386.735        -302.731          39.000  
C 8  36275294.406   188894943.1962        -89.014          40.000  
C13  36755020.905   191393011.4972       -212.451          41.000  
C28  22406274.084   116675321.8472       1714.222          41.000  
C14  22602459.376   117696905.5772      -2790.081          35.000  
G 9  21669813.471                3       -904.499          17.000  
> 2019  4 28 12 47 32.9970000  0 15                     
G 2  21585219.800                3        461.059          29.000  
G 6  20700078.020   108779639.560        -818.812          42.000  
G12  21676304.799                3        691.179          30.000  
C 3  35320897.208   183925148.831        -354.558          39.000  
C11  22281193.794   116024039.6002      -1255.467          39.000  
G 5  20546079.656   107970364.854        1696.384          39.000  
G19  19796230.051   104029895.9042      -1056.671          37.000  
G17  20582128.698                2      -1728.337          31.000  
C 4  37440716.665                3       -342.023          28.000  
C 2  36207455.258   188541690.232        -305.527          38.000  
C 8  36275311.366   188895030.3241        -85.246          38.000  
C13  36755062.349   191393225.1392       -213.062          38.000  
C28  22405944.870   116673606.2002       1716.107          43.000  
C14  22602993.473   117699694.1232      -2786.413          35.000  
G 9  21669994.218                3       -905.763          18.000  
> 2019  4 28 12 47 33.9970000  0 14                     
G 2  21585143.224                3        458.031          28.000  
G 6  20700237.188   108780455.555        -809.898          38.000  
G12  21676189.464                3        706.011          24.000  
C 3  35320965.133   183925504.793        -357.373          41.000  
C11  22281437.606   116025298.4072      -1261.367          40.000  
G 5  20545757.364   107968671.177        1690.707          41.000  
G19  19796430.127   104030950.8692      -1053.485          39.000  
G17  20582470.897                3      -1734.104          28.000  
C 2  36207514.103   188541998.049        -310.345          39.000  
C 8  36275327.239   188895113.326         -80.224          38.000  
C13  36755102.688   191393436.4262       -211.729          39.000  
C28  22405615.102   116671888.1952       1720.248          37.000  
C14  22603527.757   117702476.9312      -2779.594          34.000  
G 9  21670174.643                3       -915.022          18.000  
> 2019  4 28 12 47 35.0030000  0 15                     
G 2  23383806.675                3        452.031          27.000  
G 6  22499149.863                3       -806.797          40.000  
G12  23474809.722                3        692.655          34.000  
C 3  37119789.148   193292451.650        -360.941          39.000  
C11  24080434.055   125393150.6552      -1266.593          36.000  
G 5  22344190.921   117419502.501        1685.647          44.000  
G19  21595386.312   113484524.9252      -1054.132          41.000  
G17  22381569.654                3      -1738.668          29.000  
C 4  39239566.196                3       -344.203          31.000  
C 2  38006328.792   197908898.234        -314.489          39.000  
C 8  38074097.193   198261780.347         -77.461          37.000  
C13  38553897.535   200760233.6412       -209.918          40.000  
C28  24204038.984   126036756.1672       1720.361          42.000  
C14  24402822.895   127071843.1502      -2775.832          39.000  
G 9  23469113.539                3       -917.263          20.000  
> 2019  4 28 12 47 36.0030000  0 15                     
G 2  23383719.727                2        452.177          27.000  
G 6  22499299.937   118234639.3382       -808.303          35.000  
G12  23474671.804                2        694.603          27.000  
C 3  37119858.355   193292812.658        -361.327          37.000  
C11  24080678.910   125394419.4842      -1270.061          33.000  
G 5  22343870.380   117417818.208        1682.206          42.000  
G19  21595586.906   113485578.4742      -1053.418          36.000  
G17  22381896.601                3      -1738.690          24.000  
C 4  39239614.082                3       -355.273          30.000  
C 2  38006389.502   197909214.044        -317.250          34.000  
C 8  38074111.882   198261856.820         -75.801          34.000  
C13  38553937.310   200760441.9712       -208.883          32.000  
C28  24203716.238                3       1698.745          34.000  
C14  24403345.370   127074618.0952      -2771.095          33.000  
G 9  23469294.046                3       -926.255          19.000  
> 2019  4 28 12 47 37.0030000  0 15                     
G 2  23383637.268                3        449.117          27.000  
G 6  22499450.390   118235446.0902       -804.642          38.000  
G12  23474546.372                3        703.542          26.000  
C 3  37119927.979   193293175.359        -363.390          37.000  
C11  24080925.032   125395691.8072      -1275.526          27.000  
G 5  22343550.034   117416137.625        1679.094          41.000  
G19  21595787.178   113486630.864       -1052.295          37.000  
G17  22382230.945                3      -1737.838          27.000  
C 4  39239680.393                2       -354.439          30.000  
C 2  38006450.630   197909533.021        -320.488          35.000  
C 8  38074127.035   198261931.215         -73.940          31.000  
C13  38553977.156   200760650.1902       -207.755          33.000  
C28  24203401.111                3       1708.033          25.000  
C14  24403880.382   127077389.9752      -2770.706          34.000  
G 9  23469476.610                3       -929.896          19.000  
> 2019  4 28 12 47 38.0030000  0 15                     
G 2  23383557.490                3        458.894          32.000  
G 6  22499602.663   118236251.4132       -804.847          37.000  
G12  23474418.462                3        703.660          26.000  
C 3  37119997.717   193293537.2653       -363.648          34.000  
C11  24081170.190                3      -1275.763          27.000  
G 5  22343230.974   117414460.024        1676.400          42.000  
G19  21595987.323   113487682.391       -1050.616          36.000  
G17  22382557.692                3      -1749.680          27.000  
C 4  39239748.431                3       -341.699          29.000  
C 2  38006512.391   197909854.329        -322.336          32.000  
C 8  38074140.136   198262004.376         -72.808          31.000  
C13  38554025.113                3       -215.069          28.000  
C28  24203100.856                2       1709.976          30.000  
C14  24404412.998   127080159.7442      -2769.233          35.000  
G 9  23469662.112                3       -933.972          20.000  
> 2019  4 28 12 47 39.0030000  0 14                     
G 2  23383467.999                2        462.598          27.000  
G 6  22499766.939                3       -803.833          35.000  
C 3  37120067.330   193293901.0852       -365.204          33.000  
C11  24081414.753   125398214.5102      -1276.284          31.000  
G 5  22342912.141   117412785.035        1672.836          36.000  
G19  21596187.061   113488732.821       -1050.812          33.000  
G17  22382875.648                3      -1742.002          26.000  
C 4  39239801.163                3       -205.371          27.000  
C 2  38006574.572                3       -325.351          32.000  
C 8  38074156.026   198262077.225         -70.294          32.000  
C13  38554057.527                2       -208.123          28.000  
C28  24202725.392                2       1713.694          33.000  
C14  24404945.230   127082927.1491      -2766.585          32.000  
G 9  23469841.632                3       -927.530          19.000  
> 2019  4 28 12 47 40.0030000  0 12                     
G 2  23383374.160                2        464.701          27.000  
G 6  22499913.473                2       -801.129          32.000  
C 3  37120137.186   193294263.7783       -362.185          32.000  
G 5  22342594.030   117411112.398        1671.671          37.000  
G19  21596386.829   113489781.854       -1047.473          34.000  
G17  22383211.181                3      -1736.149          24.000  
C 2  38006637.332                3       -329.736          29.000  
C 8  38074175.239                3        -76.271          26.000  
C13  38554106.462                3       -211.158          27.000  
C28  24202387.833   126028152.9253       1717.425          29.000  
C14  24405476.783   127085693.461       -2765.162          31.000  
G 9  23470019.567                3       -927.530          18.000  
> 2019  4 28 12 47 41.0030000  0 12                     
G 2  23383285.609                3        459.842          24.000  
G 6  22500058.853   118238646.6802       -803.110          33.000  
C 3  37120206.847   193294626.3912       -363.615          30.000  
G 5  22342275.976   117409440.979        1670.927          31.000  
G19  21596586.451   113490830.722       -1047.607          31.000  
G17  22383540.290                3      -1742.415          21.000  
C 2  38006700.083   197910829.4392       -326.749          29.000  
C 8  38074186.767                3        -71.857          26.000  
C13  38554143.214                2       -212.084          28.000  
C28  24202063.368   126026463.3352       1717.015          36.000  
C14  24406010.332   127088459.977       -2766.974          32.000  
G 9  23470198.611                3       -930.257          15.000  
> 2019  4 28 12 47 42.0030000  0 12                     
G 2  23383196.796                3        460.958          23.000  
G 6  22500212.022   118239451.1792       -802.974          29.000  
C 3  37120276.851                3       -363.385          29.000  
G 5  22341958.107   117407770.213        1670.349          31.000  
G19  21596785.636   113491879.931       -1050.110          27.000  
G17  22383868.694                3      -1741.427          18.000  
C 2  38006761.372                3       -291.553          27.000  
C 8  38074195.337   198262294.9072        -72.342          26.000  
C13  38554184.964                3       -210.453          25.000  
C28  24201729.096                3       1721.997          24.000  
C14  24406540.723   127091227.122       -2767.243          24.000  
G 9  23470377.192                3       -930.257          12.000  
> 2019  4 28 12 47 43.0030000  0 11                     
G 2  23383103.440                3        465.625          21.000  
G 6  22500365.606   118240256.0412       -805.435          33.000  
G12  23473747.739                3        696.796          29.000  
C 3  37120346.693                3       -363.686          28.000  
G 5  22341643.189   117406099.848        1669.673          34.000  
G19  21596984.435   113492929.104       -1049.103          32.000  
G17  22384202.759                3      -1755.267          17.000  
C 8  38074211.115   198262367.5022        -72.610          26.000  
C13  38554221.210                3       -211.979          27.000  
C28  24201400.216   126023010.2152       1715.382          32.000  
C14  24407070.269                3      -2766.654          25.000  
> 2019  4 28 12 47 44.0030000  0 11                     
G 2  23382998.671                3        465.177          30.000  
G 6  22500521.177   118241060.1742       -804.013          37.000  
G12  23473619.209                3        703.321          24.000  
C 3  37120416.483                2       -364.036          29.000  
G 5  22341322.755   117404429.958        1670.060          33.000  
G19  21597187.022   113493978.355       -1048.059          33.000  
G17  22384537.142                3      -1746.912          18.000  
C 8  38074223.943   198262439.2172        -70.456          27.000  
C13  38554263.444   200762135.2642       -210.358          29.000  
C28  24201066.967   126021294.9812       1717.120          31.000  
C14  24407601.480                2      -2766.258          27.000  
> 2019  4 28 12 47 45.0030000  0 12                     
G 2  23382904.786                3        458.060          25.000  
G 6  22500669.408   118241864.0392       -804.449          34.000  
G12  23473484.288                3        698.684          25.000  
C 3  37120486.548                3       -355.127          29.000  
G 5  22341005.587   117402761.445        1668.236          29.000  
G19  21597386.362   113495028.291       -1049.939          32.000  
G17  22384871.484                3      -1756.469          18.000  
C 8  38074238.295                3        -71.414          27.000  
C13  38554309.582                3       -213.036          28.000  
C28  24200744.932                3       1714.924          31.000  
C14  24408134.848                3      -2768.790          29.000  
G 9  23470910.684                3       -930.257          10.000  
> 2019  4 28 12 47 46.0030000  0 11                     
G 2  23382802.136                2        458.673          32.000  
G 6  22500826.606   118242667.5832       -804.560          30.000  
C 3  37120555.792                3       -364.014          28.000  
G 5  22340688.687   117401093.863        1668.158          28.000  
G19  21597585.689   113496078.571       -1049.335          31.000  
G17  22385206.825                3      -1756.469          16.000  
C 8  38074252.962                3        -70.845          26.000  
C13  38554348.963                2       -210.697          27.000  
C28  24200413.585   126017882.1212       1715.875          31.000  
C14  24408669.267   127102298.5212      -2766.394          28.000  
G 9  23471088.362                3       -930.257          12.000  
> 2019  4 28 12 47 47.0030000  0 11                     
G 2  23382702.172                2        459.279          26.000  
G 6  22500977.457   118243470.7292       -803.087          29.000  
C 3  37120624.729                3       -352.832          27.000  
G 5  22340371.967   117399426.908        1666.832          28.000  
G19  21597782.728   113497129.564       -1051.697          30.000  
G17  22385542.168                3      -1753.876          16.000  
C 8  38074261.312                3        -72.113          24.000  
C13  38554386.773   200762791.7872       -212.060          27.000  
C28  24200078.921   126016166.4612       1716.099          31.000  
C14  24409197.553   127105065.2402      -2767.231          27.000  
G 9  23471266.913                3       -930.257          10.000  
> 2019  4 28 12 47 48.0030000  0 10                     
G 2  23382618.612                2        457.090          27.000  
G 6  22501131.453   118244275.0872       -804.919          29.000  
C 3  37120700.712                3       -404.736          27.000  
G 5  22340056.882   117397760.182        1666.035          28.000  
G19  21597979.401   113498181.962       -1053.193          28.000  
G17  22385874.662                3      -1753.876          15.000  
C 8  38074276.158                3        -69.706          23.000  
C13  38554431.097   200763003.5752       -211.357          27.000  
C28  24199751.792                3       1713.031          23.000  
C14  24409729.663   127107833.5442      -2768.745          26.000  
> 2019  4 28 12 47 49.0030000  0 10                     
G 2  23382526.747                3        462.303          24.000  
G 6  22501285.100   118245079.999        -805.234          29.000  
G12  23472894.211                3        690.432          25.000  
G 5  22339738.463                3       1668.076          27.000  
G19  21598181.588   113499234.950       -1053.029          27.000  
G17  22386209.564                3      -1753.876          11.000  
C 8  38074292.251                3        -70.320          23.000  
C13  38554470.992                3       -217.428          24.000  
C28  24199420.661                2       1714.602          26.000  
C14  24410263.432   127110602.8132      -2769.562          25.000  
> 2019  4 28 12 47 50.0030000  0 10                     
G 2  23382436.564                3        458.809          25.000  
G 6  22501434.886                3       -805.022          28.000  
G12  23472758.401                3        687.005          26.000  
G 5  22339420.405   117394450.2552       1668.055          27.000  
G19  21598384.288   113500288.995       -1054.695          27.000  
G17  22386543.483                3      -1753.876          10.000  
C 8  38074305.941                3        -72.876          24.000  
C13  38554507.343                3       -211.167          25.000  
C28  24199093.075   126010987.7582       1714.292          28.000  
C14  24410792.093                3      -2769.826          24.000  
> 2019  4 28 12 47 51.0030000  0 11                     
G 2  23382352.819   122875093.1962        457.606          30.000  
G 6  22501592.520   118246666.0132       -809.219          31.000  
G12  23472635.477                3        691.894          26.000  
G 5  22339100.649   117392780.9752       1670.121          29.000  
G19  21598588.815   113501344.542       -1056.317          32.000  
G17  22386878.355                3      -1752.242          15.000  
C 3  37120906.406                3       -392.469          28.000  
C 8  38074319.651                3        -69.257          25.000  
C13  38554549.771   200763626.0792       -214.172          28.000  
C28  24198765.665   126009291.6653       1714.116          32.000  
C14  24411326.800                3      -2772.778          26.000  
> 2019  4 28 12 47 52.0030000  0 11                     
G 2  23382256.003   122874635.3422        458.346          31.000  
G 6  22501744.021   118247475.9202       -810.345          31.000  
G12  23472516.573   123348906.8312        693.529          26.000  
G 5  22338783.243   117391109.7102       1671.132          30.000  
G19  21598787.054   113502401.737       -1057.477          31.000  
G17  22387212.230                3      -1746.956          17.000  
C 3  37120974.290                3       -357.324          29.000  
C 8  38074333.696   198263014.8622        -76.633          27.000  
C13  38554589.211   200763838.7812       -212.064          31.000  
C28  24198435.003   126007578.2392       1713.839          34.000  
C14  24411859.580   127118927.4652      -2778.016          29.000  
> 2019  4 28 12 47 53.0030000  0 10                     
G 2  23382174.283   122874177.4502        457.723          31.000  
G 6  22501898.909   118248286.8112       -811.939          32.000  
G 5  22338462.937   117389437.2412       1672.431          30.000  
G19  21598984.972   113503459.898       -1059.241          31.000  
G17  22387548.280                3      -1754.398          18.000  
C 3  37121043.866                3       -366.113          29.000  
C 8  38074349.685   198263091.4882        -77.056          28.000  
C13  38554639.987   200764051.6422       -213.470          32.000  
C28  24198104.664   126005865.0132       1713.212          34.000  
C14  24412392.084   127121705.4702      -2779.025          30.000  
> 2019  4 28 12 47 54.0030000  0 10                     
G 2  23382086.127   122873720.2882        456.949          31.000  
G 6  22502053.771   118249098.2542       -810.836          31.000  
G 5  22338142.464   117387766.2022       1670.611          30.000  
G19  21599191.026   113504519.135       -1060.095          30.000  
G17  22387885.185                3      -1751.601          18.000  
C 3  37121110.576                3       -346.143          29.000  
C 8  38074364.633   198263168.6262        -76.848          28.000  
C13  38554682.602   200764265.0402       -212.687          32.000  
C28  24197777.752   126004152.5342       1712.416          33.000  
C14  24412927.967   127124484.2522      -2777.537          29.000  
> 2019  4 28 12 47 55.0030000  0 10                     
G 2  23382002.724   122873262.2592        457.797          31.000  
G 6  22502208.942   118249907.8172       -808.984          33.000  
G 5  22337828.821   117386096.4822       1670.048          30.000  
G19  21599390.528   113505577.609       -1058.075          30.000  
G17  22388219.873                3      -1751.601          16.000  
C 3  37121182.757                3       -364.600          29.000  
C 8  38074381.433   198263243.8002        -74.149          28.000  
C13  38554714.050   200764477.4002       -211.691          32.000  
C28  24197446.152   126002439.0262       1714.433          33.000  
C14  24413459.099   127127261.1252      -2775.455          29.000  
> 2019  4 28 12 47 56.0030000  0 11                     
G 2  23381918.984   122872803.4412        456.357          34.000  
G 6  22502364.385   118250714.8802       -805.081          34.000  
G12  23472012.624                3        695.000          25.000  
G 5  22337512.114   117384428.7262       1666.442          30.000  
G19  21599594.331   113506634.968       -1057.190          31.000  
G17  22388555.354                3      -1750.874          15.000  
C 3  37121252.235                3       -357.471          29.000  
C 8  38074394.185   198263316.7632        -71.688          27.000  
C13  38554750.320   200764688.4122       -210.303          31.000  
C28  24197117.700   126000724.3902       1716.044          30.000  
C14  24413993.174   127130035.2082      -2772.263          29.000  
> 2019  4 28 12 47 57.0030000  0 10                     
G 6  22502513.750   118251519.0842       -803.070          31.000  
G12  23471867.344                3        695.000          23.000  
G 5  22337195.029   117382764.4282       1661.439          31.000  
G19  21599792.077   113507691.232       -1056.085          31.000  
G17  22388888.225                3      -1750.874          15.000  
C 3  37121322.308                2       -364.688          29.000  
C 8  38074406.875   198263386.9302        -69.146          28.000  
C13  38554792.316   200764898.3952       -210.002          31.000  
C28  24196791.945   125999008.7772       1715.896          34.000  
C14  24414523.680   127132805.9012      -2769.433          29.000  
> 2019  4 28 12 47 58.0030000  0 11                     
G 2  23381736.957                3        436.382          28.000  
G 6  22502665.639   118252320.2202       -799.027          32.000  
G12  23471748.685                3        695.000          24.000  
G 5  22336879.718   117381104.1982       1658.582          30.000  
G19  21599995.106   113508746.646       -1054.517          31.000  
G17  22389220.294                3      -1750.874          14.000  
C 3  37121392.378   193300799.9872       -365.939          29.000  
C 8  38074419.322   198263454.0742        -65.264          28.000  
C13  38554827.324   200765107.1522       -207.906          31.000  
C28  24196460.193   125997292.1222       1715.697          31.000  
C14  24415057.609   127135572.8752      -2764.636          29.000  
> 2019  4 28 12 47 59.0030000  0 11                     
G 2  23381646.194                2        463.671          28.000  
G 6  22502820.900   118253117.3852       -795.144          33.000  
G12  23471623.992                2        701.213          30.000  
G 5  22336562.048   117379425.8083       1654.873          30.000  
G19  21600193.753   113509800.914       -1054.370          30.000  
G17  22389553.212                3      -1750.874          12.000  
C 3  37121462.466                3       -367.444          29.000  
C 8  38074431.485   198263517.7002        -61.757          27.000  
C13  38554869.928   200765313.6982       -204.504          32.000  
C28  24196130.032   125995573.8592       1717.619          23.000  
C14  24415585.153   127138335.5002      -2760.111          29.000  
> 2019  4 28 12 48  0.0030000  0  9                     
G 6  22502968.762   118253911.5422       -792.918          31.000  
G 5  22336246.683   117377772.3652       1652.215          30.000  
G19  21600394.341   113510854.720       -1053.895          29.000  
G17  22389885.416                3      -1750.874          10.000  
C 3  37121531.853                3       -370.605          28.000  
C 8  38074439.789                3        -58.495          26.000  
C13  38554911.560                3       -202.610          25.000  
C28  24195794.997                2       1721.732          24.000  
C14  24416113.256   127141095.0502      -2758.138          28.000  
> 2019  4 28 12 48  1.0030000  0 10                     
G 2  23381473.989   122870474.4353        466.363          33.000  
G 6  22503121.870   118254703.3791       -792.106          31.000  
G 5  22335934.298   117376121.4682       1650.179          31.000  
G19  21600600.766   113511909.324       -1056.752          32.000  
C 3  37121604.228                3       -393.018          28.000  
C 8  38074452.213                3        -58.949          26.000  
C13  38554949.497   200765707.9372       -202.239          27.000  
C28  24195469.485   125992131.1692       1723.678          30.000  
C14  24416643.081   127143853.0112      -2757.911          28.000  
G 9  23473650.696                3       -906.356          18.000  
> 2019  4 28 12 48  2.0030000  0 10                     
G 2  23381382.026   122870009.2762        466.564          30.000  
G 6  22503272.145   118255494.571        -790.109          30.000  
G 5  22335620.083   117374473.9252       1646.902          30.000  
G19  21600800.331   113512965.560       -1057.035          27.000  
C 3  37121676.600                3       -312.158          27.000  
C 8  38074465.334                3        -55.736          26.000  
C13  38554984.644   200765910.3252       -200.761          26.000  
C28  24195138.705   125990408.1382       1724.512          30.000  
C14  24417171.816   127146610.0842      -2756.766          28.000  
G 9  23473833.223   123355825.8082       -923.666          30.000  
> 2019  4 28 12 48  3.0030000  0  9                     
G 2  23381295.682   122869541.2212        469.903          29.000  
G 6  22503420.395   118256282.830        -787.068          29.000  
G 5  22335307.851   117372827.6922       1645.677          30.000  
G19  21600997.879   113514021.958       -1057.652          26.000  
C 8  38074474.833                3        -53.594          25.000  
C13  38555027.486                3       -199.832          26.000  
C28  24194802.699   125988682.2762       1726.409          28.000  
C14  24417704.390   127149364.3311      -2754.187          27.000  
G 9  23474013.503   123356749.2262       -923.894          28.000  
> 2019  4 28 12 48  4.0030000  0  8                     
G 6  22503567.935   118257069.902        -786.965          28.000  
G 5  22335000.101   117371182.3522       1644.581          29.000  
G19  21601201.058   113515077.6083      -1058.516          25.000  
C 8  38074486.217                3        -51.063          23.000  
C13  38555064.677                3       -191.922          24.000  
C28  24194470.028                3       1731.769          20.000  
C14  24418233.898                3      -2754.808          25.000  
G 9  23474190.590                2       -924.022          26.000  
> 2019  4 28 12 48  5.0030000  0 10                     
G 2  23381112.743                3        471.871          22.000  
G 6  22503718.622   118257854.752        -784.053          28.000  
G12  23470831.803                3        686.447          16.000  
G 5  22334686.442                3       1645.886          28.000  
G19  21601400.761                3      -1058.868          25.000  
C 8  38074495.773                3        -45.325          22.000  
C13  38555102.989                3       -193.813          23.000  
C28  24194138.688                3       1728.327          23.000  
C14  24418763.228                3      -2753.011          24.000  
G 9  23474367.005                3       -925.129          25.000  
> 2019  4 28 12 48  6.0030000  0 10                     
G 2  23381020.320                3        471.871          23.000  
G 6  22503868.975   118258637.986        -782.819          28.000  
G12  23470693.359                3        686.447          17.000  
G 5  22334368.530   117367922.7332       1646.753          29.000  
G19  21601597.776   113517185.2832      -1059.076          26.000  
C 8  38074505.807                3        -45.139          22.000  
C13  38555140.274                3       -190.990          24.000  
C28  24193807.662                2       1733.761          25.000  
C14  24419289.898                2      -2751.818          26.000  
G 9  23474544.590                2       -926.283          25.000  
> 2019  4 28 12 48  7.0030000  0 10                     
G 2  23380933.922                3        478.625          25.000  
G 6  22504017.961   118259420.788        -783.543          28.000  
G12  23470561.274                3        686.447          14.000  
G 5  22334059.150   117366276.2312       1647.468          28.000  
G19  21601802.526   113518245.1082      -1061.087          26.000  
C 8  38074513.136                3        -47.689          23.000  
C13  38555175.368                3       -189.398          24.000  
C28  24193477.141   125981738.4402       1735.389          27.000  
C14  24419816.883   127160370.8592      -2752.797          27.000  
G 9  23474721.465                2       -928.021          24.000  
> 2019  4 28 12 48  8.0030000  0 10                     
G 2  23380840.253                2        477.518          26.000  
G 6  22504168.006   118260204.543        -784.587          28.000  
G12  23470429.047                3        686.447          12.000  
G 5  22333747.297   117364629.3982       1645.956          29.000  
G19  21602006.761                3      -1060.183          26.000  
C 8  38074524.433                3        -48.119          23.000  
C13  38555212.354                3       -191.568          25.000  
C28  24193143.672   125980003.3912       1734.654          28.000  
C14  24420345.745   127163125.0012      -2754.858          26.000  
G 9  23474898.956                3       -930.649          24.000  
> 2019  4 28 12 48  9.0030000  0 11                     
G 2  23380750.553                3        476.723          32.000  
G 6  22504316.931   118260989.846        -787.427          31.000  
C 3  37122180.528                3       -373.682          29.000  
G 5  22333434.219   117362988.8393       1646.702          30.000  
G19  21602207.323   113520364.8312      -1061.758          28.000  
G17  22392863.295                3      -1757.089          28.000  
C 8  38074533.104                3        -51.184          26.000  
C13  38555247.265   200767258.7892       -190.998          27.000  
C28  24192810.711   125978268.9882       1733.369          31.000  
C14  24420873.367   127165864.2423      -2758.101          29.000  
G 9  23475076.178                3       -934.114          25.000  
> 2019  4 28 12 48 10.0030000  0 11                     
G 2  23380657.013   122866181.8202        477.385          27.000  
G 6  22504469.771   118261777.465        -789.231          30.000  
G12  23470169.253                3        686.447          10.000  
G 5  22333115.089                2       1652.209          29.000  
G19  21602412.777   113521428.8652      -1064.427          27.000  
G17  22393188.609                2      -1766.615          27.000  
C 8  38074542.291                2        -54.317          27.000  
C13  38555283.304   200767450.4102       -192.103          27.000  
C28  24192478.354   125976535.6582       1731.445          30.000  
C14  24421401.337   127168623.5542      -2761.466          29.000  
G 9  23475254.556                3       -933.280          25.000  
> 2019  4 28 12 48 11.0030000  0  9                     
G 6  22504620.340   118262569.587        -794.500          29.000  
G 5  22332800.870                3       1655.502          28.000  
G19  21602616.053   113522495.1802      -1067.006          26.000  
G17  22393516.734   117678765.5732      -1766.584          27.000  
C 8  38074553.512   198264157.6852        -59.121          26.000  
C13  38555319.616                3       -194.730          26.000  
C28  24192143.587                2       1730.572          30.000  
C14  24421938.782                3      -2765.779          27.000  
G 9  23475437.498                3       -940.188          25.000  
> 2019  4 28 12 48 12.0030000  0  9                     
G 6  22504767.232   118263364.578        -795.995          28.000  
G 5  22332480.735                3       1657.082          26.000  
G19  21602817.987                2      -1068.419          25.000  
G17  22393844.578                2      -1766.521          26.000  
C 8  38074564.702                3        -58.913          24.000  
C13  38555358.705                3       -195.044          25.000  
C28  24191812.478                2       1729.142          28.000  
C14  24422470.872                3      -2770.047          26.000  
G 9  23475615.843                3       -942.609          23.000  
> 2019  4 28 12 48 13.0030000  0  9                     
G 6  22504920.942   118264162.165        -799.188          27.000  
G 5  22332165.130   117356319.6392       1659.090          27.000  
G19  21603021.740                3      -1069.736          25.000  
G17  22394174.982   117682183.4093      -1767.586          26.000  
C 8  38074575.170                3        -70.756          24.000  
C13  38555395.433                3       -196.519          25.000  
C28  24191474.738   125971346.6772       1727.037          27.000  
C14  24423001.502                3      -2773.677          25.000  
G 9  23475797.947                3       -950.694          22.000  
> 2019  4 28 12 48 14.0030000  0  9                     
G 6  22505071.605                3       -803.222          26.000  
G 5  22331851.785   117354660.6472       1660.780          26.000  
G19  21603226.956                3      -1071.374          24.000  
G17  22394510.417   117683950.5862      -1767.289          25.000  
C 8  38074587.217                3        -70.415          21.000  
C13  38555433.922                3       -196.933          24.000  
C28  24191144.597                3       1730.152          25.000  
C14  24423536.548                3      -2777.398          25.000  
G 9  23475982.457                3       -951.919          20.000  
> 2019  4 28 12 48 15.0030000  0  8                     
G 6  22505233.294                3       -789.073          22.000  
G19  21603431.255                3      -1071.374          21.000  
G17  22394846.290                3      -1770.435          21.000  
C 8  38074602.071                3        -70.415          19.000  
C13  38555470.842                3       -195.532          20.000  
C28  24190813.261                3       1739.730          22.000  
C14  24424069.085                3      -2778.224          22.000  
G 9  23476166.182                3       -951.919          18.000  
> 2019  4 28 12 48 16.0030000  0  8                     
G 6  22505386.106                3       -789.073          19.000  
G19  21603634.868                3      -1077.061          17.000  
G17  22395180.512                3      -1762.484          20.000  
C 8  38074615.170                3        -70.415          16.000  
C13  38555508.585                3       -195.532          18.000  
C28  24190483.050                3       1720.735          19.000  
C14  24424604.634                3      -2783.033          20.000  
G 9  23476349.202                3       -951.919          15.000  
> 2019  4 28 12 48 17.0030000  0  8                     
G 6  22505537.513                3       -809.697          18.000  
G19  21603835.070                3      -1060.801          18.000  
G17  22395515.715                3      -1765.451          20.000  
C 8  38074628.908                3        -67.481          17.000  
C13  38555546.345                3       -211.587          16.000  
C28  24190154.530                3       1717.772          17.000  
C14  24425140.637                3      -2785.498          18.000  
G 9  23476529.072                3       -952.349          18.000  
> 2019  4 28 12 48 18.0030000  0  9                     
G 6  22505691.242                3       -810.444          24.000  
G 5  22330589.332                3       1663.760          23.000  
G19  21604039.683                3      -1069.491          21.000  
G17  22395848.973                3      -1768.103          24.000  
C 8  38074640.130                3        -70.458          19.000  
C13  38555588.749                3       -210.738          19.000  
C28  24189829.123                3       1707.621          20.000  
C14  24425673.414                3      -2793.018          22.000  
G 9  23476709.638                3       -950.964          20.000  
> 2019  4 28 12 48 19.0030000  0  9                     
G 6  22505843.435                3       -810.485          25.000  
G 5  22330272.678                3       1663.760          23.000  
G19  21604243.549                3      -1067.450          22.000  
G17  22396182.091                3      -1761.909          25.000  
C 8  38074654.158                3        -72.222          19.000  
C13  38555630.618                3       -214.326          20.000  
C28  24189501.772                3       1708.216          22.000  
C14  24426205.094                3      -2787.514          23.000  
G 9  23476892.191                3       -952.422          20.000  
> 2019  4 28 12 48 20.0030000  0  9                     
G 6  22505998.364                3       -811.514          25.000  
G 5  22329952.063                3       1663.760          22.000  
G19  21604447.793                3      -1073.649          22.000  
G17  22396514.184                3      -1763.448          25.000  
C 8  38074669.859                3        -66.057          19.000  
C13  38555670.054                3       -205.482          20.000  
C28  24189171.130                3       1714.647          22.000  
C14  24426740.248                3      -2792.154          23.000  
G 9  23477072.688                3       -950.654          19.000  
> 2019  4 28 12 48 21.0030000  0  9                     
G 6  22506152.284                3       -811.658          25.000  
G 5  22329635.479                3       1663.760          23.000  
G19  21604652.236                3      -1067.537          23.000  
G17  22396844.947                3      -1763.666          25.000  
C 8  38074682.833                3        -73.697          20.000  
C13  38555710.992                3       -205.736          20.000  
C28  24188841.742                3       1717.724          23.000  
C14  24427276.208                3      -2781.103          22.000  
G 9  23477255.263                3       -952.836          18.000  
> 2019  4 28 12 48 22.0030000  0 10                     
G 6  22506304.932                3       -812.413          25.000  
G 5  22329317.924                3       1661.440          23.000  
C16  38978211.223                3       1206.000          13.000  
G19  21604856.783                3      -1068.070          23.000  
G17  22397178.372                3      -1763.922          25.000  
C 8  38074696.431                3        -63.797          20.000  
C13  38555750.170                3       -216.892          21.000  
C28  24188512.140                3       1712.293          22.000  
C14  24427808.666                3      -2789.231          23.000  
G 9  23477435.227                3       -952.239          18.000  
> 2019  4 28 12 48 23.0030000  0 10                     
G 6  22506458.563                3       -808.023          25.000  
G 5  22329003.436                3       1657.225          23.000  
C16  38977986.640                3       1206.000          14.000  
G19  21605062.266                3      -1070.280          23.000  
G17  22397516.285                3      -1765.234          25.000  
C 8  38074711.192                3        -69.582          20.000  
C13  38555790.944                3       -202.952          21.000  
C28  24188182.913                3       1729.542          22.000  
C14  24428342.671                3      -2778.033          23.000  
G 9  23477614.829                3       -952.884          18.000  
> 2019  4 28 12 48 24.0030000  0 10                     
G 6  22506612.710   118273047.5742       -803.381          26.000  
G 5  22328688.759                3       1656.818          26.000  
C16  38977756.660                3       1195.990          14.000  
G19  21605263.914                3      -1073.757          25.000  
G17  22397853.377                2      -1770.508          27.000  
C 8  38074723.555                3        -67.531          21.000  
C13  38555832.109                3       -201.103          22.000  
C28  24187853.852                3       1724.679          23.000  
C14  24428876.194                3      -2782.906          24.000  
G 9  23477795.131                3       -953.111          19.000  
> 2019  4 28 12 48 25.0030000  0 10                     
G 6  22506763.838   118273849.3202       -799.918          26.000  
G 5  22328373.680                3       1652.329          26.000  
C16  38977533.602                3       1185.370          15.000  
G19  21605469.373                3      -1076.068          25.000  
G17  22398191.011                3      -1772.655          27.000  
C 8  38074735.801                3        -60.584          21.000  
C13  38555870.779                3       -196.449          22.000  
C28  24187521.980                3       1722.642          24.000  
C14  24429411.641                3      -2784.524          24.000  
G 9  23477973.276                3       -958.144          19.000  
> 2019  4 28 12 48 26.0030000  0 10                     
G 6  22506913.331                3       -797.433          25.000  
G 5  22328058.051                3       1654.219          24.000  
C16  38977307.594                3       1185.370          14.000  
G19  21605675.209                3      -1077.951          22.000  
G17  22398531.870                3      -1772.913          26.000  
C 8  38074747.229                3        -60.584          19.000  
C13  38555907.492                3       -190.490          21.000  
C28  24187190.002                3       1729.705          23.000  
C14  24429946.054                3      -2773.783          22.000  
G 9  23478157.208                3       -959.426          19.000  
> 2019  4 28 12 48 27.0030000  0 12                     
G 2  23379147.227                3        479.791          25.000  
G 6  22507066.322   118275430.8432       -796.496          27.000  
G12  23467903.174                3        691.009          29.000  
G 5  22327748.654                2       1653.782          30.000  
C16  38977079.340                3       1174.140          17.000  
G19  21605879.645                2      -1079.663          25.000  
G17  22398869.183   117706851.7132      -1780.996          30.000  
C 8  38074759.784                3        -64.342          21.000  
C13  38555946.304                3       -188.826          23.000  
C28  24186859.495                2       1732.946          26.000  
C14  24430478.766                3      -2776.268          24.000  
G 9  23478336.583                3       -936.708          19.000  
> 2019  4 28 12 48 28.0030000  0 12                     
G 2  23379058.508                3        484.768          24.000  
G 6  22507218.289   118276227.0102       -796.104          26.000  
G12  23467763.400   123323928.9712        691.665          29.000  
C11  24093361.508                3      -1297.679          28.000  
G 5  22327432.943   117331457.0972       1652.516          30.000  
G19  21606089.614   113540744.6002      -1082.049          27.000  
G17  22399207.067   117708634.0792      -1784.259          27.000  
C 8  38074771.323                3        -57.418          23.000  
C13  38555980.284                2       -187.854          29.000  
C28  24186525.751                3       1734.014          27.000  
C14  24431013.831                3      -2773.980          26.000  
G 9  23478515.581                3       -936.708          17.000  
> 2019  4 28 12 48 29.0030000  0 13                     
G 2  23378965.315   122857291.5402        485.781          31.000  
G 6  22507372.924   118277021.8322       -794.817          32.000  
G12  23467631.710   123323235.2952        693.970          36.000  
C 3  37123582.179                3       -421.000          27.000  
C11  24093612.228                3      -1299.694          23.000  
G 5  22327119.212   117329802.5532       1654.924          36.000  
G19  21606289.134   113541814.7703      -1083.356          28.000  
G17  22399547.409   117710419.1442      -1787.302          29.000  
C 8  38074782.053                3        -60.338          22.000  
C13  38556014.750                2       -183.715          25.000  
C28  24186193.979   125943827.3132       1738.334          32.000  
C14  24431545.827                3      -2774.259          22.000  
G 9  23478693.351                3       -936.708          14.000  
> 2019  4 28 12 48 30.0030000  0 13                     
G 2  23378870.532   122856803.8242        489.940          32.000  
G 6  22507526.118   118277816.0882       -794.887          32.000  
G12  23467499.326   123322538.8872        697.159          33.000  
C11  24093859.131   125463015.1622      -1303.836          32.000  
G 5  22326804.837   117328147.3122       1655.736          34.000  
C16  38976410.572                3       1176.953          29.000  
G19  21606493.308   113542898.9512      -1084.912          31.000  
G17  22399888.328   117712207.1372      -1788.912          31.000  
C 8  38074792.728                2        -53.693          29.000  
C13  38556049.216   200771443.1762       -181.050          31.000  
C28  24185861.456   125942087.6272       1741.358          35.000  
C14  24432079.908                3      -2779.899          21.000  
G 9  23478874.621                3       -936.708          12.000  
> 2019  4 28 12 48 31.0030000  0 12                     
G 2  23378778.678   122856313.8432        490.886          36.000  
G 6  22507674.028   118278610.2542       -794.399          37.000  
G12  23467366.816   123321839.8342        699.939          37.000  
C 3  37123733.396                3       -382.367          33.000  
C11  24094111.245   125464320.2392      -1307.768          35.000  
G 5  22326487.329   117326491.2352       1657.347          37.000  
G19  21606703.897   113543985.5342      -1087.653          31.000  
G17  22400231.026   117713998.6292      -1791.989          30.000  
C 8  38074803.870   198265459.7322        -54.111          33.000  
C13  38556085.271   200771624.0292       -180.245          34.000  
C28  24185525.339   125940345.9832       1741.683          40.000  
C14  24432613.381                3      -2779.899          16.000  
> 2019  4 28 12 48 32.0030000  0 14                     
G 2  23378685.771   122855823.3642        490.320          40.000  
G 6  22507826.647   118279406.3292       -797.986          34.000  
G12  23467233.577   123321139.7282        701.546          40.000  
C 3  37123799.269                2       -373.326          38.000  
C11  24094364.498   125465628.5272      -1310.462          38.000  
G 5  22326172.749   117324834.4362       1657.422          43.000  
C16  38975963.087                3       1166.553          35.000  
G19  21606908.930   113545074.9302      -1090.948          38.000  
G17  22400569.093   117715793.1632      -1795.800          37.000  
C 8  38074814.776   198265515.6992        -58.251          32.000  
C13  38556122.169   200771804.7552       -181.066          40.000  
C28  24185190.574   125938604.2082       1741.180          43.000  
C14  24433146.359                3      -2780.193          17.000  
G 9  23479239.616                3       -972.603          28.000  
> 2019  4 28 12 48 33.0030000  0 15                     
G 2  23378591.413   122855332.2062        489.275          33.000  
G 6  22507973.641                3       -799.125          22.000  
G12  23467102.275                3        698.895          28.000  
C 3  37123870.924   193313706.6282       -372.653          38.000  
C11  24094616.809   125466940.1832      -1312.293          38.000  
G 5  22325857.864   117323176.2372       1658.159          43.000  
C16  38975738.029   202956864.3242       1168.100          38.000  
G19  21607117.646   113546167.0422      -1092.859          37.000  
G17  22400913.085   117717590.8062      -1798.113          38.000  
C 2  38009953.820                3       -315.758          36.000  
C 8  38074823.133                3        -63.807          25.000  
C13  38556154.502   200771982.9313       -179.024          40.000  
C28  24184856.001   125936862.1322       1741.984          39.000  
C14  24433682.429                3      -2784.597          16.000  
G 9  23479446.574   123385324.3142       -977.037          34.000  
> 2019  4 28 12 48 34.0030000  0 15                     
G 2  23378498.622                3        491.453          41.000  
G12  23466965.838   123319737.1372        704.319          42.000  
C 3  37123942.476   193314079.3952       -372.339          41.000  
C11  24094869.056   125468254.8842      -1317.323          37.000  
G 5  22325546.088   117321519.1782       1647.445          22.000  
C16  38975510.989   202955695.7942       1170.353          41.000  
G19  21607327.328   113547261.4352      -1095.691          38.000  
G17  22401255.064   117719390.9652      -1802.025          39.000  
C 4  39243500.147                3       -356.328          31.000  
C 2  38010018.765                3       -336.865          30.000  
C 8  38074844.612                3        -61.786          24.000  
C13  38556191.789                3       -177.696          35.000  
C28  24184520.850   125935121.7122       1742.868          46.000  
C14  24434218.668                3      -2784.597          16.000  
G 9  23479642.154                3       -979.357          19.000  
> 2019  4 28 12 48 35.0030000  0 13                     
G 2  23378404.641   122854345.2232        493.520          42.000  
G12  23466832.267   123319031.8392        705.885          43.000  
C 3  37124014.321                3       -371.677          40.000  
G 5  22325231.336                3       1661.543          40.000  
G19  21607535.779                3      -1090.100          24.000  
G17  22401599.570   117721194.7522      -1809.597          32.000  
C 4  39243576.296                2       -389.627          32.000  
C 2  38010074.296                2       -309.934          34.000  
C 8  38074853.038                3        -61.774          35.000  
C13  38556226.441   200772355.9662       -179.458          40.000  
C28  24184188.105   125933378.7112       1742.776          45.000  
C14  24434753.822                3      -2784.597          13.000  
G 9  23479828.845                3       -957.932          16.000  
> 2019  4 28 12 48 36.0030000  0 14                     
G 2  23378309.091   122853851.2972        494.803          41.000  
G12  23466699.393   123318325.3962        706.725          45.000  
C 3  37124085.642   193314825.1012       -371.884          38.000  
G 5  22324927.949                3       1663.915          26.000  
C16  38975066.783                3       1167.570          33.000  
G19  21607743.823   113549459.5042      -1100.531          38.000  
G17  22401940.532                3      -1806.600          39.000  
C 4  39243649.004                3       -411.621          27.000  
C 2  38010137.281                3       -303.857          27.000  
C 8  38074865.018                3        -68.806          25.000  
C13  38556256.645   200772535.0632       -178.886          37.000  
C28  24183853.916   125931635.5102       1743.259          46.000  
C14  24435288.340                3      -2784.597          11.000  
G 9  23480032.393                3       -941.372          13.000  
> 2019  4 28 12 48 37.0030000  0 14                     
G 2  23378217.691   122853357.2952        494.396          39.000  
G12  23466563.687   123317618.6592        707.175          42.000  
C 3  37124157.042   193315198.2062       -375.691          38.000  
C11  24095630.376                3      -1324.469          31.000  
G 5  22324629.262                3       1665.381          31.000  
C16  38974844.303                2       1169.158          33.000  
G19  21607954.807   113550561.5192      -1103.040          36.000  
G17  22402286.644   117724799.8242      -1809.033          41.000  
C 4  39243729.914                3       -382.812          33.000  
C 8  38074872.113                3        -58.843          22.000  
C13  38556293.421   200772714.2642       -179.740          43.000  
C28  24183517.846   125929892.7582       1743.283          46.000  
C14  24435824.387                3      -2787.870          12.000  
G 9  23480225.955                3       -953.841          14.000  
> 2019  4 28 12 48 38.0030000  0 13                     
G 2  23378124.616   122852862.5232        495.648          44.000  
G12  23466431.508   123316911.3572        707.836          43.000  
C 3  37124229.048   193315571.2442       -373.457          37.000  
C11  24095881.404   125473564.8082      -1326.804          33.000  
G 5  22324320.243                3       1657.330          25.000  
C16  38974620.304                2       1169.891          28.000  
G19  21608163.680   113551664.8852      -1103.571          36.000  
G17  22402628.791   117726610.2702      -1811.583          39.000  
C 8  38074886.119                3        -62.521          29.000  
C13  38556326.941   200772892.7192       -177.025          34.000  
C28  24183182.034   125928149.1132       1743.991          43.000  
C14  24436360.787                3      -2787.870          13.000  
G 9  23480409.863                3       -953.841          12.000  
> 2019  4 28 12 48 39.0030000  0 13                     
G 2  23378027.686   122852365.8302        497.730          41.000  
G 6  22508917.511                3       -807.373          31.000  
G12  23466293.972   123316202.2552        711.213          43.000  
C 3  37124300.387   193315944.1822       -372.503          42.000  
C11  24096137.362   125474892.0392      -1328.044          38.000  
G 5  22323990.916                2       1664.347          27.000  
C16  38974397.207                2       1165.477          35.000  
G19  21608375.041   113552769.3612      -1104.260          36.000  
G17  22402976.482   117728422.2912      -1812.566          39.000  
C 8  38074899.774   198265962.5552        -62.602          36.000  
C13  38556361.787   200773061.5973       -176.981          38.000  
C28  24182846.436   125926395.7993       1748.099          36.000  
C14  24436906.848                3      -2787.086          15.000  
> 2019  4 28 12 48 40.0030000  0 12                     
G 2  23377934.351   122851866.6562        500.036          43.000  
G12  23466157.991   123315491.1832        710.808          37.000  
C 3  37124371.898   193316316.3692       -371.943          35.000  
C11  24096392.015   125476220.2272      -1327.834          32.000  
G 5  22323664.832                3       1681.661          27.000  
G19  21608583.687   113553874.3192      -1105.316          36.000  
G17  22403321.346   117730235.2652      -1814.193          42.000  
C 4  39243954.228                3       -421.703          27.000  
C 8  38074911.276                3        -55.083          25.000  
C13  38556394.464   200773236.2212       -173.530          37.000  
C28  24182510.593                3       1745.084          25.000  
C14  24437452.344                3      -2793.029          20.000  
> 2019  4 28 12 48 41.0030000  0 12                     
G 2  23377839.010   122851366.5072        499.934          41.000  
G12  23466023.648   123314779.0202        712.790          38.000  
C 3  37124443.308   193316688.7082       -372.308          37.000  
C11  24096649.482   125477549.3652      -1329.321          39.000  
G 5  22323343.126                3       1666.329          28.000  
G19  21608794.208   113554980.1402      -1105.121          40.000  
G17  22403665.648   117732049.4672      -1814.106          42.000  
C 2  38010442.005                3       -306.836          28.000  
C 8  38074920.586                3        -51.838          30.000  
C13  38556429.548   200773409.7812       -172.626          38.000  
C28  24182177.070                3       1746.777          39.000  
C14  24437992.105                3      -2805.566          22.000  
> 2019  4 28 12 48 42.0030000  0 13                     
G 2  23377742.070   122850865.0902        502.178          40.000  
G12  23465887.881   123314066.6742        709.012          37.000  
C 3  37124513.401                3       -354.492          29.000  
C11  24096905.723                3      -1347.631          29.000  
G 5  22323019.342                3       1676.282          27.000  
G19  21609004.307   113556085.5792      -1104.980          38.000  
G17  22404011.452   117733863.4362      -1813.251          39.000  
C 4  39244107.356                3       -397.203          36.000  
C 8  38074933.663                2        -58.743          38.000  
C13  38556463.146                3       -177.722          31.000  
C28  24181842.390   125921167.0142       1750.130          48.000  
C14  24438550.591                3      -2815.206          22.000  
G 9  23481163.241                3       -934.513          25.000  
> 2019  4 28 12 48 43.0030000  0 13                     
G 2  23377649.963                3        471.076          21.000  
G 6  22509513.198                3       -810.176          25.000  
G12  23465761.546                3        645.583          27.000  
C 3  37124584.217                2       -364.677          33.000  
C11  24097160.778                3      -1266.108          28.000  
G 5  22322698.784                3       1636.395          27.000  
G19  21609215.393   113557189.763       -1103.156          36.000  
G17  22404355.082   117735680.2573      -1812.001          38.000  
C 4  39244180.230                2       -396.862          35.000  
C 8  38074943.760                3        -62.759          26.000  
C13  38556497.395                3       -165.281          20.000  
C28  24181514.273                3       1701.297          29.000  
C14  24439087.100                3      -2783.956          19.000  
> 2019  4 28 12 48 44.0030000  0  9                     
G 2  23377561.903                3        471.076          18.000  
G12  23465639.148                3        645.583          23.000  
G 5  22322391.119                3       1612.848          23.000  
G19  21609427.309                3      -1109.392          24.000  
G17  22404703.340                3      -1846.501          19.000  
C 8  38074953.235                3        -60.911          22.000  
C13  38556529.673                3       -165.281          16.000  
C28  24181191.603                3       1678.514          18.000  
C14  24439620.891                3      -2783.956          16.000  
> 2019  4 28 12 48 45.0030000  0  8                     
G 2  23377467.268                3        502.857          19.000  
G12  23465513.644                3        676.833          17.000  
G 5  22322080.237                3       1612.848          17.000  
G19  21609636.962                3      -1109.392          20.000  
G17  22405047.694                3      -1801.999          19.000  
C 8  38074966.340                3        -60.911          18.000  
C13  38556562.992                3       -165.281          13.000  
C28  24180872.393                3       1678.514          14.000  
> 2019  4 28 12 48 46.0030000  0  9                     
G 2  23377358.278   122848846.1032        505.429          37.000  
G12  23465345.640   123311223.3442        712.000          39.000  
G 5  22321765.644                3       1666.515          32.000  
G19  21609847.085                3      -1109.392          13.000  
G17  22405391.496                3      -1770.749          18.000  
C 8  38074974.311                3        -60.911          11.000  
C13  38556594.248                2       -168.004          33.000  
C28  24180495.837                3       1753.075          42.000  
C14  24440691.314                3      -2783.956          22.000  
> 2019  4 28 12 48 47.0030000  0 10                     
G 2  23377262.119   122848341.1172        505.062          43.000  
G12  23465209.774   123310512.2952        712.385          38.000  
C 3  37124868.841                3       -361.414          37.000  
G 5  22321444.754                3       1666.643          29.000  
G19  21610054.282   113561601.3882      -1101.941          39.000  
G17  22405734.600                2      -1812.167          42.000  
C 8  38074995.855                3        -59.846          18.000  
C13  38556623.891   200774426.5002       -167.405          40.000  
G 9  23482184.070                3       -932.144          18.000  
C14  24441240.396                3      -2789.307          32.000  
> 2019  4 28 12 48 48.0030000  0 13                     
G 2  23377167.050   122847836.6332        503.551          40.000  
G12  23465075.441                3        705.261          28.000  
C 3  37124938.401                2       -367.012          42.000  
C11  24098436.786   125486852.6172      -1323.490          36.000  
G 5  22321131.920                3       1681.674          28.000  
G19  21610265.013   113562702.3292      -1099.939          40.000  
G17  22406079.083   117744739.7922      -1809.116          42.000  
C 4  39244563.618                3       -385.992          33.000  
C 8  38074991.863                3        -55.938          31.000  
C13  38556657.738   200774594.4622       -169.293          45.000  
G 9  23482307.541                3       -982.314          28.000  
C28  24179822.320   125910647.9692       1750.807          45.000  
C14  24441797.363                3      -2774.023          33.000  
> 2019  4 28 12 48 49.0030000  0 14                     
G 2  23377074.097                3        514.249          26.000  
G 6  22510444.158                3       -798.088          27.000  
G12  23464941.676                2        704.271          37.000  
C 3  37125009.688   193319630.1262       -365.563          43.000  
C11  24098688.169   125488174.6642      -1322.346          43.000  
G 5  22320812.640                2       1657.400          29.000  
G19  21610475.561   113563802.7232      -1100.037          40.000  
G17  22406424.449   117746548.4862      -1808.291          43.000  
C 4  39244636.645                2       -388.832          33.000  
C 8  38075012.234                3        -58.857          29.000  
C13  38556693.343                3       -174.836          29.000  
G 9  23482481.339                3       -999.121          30.000  
C28  24179488.833                3       1750.852          28.000  
C14  24442336.629                3      -2792.058          36.000  
> 2019  4 28 12 48 50.0030000  0 13                     
G 2  23376975.104   122846832.6522        499.307          39.000  
G12  23464804.482                3        700.439          30.000  
C 3  37125077.931   193319996.8182       -367.835          39.000  
C11  24098941.544   125489496.4242      -1321.584          43.000  
G 5  22320494.555                3       1668.628          28.000  
G19  21610683.232   113564903.7382      -1101.062          42.000  
G17  22406769.586   117748357.0872      -1808.841          42.000  
C 4  39244713.598   204357478.5892       -388.462          38.000  
C 8  38075026.491                3        -60.241          21.000  
C13  38556722.947   200774943.0312       -172.098          41.000  
G 9  23482695.857   123402399.4842       -992.780          36.000  
C28  24179150.903   125907152.1902       1745.887          45.000  
C14  24442873.871                2      -2804.199          33.000  
> 2019  4 28 12 48 51.0030000  0 13                     
G 2  23376880.662   122846333.7032        499.140          39.000  
G12  23464676.297   123307705.5262        699.688          37.000  
C 3  37125149.604                3       -369.106          40.000  
C11  24099195.609                3      -1301.633          28.000  
G 5  22320166.068                3       1656.201          30.000  
C16  38971708.549                3       1169.740          29.000  
G19  21610889.258                3      -1100.221          37.000  
G17  22407108.868                3      -1804.888          29.000  
C 4  39244786.776   204357866.4312       -387.190          37.000  
C 8  38075031.600                2        -59.938          30.000  
C13  38556755.126   200775115.7522       -173.484          43.000  
C28  24178814.099   125905405.3732       1746.967          45.000  
C14  24443403.985                2      -2789.480          30.000  
> 2019  4 28 12 48 52.0030000  0 13                     
G 2  23376786.020   122845834.9342        496.940          39.000  
G12  23464544.500   123307006.2652        694.648          37.000  
C 3  37125222.443   193320731.3822       -370.648          39.000  
C11  24099449.856   125492127.5232      -1320.489          43.000  
G 5  22319847.942                3       1667.337          34.000  
C16  38971484.428                3       1165.000          29.000  
G19  21611101.027   113567101.5152      -1102.527          38.000  
G17  22407456.588   117751978.8032      -1808.292          43.000  
G 4  23034125.742                2         68.269          35.000  
C 8  38075033.576                2        -54.305          31.000  
C13  38556787.845   200775288.4212       -173.415          42.000  
C28  24178481.759   125903658.6462       1746.158          45.000  
C14  24443950.646                3      -2795.262          24.000  
> 2019  4 28 12 48 53.0030000  0 14                     
G 2  23376693.272   122845337.1652        497.303          40.000  
G12  23464407.294   123306292.0353        696.044          44.000  
C 3  37125292.157   193321098.1242       -365.684          39.000  
C11  24099702.062   125493448.0732      -1320.440          43.000  
G 5  22319523.259                2       1658.282          37.000  
G19  21611312.423   113568202.8352      -1102.185          40.000  
G17  22407800.677   117753786.8092      -1808.259          40.000  
C 4  39244933.885                3       -379.508          34.000  
G 4  23034114.618   121045074.0762         74.194          31.000  
C 8  38075047.957                3        -61.120          24.000  
C13  38556819.591   200775461.9322       -173.171          41.000  
G 9  23483289.801                3       -992.886          25.000  
C28  24178142.911   125901913.1722       1745.772          43.000  
C14  24444498.146                3      -2780.426          24.000  
> 2019  4 28 12 48 54.0030000  0 14                     
G 2  23376597.285   122844839.8972        496.684          40.000  
G12  23464273.348   123305595.8232        697.845          41.000  
C 3  37125362.029   193321465.2452       -367.515          45.000  
C11  24099955.912   125494768.1042      -1319.333          45.000  
G 5  22319200.807   117288227.4612       1660.828          33.000  
G19  21611519.472   113569304.2612      -1101.385          40.000  
G17  22408143.297   117755594.5592      -1807.995          42.000  
C 4  39245006.771   204359017.2542       -385.271          40.000  
G 4  23034100.230   121045000.6992         72.712          35.000  
C 8  38075058.484                3        -48.549          23.000  
C13  38556856.260   200775635.7552       -174.723          42.000  
G 9  23483476.896                3      -1000.392          26.000  
C28  24177808.964   125900167.9442       1746.376          47.000  
C14  24445028.186                3      -2796.357          35.000  
> 2019  4 28 12 48 55.0030000  0 13                     
G 2  23376500.908   122844341.8612        497.722          40.000  
G12  23464141.442   123304899.8562        697.677          38.000  
C 3  37125432.467                3       -366.016          39.000  
C11  24100207.041                3      -1318.701          36.000  
G 5  22318893.611   117286569.4322       1656.980          43.000  
C16  38970824.329                2       1176.267          27.000  
G19  21611732.552   113570405.0952      -1101.587          40.000  
G17  22408488.116   117757401.6702      -1808.284          43.000  
C 4  39245080.188   204359401.0722       -385.039          33.000  
C 8  38075069.242                3        -52.670          30.000  
C13  38556887.479   200775808.7012       -173.950          43.000  
C28  24177473.595   125898422.1592       1745.752          46.000  
C14  24445566.957                3      -2790.068          26.000  
> 2019  4 28 12 48 56.0030000  0 14                     
G 2  23376406.221   122843844.0552        497.758          39.000  
G12  23464011.555   123304205.0982        694.521          43.000  
C 3  37125502.763   193322203.3872       -367.031          43.000  
C11  24100460.387   125497389.5932      -1318.310          40.000  
G 5  22318581.038   117284912.9202       1655.394          45.000  
G19  21611942.657   113571506.4072      -1101.917          39.000  
G17  22408832.683   117759209.2142      -1807.615          42.000  
C 4  39245154.325   204359784.8262       -384.275          36.000  
G 4  23034070.366   121044856.5513         72.789          33.000  
C 8  38075076.364   198266882.7982        -54.357          30.000  
C13  38556921.260   200775981.7432       -173.015          43.000  
C28  24177139.416   125896676.5732       1744.794          48.000  
C14  24446120.146                3      -2760.813          25.000  
C 2  38011310.843                3       -308.734          41.000  
> 2019  4 28 12 48 57.0030000  0 14                     
G 2  23376312.120   122843346.8952        497.082          38.000  
G 6  22511667.887                3       -804.430          25.000  
G12  23463878.329   123303511.7062        692.815          42.000  
C 3  37125573.339   193322570.7472       -367.347          43.000  
C11  24100714.231   125498708.8952      -1319.343          40.000  
G 5  22318262.435   117283257.6412       1654.811          43.000  
G19  21612150.838   113572608.2032      -1102.191          39.000  
G17  22409174.738   117761017.0202      -1807.241          40.000  
C 4  39245228.558                3       -384.172          33.000  
C 8  38075092.211                3        -50.669          20.000  
C13  38556954.776   200776154.7161       -173.652          44.000  
C28  24176802.348   125894931.5182       1744.950          45.000  
C14  24446665.856                3      -2783.603          27.000  
C 2  38011367.831                3       -308.203          42.000  
> 2019  4 28 12 48 58.0030000  0 14                     
G 2  23376217.920   122842849.5542        497.330          38.000  
G12  23463746.993   123302819.1952        691.976          40.000  
C 3  37125644.095   193322938.0122       -367.314          41.000  
C11  24100967.104   125500027.3172      -1318.740          35.000  
G 5  22317952.000                3       1654.932          34.000  
G19  21612360.902   113573709.9272      -1102.423          39.000  
G17  22409520.468   117762824.4502      -1806.853          41.000  
C 4  39245300.885                3       -386.016          29.000  
G 4  23034045.617                3         76.076          25.000  
C 8  38075107.528                3        -52.753          17.000  
C13  38556988.274   200776327.964        -174.045          43.000  
C28  24176467.345   125893186.418        1744.139          40.000  
C14  24447201.438                3      -2784.219          26.000  
C 2  38011424.740   197935432.1472       -309.150          39.000  
> 2019  4 28 12 48 59.0030000  0 15                     
G 2  23376123.525   122842353.0832        495.940          40.000  
G12  23463615.837   123302128.3862        689.284          41.000  
C 3  37125714.679   193323305.7952       -368.302          39.000  
C11  24101220.274   125501345.3412      -1317.191          38.000  
G 5  22317632.364                2       1656.057          33.000  
G19  21612569.628   113574811.8212      -1101.538          39.000  
G17  22409864.816   117764631.8042      -1806.825          39.000  
C 4  39245373.930                3       -389.258          29.000  
G 4  23034024.182   121044613.9182         72.963          31.000  
C 8  38075118.593                3        -57.260          16.000  
C13  38557021.702   200776501.649        -174.181          42.000  
G 9  23484426.886                3       -978.353          29.000  
C28  24176132.161   125891441.950        1743.064          43.000  
C14  24447737.295                3      -2797.095          24.000  
C 2  38011484.568   197935743.7713       -309.379          34.000  
> 2019  4 28 12 49  0.0030000  0 13                     
G 2  23376029.174   122841858.1322        493.838          34.000  
G 6  22512144.961                3       -804.430          21.000  
G12  23463485.948   123301440.5262        685.368          36.000  
C 3  37125785.014   193323672.8443       -368.435          32.000  
C11  24101474.088   125502662.2482      -1314.731          24.000  
G 5  22317322.934                3       1649.267          26.000  
G19  21612779.352   113575913.5892      -1101.520          33.000  
G17  22410209.423   117766438.3662      -1806.379          34.000  
C 4  39245448.466                3       -418.896          27.000  
C 8  38075127.921                3        -42.813          16.000  
C13  38557055.186   200776676.741        -175.288          31.000  
C28  24175797.512   125889699.103        1741.841          34.000  
C14  24448274.249                3      -2796.700          22.000  
> 2019  4 28 12 49  1.0030000  0 12                     
G 2  23375935.942   122841367.292         490.192          38.000  
G 6  22512305.401                3       -804.430          19.000  
G12  23463355.977   123300757.686         681.100          41.000  
C 3  37125855.138   193324038.5883       -365.373          33.000  
G 5  22317006.054                3       1647.794          25.000  
C16  38969451.778                3       1181.787          32.000  
G19  21612988.759   113577014.0121      -1100.238          37.000  
G17  22410549.913   117768241.8661      -1802.418          38.000  
C 8  38075137.239                3        -42.813          14.000  
C13  38557089.158   200776855.400        -179.931          34.000  
C28  24175463.330   125887960.175        1737.576          37.000  
C14  24448806.092                3      -2765.450          18.000  
> 2019  4 28 12 49  2.0030000  0 11                     
G 2  23375843.327   122840879.828         484.952          40.000  
G12  23463226.522   123300078.881         676.879          40.000  
C 3  37125925.314   193324403.6432       -363.611          32.000  
G 5  22316689.007                3       1665.659          31.000  
C16  38969220.183   202922924.1542       1181.948          31.000  
G19  21613197.808   113578113.507       -1099.341          38.000  
G17  22410894.099   117770042.670       -1800.095          38.000  
C 8  38075143.196                3        -42.813          11.000  
C13  38557124.819   200777036.975        -183.190          34.000  
C28  24175129.136   125886224.708        1732.453          36.000  
C14  24449339.175                3      -2765.450          11.000  
> 2019  4 28 12 49  3.0030000  0 11                     
G 2  23375751.578   122840396.782         480.179          41.000  
G12  23463098.263   123299405.057         670.656          41.000  
C 3  37125994.803   193324765.2903       -363.266          36.000  
C11  24102230.186   125506605.9773      -1308.431          34.000  
G 5  22316379.486   117273365.5172       1647.794          41.000  
C16  38968998.099   202921741.6612       1183.297          35.000  
G19  21613406.870   113579212.383       -1098.480          39.000  
G17  22411233.737   117771840.941       -1796.335          40.000  
C13  38557159.637   200777222.621        -187.398          37.000  
C28  24174794.042   125884493.675        1728.696          39.000  
C14  24449874.619                3      -2784.108          13.000  
> 2019  4 28 12 49  4.0030000  0 11                     
G 2  23375660.451   122839918.061         476.947          39.000  
G12  23462970.707   123298736.646         666.666          40.000  
C 3  37126064.287   193325127.2202       -360.752          33.000  
C11  24102484.719   125507930.8502      -1304.576          27.000  
G 5  22316066.565   117271718.4482       1646.875          44.000  
C16  38968765.930   202920555.1322       1188.536          31.000  
G19  21613615.937   113580309.722       -1095.844          39.000  
G17  22411576.870   117773635.712       -1793.164          39.000  
C13  38557198.091   200777412.130        -190.603          35.000  
C28  24174465.441   125882766.900        1725.381          38.000  
C14  24450408.258                3      -2784.108          14.000  
> 2019  4 28 12 49  5.0030000  0 13                     
G 2  23375569.624   122839441.640         474.915          39.000  
G12  23462843.996   123298071.611         663.224          40.000  
C 3  37126133.582   193325488.3903       -361.179          34.000  
C11  24102736.439                3      -1302.502          25.000  
G 5  22315748.790   117270071.9002       1646.254          42.000  
C16  38968537.854   202919365.1032       1191.428          32.000  
G19  21613824.513   113581405.159       -1095.013          38.000  
G17  22411917.210   117775427.169       -1790.389          39.000  
G 4  23033970.811                3        101.948          21.000  
C13  38557235.020   200777603.473        -192.678          36.000  
G 9  23485562.546                3       -971.375          23.000  
C28  24174136.088   125881042.431        1723.818          35.000  
C14  24450945.716                3      -2784.108          14.000  
> 2019  4 28 12 49  6.0030000  0 13                     
G 2  23375479.494   122838967.697         472.845          39.000  
G12  23462717.709   123297410.060         660.317          40.000  
C 3  37126202.585   193325847.6962       -358.483          36.000  
G 5  22315435.006   117268426.7022       1644.493          41.000  
C16  38968310.344   202918173.1912       1193.404          33.000  
G19  21614032.956   113582499.780       -1094.763          38.000  
G17  22412257.073   117777216.713       -1788.607          39.000  
C 4  39245866.654                3       -337.789          28.000  
G 4  23033953.720                3        101.948          20.000  
C 8  38075178.011                3        -42.813          12.000  
C13  38557270.666   200777796.881        -194.498          38.000  
C28  24173803.583   125879320.375        1721.299          34.000  
C14  24451481.954                3      -2789.063          13.000  
> 2019  4 28 12 49  7.0030000  0 12                     
G 2  23375390.232   122838496.246         470.045          34.000  
G 6  22513227.097                3       -800.839          20.000  
G12  23462592.746   123296752.042         656.483          34.000  
G 5  22315127.328   117266782.6772       1643.854          37.000  
G19  21614241.106   113583593.606       -1093.207          33.000  
G17  22412600.785   117779004.318       -1786.134          33.000  
G 4  23033938.246                3        101.948          20.000  
C 8  38075190.744                3        -58.826          14.000  
C13  38557307.418   200777992.353        -196.182          30.000  
C28  24173472.212                3       1723.314          24.000  
C14  24452018.830                3      -2784.869          16.000  
C 2  38011965.640                3       -351.844          29.000  
> 2019  4 28 12 49  8.0030000  0 12                     
G 2  23375300.666   122838026.660         469.267          37.000  
G12  23462467.933   123296096.891         653.857          39.000  
C 3  37126339.024                3       -353.195          39.000  
G 5  22314812.980   117265138.9622       1643.704          43.000  
C16  38967852.998                3       1197.357          36.000  
G17  22412939.213   117780789.034       -1783.289          38.000  
G 4  23033923.438                3        101.948          21.000  
C 8  38075204.322                3        -68.755          17.000  
C13  38557345.626   200778189.410        -197.271          40.000  
C28  24173147.147   125875889.4032       1717.316          37.000  
C14  24452554.619                3      -2789.232          18.000  
C 2  38012024.613   197938555.8572       -313.766          36.000  
> 2019  4 28 12 49  9.0030000  0 13                     
G 2  23375211.108   122837558.068         467.831          37.000  
G 6  22513523.746                3       -800.839          21.000  
G12  23462343.164   123295443.594         652.575          39.000  
C 3  37126409.025                3       -353.369          38.000  
G 5  22314499.550   117263495.1132       1643.557          42.000  
G19  21614657.848   113585793.5953      -1089.429          39.000  
G17  22413278.076   117782571.004       -1781.172          38.000  
C 4  39246074.654                3       -326.117          30.000  
G 4  23033910.367                3        101.948          22.000  
C 8  38075217.595                3        -55.943          18.000  
C13  38557383.344   200778387.100        -198.168          41.000  
C28  24172819.360   125874172.5962       1716.269          36.000  
C 2  38012083.453   197938869.6032       -313.387          37.000  
> 2019  4 28 12 49 10.0030000  0 11                     
G 2  23375121.943   122837090.935         466.833          38.000  
G12  23462219.339   123294792.638         650.392          40.000  
C 3  37126478.080   193327277.5712       -354.983          39.000  
C16  38967395.905   202913424.8062       1200.829          38.000  
G 5  22314184.639   117261852.2162       1642.114          43.000  
G17  22413617.005   117784352.177       -1781.982          38.000  
G 4  23033898.427                3        101.948          22.000  
C 8  38075233.281                3        -68.805          20.000  
C13  38557421.582   200778586.070        -199.154          41.000  
C28  24172489.943   125872457.2792       1714.555          38.000  
C 2  38012146.422   197939183.8062       -314.528          38.000  
> 2019  4 28 12 49 11.0030000  0 12                     
G 2  23375032.982   122836624.478         465.915          38.000  
G12  23462095.914   123294143.017         648.709          40.000  
C 3  37126543.171   193327632.7892       -355.799          39.000  
C16  38967167.527                3       1197.754          38.000  
G 5  22313872.298   117260210.4672       1640.751          43.000  
G19  21615068.223                3      -1092.682          38.000  
G17  22413956.366   117786134.481       -1783.376          39.000  
G 4  23033883.651                3        101.948          24.000  
C 8  38075249.154                3        -75.224          21.000  
C13  38557459.986   200778785.631        -200.035          41.000  
C28  24172158.579   125870742.7242       1714.227          37.000  
C 2  38012206.250   197939498.6952       -315.525          38.000  
> 2019  4 28 12 49 12.0030000  0 12                     
G 2  23374944.501   122836159.088         465.074          39.000  
G12  23461972.831   123293495.088         647.582          40.000  
C 3  37126612.473   193327989.0822       -356.708          39.000  
C16  38966933.341   202911015.4492       1199.026          38.000  
G 5  22313560.024   117258570.2792       1639.546          43.000  
G17  22414295.803   117787918.340       -1784.399          39.000  
C 4  39246280.813                3       -362.793          30.000  
G 4  23033868.908                3        101.948          25.000  
C 8  38075264.370                3        -69.383          22.000  
C13  38557498.468   200778986.174        -200.708          41.000  
C28  24171829.258   125869029.3102       1713.192          37.000  
C 2  38012266.927   197939814.6442       -316.147          38.000  
> 2019  4 28 12 49 13.0030000  0 13                     
G 2  23374856.120   122835693.520         465.094          39.000  
G12  23461849.805   123292847.629         646.996          40.000  
C 3  37126682.117   193328345.2302       -355.872          39.000  
C16  38966702.416   202909816.0412       1199.112          39.000  
G 5  22313247.944   117256930.375        1639.731          43.000  
G19  21615484.567                3      -1094.238          39.000  
G17  22414635.699   117789702.519       -1784.585          39.000  
C 4  39246344.544                2       -347.551          31.000  
G 4  23033851.798                2         93.821          26.000  
C 8  38075281.192                3        -64.871          21.000  
C13  38557537.087   200779186.485        -200.508          42.000  
C28  24171501.781   125867315.7982       1713.118          38.000  
C 2  38012328.204   197940130.4462       -315.647          38.000  
> 2019  4 28 12 49 14.0030000  0 13                     
G 2  23374767.922   122835228.147         465.516          39.000  
G12  23461726.835   123292201.061         646.178          40.000  
C 3  37126750.602   193328701.6822       -356.928          39.000  
C16  38966469.909   202908616.9392       1198.906          39.000  
G 5  22312935.838   117255291.248        1638.676          43.000  
G19  21615698.339   113591260.7832      -1094.580          39.000  
G17  22414975.230   117791487.481       -1785.540          39.000  
C 4  39246410.174   204366330.4712       -347.727          31.000  
G 4  23033838.095   121043615.1202         92.389          27.000  
C 8  38075294.511                3        -66.883          21.000  
C13  38557575.853   200779386.947        -200.773          42.000  
C28  24171172.424   125865602.6022       1713.357          38.000  
C 2  38012389.124   197940446.5642       -316.110          38.000  
> 2019  4 28 12 49 15.0030000  0 13                     
G 2  23374679.925   122834762.947         465.185          39.000  
G12  23461603.988   123291555.259         645.460          40.000  
C 3  37126818.237   193329058.2592       -356.255          39.000  
C16  38966238.892   202907418.0792       1198.831          38.000  
G 5  22312623.687   117253652.735        1638.512          43.000  
G19  21615906.258   113592355.5512      -1094.849          39.000  
G17  22415315.363   117793273.049       -1785.782          39.000  
C 4  39246475.167                3       -341.064          31.000  
G 4  23033824.497   121043522.9152         91.595          27.000  
C 8  38075305.736                3        -61.103          20.000  
C13  38557614.505   200779587.466        -200.607          41.000  
C28  24170843.498   125863889.1181       1713.050          37.000  
C 2  38012449.788   197940762.3601       -316.295          38.000  
> 2019  4 28 12 49 16.0030000  0 14                     
G 2  23374591.402   122834297.551         465.788          39.000  
G12  23461481.156   123290909.964         645.021          39.000  
C 3  37126886.801   193329414.2511       -356.388          39.000  
C16  38966007.042   202906219.1592       1198.939          38.000  
G 5  22312312.185   117252014.549        1638.436          41.000  
G19  21616116.233   113593450.6892      -1095.209          39.000  
G17  22415655.289   117795058.999       -1785.972          38.000  
C 4  39246542.167   204367012.8402       -347.048          32.000  
G 4  23033806.765   121043430.9982         91.947          27.000  
C 8  38075318.106                3        -63.265          21.000  
C13  38557652.926   200779787.751        -200.421          41.000  
G 9  23487585.517                3       -982.258          26.000  
C28  24170514.635   125862176.084        1713.527          38.000  
C 2  38012510.478   197941078.485        -315.545          38.000  
> 2019  4 28 12 49 17.0030000  0 13                     
G 2  23374502.912   122833831.711         466.139          40.000  
G12  23461358.549   123290264.839         644.715          39.000  
C 3  37126955.631   193329770.291        -355.213          39.000  
C16  38965777.733   202905019.8932       1199.291          38.000  
G 5  22312000.254   117250376.448        1638.257          42.000  
G19  21616321.715   113594545.9192      -1095.074          39.000  
G17  22415995.016   117796844.974       -1785.657          39.000  
C 4  39246607.446   204367359.5572       -346.188          32.000  
G 4  23033786.992   121043339.3322         92.007          25.000  
C 8  38075332.594                3        -68.649          21.000  
C13  38557691.452   200779987.540        -199.318          41.000  
C28  24170185.786   125860462.713        1713.167          37.000  
C 2  38012571.139   197941394.233        -315.068          38.000  
> 2019  4 28 12 49 18.0030000  0 13                     
G 2  23374414.505   122833365.195         467.025          39.000  
G12  23461236.035   123289619.678         645.627          40.000  
C 3  37127023.774   193330125.779        -355.163          39.000  
C16  38965546.306   202903820.0542       1200.101          38.000  
G 5  22311688.248   117248738.162        1638.691          42.000  
G19  21616531.074   113595640.9992      -1094.720          39.000  
G17  22416334.905   117798630.822       -1785.255          39.000  
C 4  39246673.772   204367705.7272       -346.132          32.000  
G 4  23033767.110                2         91.973          24.000  
C 8  38075345.656                3        -58.285          21.000  
C13  38557729.786   200780186.586        -198.450          41.000  
C28  24169856.559   125858748.730        1714.192          37.000  
C 2  38012631.580   197941709.338        -314.542          37.000  
> 2019  4 28 12 49 19.0030000  0 12                     
G 2  23374325.777   122832898.272         466.793          39.000  
G12  23461113.779   123288974.786         644.645          40.000  
C 3  37127091.863   193330480.863        -354.918          39.000  
C16  38965316.456   202902619.9212       1199.819          38.000  
G 5  22311376.336   117247099.977        1637.501          42.000  
G19  21616740.111   113596736.2122      -1095.850          39.000  
G17  22416674.820   117800416.761       -1786.071          39.000  
C 4  39246740.162   204368051.4622       -346.200          32.000  
C 8  38075359.561                3        -66.771          21.000  
C13  38557767.729   200780385.156        -198.762          41.000  
C28  24169527.224   125857034.439        1713.929          37.000  
C 2  38012692.010   197942024.121        -315.094          37.000  
> 2019  4 28 12 49 20.0030000  0 12                     
G 2  23374237.004   122832431.802         466.490          37.000  
G12  23460991.182   123288331.005         643.300          38.000  
C 3  37127160.392   193330836.455        -355.508          38.000  
C16  38965086.183   202901420.3112       1199.546          37.000  
G 5  22311064.822   117245462.718        1636.981          41.000  
G19  21616947.801   113597832.4162      -1096.588          37.000  
G17  22417015.143   117802203.686       -1787.411          38.000  
C 4  39246806.612   204368397.6792       -346.626          31.000  
C 8  38075372.564                3        -63.610          21.000  
C13  38557805.973   200780584.134        -199.057          41.000  
C28  24169198.121   125855320.681        1713.885          36.000  
C 2  38012752.390   197942339.366        -315.163          36.000  
> 2019  4 28 12 49 21.0030000  0 13                     
G 2  23374148.077   122831965.121         467.300          38.000  
G12  23460868.706   123287687.667         643.117          38.000  
C 3  37127228.513   193331191.879        -354.775          38.000  
C16  38964856.074   202900220.6462       1199.699          37.000  
G 5  22310753.529   117243825.796        1637.124          42.000  
G19  21617156.484   113598928.9422      -1096.442          38.000  
G17  22417355.365   117803990.916       -1787.234          39.000  
C 4  39246872.910   204368743.7952       -346.082          31.000  
C 8  38075384.803                3        -57.217          20.000  
C13  38557844.006   200780782.825        -198.017          41.000  
C28  24168868.918   125853606.860        1713.840          36.000  
C14  24459564.767                3      -2797.812          20.000  
C 2  38012812.639   197942654.502        -315.110          36.000  
> 2019  4 28 12 49 22.0030000  0 12                     
G 2  23374058.957   122831497.933         466.907          37.000  
G12  23460746.334   123287044.467         642.511          38.000  
C 3  37127296.585   193331544.3573       -355.187          36.000  
C16  38964625.545   202899020.0471       1199.751          37.000  
G 5  22310442.211   117242188.869        1636.559          41.000  
G19  21617365.217   113600025.5212      -1097.253          38.000  
G17  22417695.540   117805778.115       -1787.253          39.000  
C 4  39246939.256                3       -334.229          30.000  
C 8  38075395.350                3        -52.966          20.000  
C13  38557882.098   200780980.972        -198.217          39.000  
C28  24168539.674   125851892.578        1713.967          35.000  
C 2  38012873.198   197942974.6293       -314.903          36.000  
> 2019  4 28 12 49 23.0030000  0 13                     
G 2  23373969.887   122831030.880         467.213          37.000  
G12  23460624.038   123286402.052         642.186          38.000  
C 3  37127364.904   193331899.5062       -355.164          36.000  
C16  38964395.327   202897820.231        1199.473          36.000  
G 5  22310130.949   117240552.606        1635.864          41.000  
G19  21617574.131   113601122.7512      -1097.375          38.000  
C11  24107231.504                3      -1296.019          16.000  
G17  22418035.926   117807566.027       -1788.179          39.000  
C 4  39247005.617   204369425.7002       -345.769          30.000  
C 8  38075403.488                3        -58.619          19.000  
C13  38557920.231   200781179.190        -198.350          39.000  
C28  24168210.391   125850178.517        1714.257          35.000  
C 2  38012933.473   197943288.4442       -314.664          35.000  
> 2019  4 28 12 49 24.0030000  0 12                     
G 2  23373880.727   122830563.878         467.126          37.000  
G12  23460501.839   123285760.344         641.672          38.000  
C 3  37127433.106   193332254.7712       -355.275          38.000  
C16  38964164.947   202896620.549        1199.409          37.000  
G 5  22309820.034   117238916.879        1635.589          41.000  
G19  21617783.093   113602220.5622      -1097.760          38.000  
G17  22418376.334   117809354.470       -1788.508          39.000  
C 4  39247072.429                3       -346.777          30.000  
C 8  38075416.946                3        -57.185          18.000  
C13  38557958.242   200781377.400        -198.047          41.000  
C28  24167881.363   125848464.670        1713.798          35.000  
C 2  38012994.108   197943604.3793       -314.357          37.000  
> 2019  4 28 12 49 25.0030000  0 13                     
G 2  23373790.869   122830096.143         467.768          35.000  
G12  23460379.842   123285118.562         641.562          36.000  
C 3  37127501.356   193332609.3342       -354.710          32.000  
C16  38963934.353   202895420.237        1200.275          33.000  
G 5  22309508.408   117237280.941        1635.715          40.000  
G19  21617992.017   113603318.1962      -1098.187          36.000  
G17  22418716.777   117811142.713       -1788.623          37.000  
C 4  39247139.058                3       -339.795          28.000  
C 8  38075428.485                3        -62.160          18.000  
C13  38557995.886   200781574.811        -196.971          37.000  
G 9  23489264.069                3       -985.790          25.000  
C28  24167552.225   125846750.129        1714.722          31.000  
C 2  38013054.475   197943918.6323       -314.427          33.000  
> 2019  4 28 12 49 26.0030000  0 14                     
G 2  23373701.563   122829628.768         467.401          35.000  
G12  23460257.815   123284477.807         640.232          38.000  
C 3  37127569.633   193332964.3022       -355.285          34.000  
C16  38963703.934   202894220.433        1198.748          33.000  
G 5  22309197.415   117235645.859        1634.831          41.000  
G19  21618200.853   113604416.7372      -1099.268          36.000  
C11  24107980.013                3      -1293.943          15.000  
G17  22419057.337   117812931.815       -1789.026          39.000  
C 4  39247205.136                3       -347.314          28.000  
C 8  38075440.255                3        -67.408          18.000  
C13  38558033.982   200781772.543        -197.909          37.000  
G 9  23489463.771                3       -986.470          25.000  
C28  24167223.136   125845036.125        1713.004          32.000  
C 2  38013114.962   197944233.2492       -314.438          33.000  
> 2019  4 28 12 49 27.0030000  0 13                     
G 2  23373612.120   122829161.257         468.265          35.000  
G12  23460135.820   123283837.611         639.744          37.000  
C 3  37127637.721   193333321.2143       -354.526          34.000  
C16  38963473.739   202893020.523        1200.515          33.000  
G 5  22308886.561   117234011.204        1634.490          40.000  
G19  21618410.031   113605515.6892      -1099.115          36.000  
G17  22419397.854   117814721.366       -1789.218          38.000  
C 4  39247270.978                3       -346.143          27.000  
C 8  38075453.649                3        -63.100          17.000  
C13  38558072.002   200781970.112        -197.448          36.000  
G 9  23489658.197                3       -986.001          25.000  
C28  24166893.717   125843321.992        1714.432          32.000  
C 2  38013175.198   197944546.8663       -314.176          32.000  
> 2019  4 28 12 49 28.0030000  0 13                     
G 2  23373522.982   122828693.769         468.056          35.000  
G12  23460014.321   123283198.018         639.366          38.000  
C 3  37127705.923   193333676.1712       -354.775          38.000  
C16  38963243.547   202891820.786        1200.305          37.000  
G 5  22308575.917   117232377.010        1634.226          41.000  
G19  21618619.172   113606615.1722      -1099.725          37.000  
G17  22419738.677   117816511.405       -1789.917          38.000  
C 4  39247337.561   204371154.6632       -346.206          31.000  
C 8  38075466.322                3        -60.865          19.000  
C13  38558109.930   200782167.618        -197.340          41.000  
G 9  23489850.317                3       -986.845          25.000  
C28  24166564.432   125841608.021        1713.791          36.000  
C 2  38013235.427   197944860.5112       -314.371          37.000  
> 2019  4 28 12 49 29.0030000  0 14                     
G 2  23373433.432   122828225.430         468.979          36.000  
G12  23459892.331   123282558.237         640.132          39.000  
C 3  37127773.826   193334030.3052       -353.155          38.000  
C16  38963013.132   202890620.306        1201.191          37.000  
G 5  22308265.209   117230742.500        1634.901          43.000  
G19  21618828.214   113607714.3472      -1098.926          39.000  
C11  24108732.443                3      -1301.146          21.000  
G17  22420079.298   117818301.114       -1789.404          39.000  
C 4  39247403.837   204371499.4482       -344.003          31.000  
C 8  38075478.256                3        -64.198          20.000  
C13  38558147.605   200782364.206        -196.099          41.000  
G 9  23490043.620                3       -985.098          25.000  
C28  24166234.983   125839893.281        1715.046          36.000  
C 2  38013295.524   197945174.3342       -313.241          37.000  
> 2019  4 28 12 49 30.0030000  0 14                     
G 2  23373343.858   122827757.013         467.667          36.000  
G 6  22516708.141                3       -806.090          25.000  
G12  23459770.919   123281919.040         638.198          40.000  
C 3  37127841.732   193334384.4402       -354.649          38.000  
C16  38962782.558   202889419.834        1199.912          37.000  
G 5  22307954.508   117229108.400        1633.179          43.000  
G19  21619037.142   113608813.9522      -1100.354          38.000  
G17  22420419.901   117820091.236       -1791.086          39.000  
C 4  39247469.989   204371843.7143       -345.469          31.000  
C 8  38075489.620                3        -64.176          21.000  
C13  38558185.444   200782560.634        -196.998          41.000  
G 9  23490237.394                3       -988.422          25.000  
C28  24165905.398   125838178.534        1714.081          36.000  
C 2  38013356.061   197945488.1322       -314.506          37.000  
> 2019  4 28 12 49 31.0030000  0 14                     
G 2  23373254.724   122827289.794         467.150          37.000  
G 6  22516868.630                3       -806.090          26.000  
G12  23459649.948   123281281.735         636.969          39.000  
C 3  37127910.080   193334739.8412       -355.847          39.000  
C16  38962552.390   202888220.706        1198.884          38.000  
G 5  22307644.182   117227476.052        1631.892          43.000  
G19  21619246.871   113609915.3552      -1102.063          38.000  
G17  22420760.745   117821883.126       -1792.114          39.000  
C 4  39247536.457   204372189.7362       -345.689          32.000  
C 8  38075500.862                3        -61.820          21.000  
C13  38558223.526   200782758.267        -197.881          42.000  
G 9  23490433.949                3       -989.315          24.000  
C28  24165576.104   125836465.125        1712.941          37.000  
C 2  38013416.715   197945803.1962       -315.309          38.000  
> 2019  4 28 12 49 32.0030000  0 14                     
G 2  23373165.632   122826822.918         466.523          37.000  
G 6  22517025.497                3       -806.090          27.000  
G12  23459528.994   123280645.349         636.550          40.000  
C 3  37127978.304   193335095.5442       -355.292          38.000  
C16  38962322.138   202887021.952        1199.266          37.000  
G 5  22307333.649   117225844.483        1631.533          43.000  
G19  21619456.383   113611017.5652      -1102.271          38.000  
G17  22421101.500   117823675.827       -1792.637          39.000  
C 4  39247602.955   204372536.1383       -345.861          32.000  
C 8  38075512.087                3        -64.679          20.000  
C13  38558261.616   200782956.103        -197.451          42.000  
G 9  23490630.438                3       -990.626          23.000  
C28  24165246.783   125834752.104        1713.319          37.000  
C 2  38013477.095   197946118.5822       -315.452          38.000  
> 2019  4 28 12 49 33.0030000  0 14                     
G 2  23373076.846   122826355.237         467.719          37.000  
G 6  22517182.760                2       -808.758          27.000  
G12  23459407.592   123280008.885         636.474          39.000  
C 3  37128046.800   193335450.0271       -354.899          38.000  
C16  38962091.974   202885822.574        1199.102          37.000  
G 5  22307023.356   117224212.662        1631.412          43.000  
G19  21619666.021   113612119.5402      -1102.228          38.000  
G17  22421442.270   117825468.281       -1792.894          38.000  
C 4  39247669.373   204372881.9493       -348.656          32.000  
C 8  38075521.964                3        -64.129          20.000  
C13  38558299.511   200783153.142        -197.104          41.000  
G 9  23490835.862                3       -991.107          22.000  
C28  24164917.271   125833038.426        1713.675          36.000  
C 2  38013537.392   197946433.2492       -314.450          37.000  
> 2019  4 28 12 49 34.0030000  0 13                     
G 2  23372988.142   122825887.815         467.532          36.000  
G 6  22517338.587   118329402.0312       -807.959          26.000  
G12  23459286.588   123279373.309         634.703          39.000  
C 3  37128114.956   193335805.8333       -355.673          36.000  
C16  38961861.889   202884623.516        1198.644          35.000  
G 5  22306713.215   117222581.587        1630.690          43.000  
G19  21619875.860   113613222.3012      -1102.643          37.000  
G17  22421783.003   117827261.504       -1794.113          36.000  
C 8  38075532.358                3        -64.464          18.000  
C13  38558337.317   200783350.351        -197.163          39.000  
G 9  23491035.120                3       -993.405          23.000  
C28  24164588.024   125831325.054        1713.134          34.000  
C 2  38013597.881   197946748.2113       -314.764          35.000  
> 2019  4 28 12 49 35.0030000  0 15                     
G 2  23372899.414   122825420.463         467.738          38.000  
G 6  22517496.273   118330210.3402       -808.222          27.000  
G12  23459166.101   123278738.440         635.007          40.000  
C 3  37128183.372   193336161.2232       -354.923          38.000  
C16  38961631.766   202883424.629        1199.181          37.000  
G 5  22306403.306   117220951.101        1630.535          44.000  
G19  21620086.011   113614325.7092      -1103.632          39.000  
G17  22422123.592   117829055.301       -1793.931          37.000  
C 4  39247814.151                3       -353.328          30.000  
G 4  23033513.501                3         79.095          18.000  
C 8  38075543.703                3        -58.308          19.000  
C13  38558375.400   200783547.562        -196.616          41.000  
G 9  23491233.219                3       -990.822          25.000  
C28  24164258.525   125829611.855        1713.928          36.000  
C 2  38013658.492   197947063.3082       -314.817          37.000  
> 2019  4 28 12 49 36.0030000  0 15                     
G 2  23372810.913   122824952.333         468.345          38.000  
G 6  22517649.595   118331017.9052       -807.267          27.000  
G12  23459045.140   123278103.424         634.890          40.000  
C 3  37128251.493   193336515.9042       -354.836          36.000  
C16  38961401.589   202882225.077        1199.457          34.000  
G 5  22306093.215   117219320.323        1630.668          43.000  
G19  21620295.673   113615428.8372      -1103.650          38.000  
G17  22422464.567   117830848.828       -1793.754          37.000  
C 4  39247873.813                2       -347.238          30.000  
G 4  23033497.580                3         79.095          20.000  
C 8  38075556.092                3        -61.914          18.000  
C13  38558413.099   200783743.950        -196.458          39.000  
G 9  23491423.404                3       -991.692          26.000  
C28  24163929.072   125827897.980        1713.914          35.000  
C 2  38013719.056   197947377.6632       -314.320          34.000  
> 2019  4 28 12 49 37.0030000  0 15                     
G 2  23372721.633   122824484.212         468.472          38.000  
G 6  22517801.257   118331825.5402       -807.998          27.000  
G12  23458924.492   123277469.104         633.666          40.000  
C 3  37128319.516   193336871.6163       -354.542          36.000  
C16  38961171.048   202881025.592        1200.144          35.000  
G 5  22305783.081   117217690.044        1630.752          43.000  
G19  21620505.623   113616531.9641      -1103.607          38.000  
G17  22422805.452   117832642.884       -1794.055          37.000  
C 4  39247940.549                3       -340.039          30.000  
G 4  23033480.429                3         79.095          23.000  
C 8  38075567.289                3        -56.351          17.000  
C13  38558450.796   200783940.255        -196.090          39.000  
G 9  23491608.462                2       -992.944          27.000  
C28  24163599.555   125826184.180        1714.423          34.000  
C 2  38013779.706   197947695.0733       -314.166          35.000  
> 2019  4 28 12 49 38.0030000  0 15                     
G 2  23372632.783   122824015.857         467.882          37.000  
G 6  22517952.945   118332633.0642       -808.660          25.000  
G12  23458803.632   123276835.169         633.260          39.000  
C 3  37128387.587   193337226.1622       -355.382          36.000  
C16  38960940.668   202879826.041        1199.224          35.000  
G 5  22305473.362   117216060.115        1628.917          42.000  
G19  21620715.767   113617635.945       -1104.602          37.000  
G17  22423146.517   117834437.208       -1794.771          37.000  
C 4  39248003.403                2       -345.503          30.000  
G 4  23033458.893                3         79.095          24.000  
C 8  38075578.736                3        -60.003          17.000  
C13  38558488.480   200784136.269        -196.331          39.000  
G 9  23491792.189   123450227.5582       -993.429          27.000  
C28  24163270.108   125824470.266        1713.516          33.000  
C 2  38013840.160   197948009.2782       -314.671          35.000  
> 2019  4 28 12 49 39.0030000  0 15                     
G 2  23372543.659   122823547.506         468.408          37.000  
G 6  22518106.069                3       -806.040          24.000  
G12  23458683.184   123276201.921         632.542          39.000  
C 3  37128455.667   193337580.7482       -354.800          38.000  
C16  38960710.264   202878626.593        1199.138          36.000  
G 5  22305163.472   117214430.642        1629.371          43.000  
G19  21620926.045   113618740.447       -1104.883          37.000  
G17  22423487.878   117836232.062       -1795.038          37.000  
C 4  39248068.147   204374966.4342       -345.758          31.000  
G 4  23033438.930                3         80.694          25.000  
C 8  38075589.505                3        -61.909          17.000  
C13  38558526.098   200784332.230        -195.793          41.000  
G 9  23491975.100   123451220.9682       -993.128          28.000  
C28  24162940.650   125822756.490        1713.593          34.000  
C 2  38013900.869   197948325.5493       -314.565          37.000  
> 2019  4 28 12 49 40.0030000  0 15                     
G 2  23372454.732   122823079.139         468.492          37.000  
G 6  22518257.642                3       -795.146          22.000  
G12  23458562.443   123275569.275         632.128          39.000  
C 3  37128523.760   193337935.3452       -354.807          38.000  
C16  38960480.024   202877427.221        1198.813          36.000  
G 5  22304853.441   117212801.705        1628.524          43.000  
G19  21621136.115   113619845.471       -1105.420          37.000  
G17  22423829.154   117838027.427       -1795.525          37.000  
C 4  39248134.611   204375305.1113       -344.775          31.000  
G 4  23033419.822                3         78.178          26.000  
C 8  38075599.720                3        -60.986          17.000  
C13  38558563.548   200784528.108        -195.651          41.000  
G 9  23492156.676   123452215.0602       -994.471          28.000  
C28  24162611.105   125821042.731        1713.842          35.000  
C 2  38013961.282   197948639.8182       -314.156          37.000  
> 2019  4 28 12 49 41.0030000  0 15                     
G 2  23372365.505   122822610.437         468.675          37.000  
G 6  22518405.962                3       -799.817          20.000  
G12  23458442.037   123274936.954         632.262          39.000  
C 3  37128592.056   193338289.6572       -354.237          38.000  
C16  38960249.681   202876227.602        1199.508          36.000  
G 5  22304543.442   117211172.917        1628.584          43.000  
G19  21621346.106   113620950.709       -1105.750          37.000  
G17  22424170.674   117839822.950       -1795.748          37.000  
C 4  39248201.077   204375650.1322       -345.300          31.000  
G 4  23033397.298                3         80.502          26.000  
C 8  38075610.768                3        -62.273          18.000  
C13  38558600.907   200784723.633        -195.262          40.000  
G 9  23492336.954   123453209.4092       -995.110          27.000  
C28  24162281.638   125819328.723        1714.683          35.000  
C 2  38014021.490   197948953.8182       -313.628          37.000  
> 2019  4 28 12 49 42.0030000  0 14                     
G 2  23372276.723   122822141.689         468.812          39.000  
G12  23458321.814   123274305.284         631.030          41.000  
C 3  37128660.075   193338643.9812       -353.876          38.000  
C16  38960019.443   202875028.034        1199.736          37.000  
G 5  22304233.432   117209544.595        1628.208          44.000  
G19  21621556.305   113622056.420       -1105.884          39.000  
G17  22424512.528   117841618.957       -1795.885          39.000  
C 4  39248266.273   204375995.1302       -344.837          31.000  
G 4  23033377.817                3         79.962          25.000  
C 8  38075621.380                3        -58.999          18.000  
C13  38558638.475   200784919.043        -195.506          41.000  
G 9  23492518.342   123454204.2782       -995.183          27.000  
C28  24161952.064   125817614.818        1714.232          35.000  
C 2  38014081.676   197949267.8572       -313.972          37.000  
> 2019  4 28 12 49 43.0030000  0 15                     
G 2  23372187.574   122821672.751         468.578          36.000  
G 6  22518704.902                3       -809.195          17.000  
G12  23458201.837   123273674.024         630.651          38.000  
C 3  37128728.109   193338998.1922       -354.770          35.000  
C16  38959789.050   202873828.474        1198.691          33.000  
G 5  22303923.748   117207916.586        1627.544          42.000  
G19  21621766.945   113623162.474       -1106.348          36.000  
G17  22424854.431   117843415.295       -1796.982          36.000  
C 4  39248334.067                3       -350.195          28.000  
G 4  23033359.246                3         76.805          25.000  
C 8  38075630.515                3        -58.999          18.000  
C13  38558675.950   200785114.184        -195.428          37.000  
G 9  23492706.582                2       -995.740          26.000  
C28  24161622.702   125815900.835        1713.281          30.000  
C 2  38014142.202   197949582.7033       -314.086          33.000  
> 2019  4 28 12 49 44.0030000  0 15                     
G 2  23372098.475   122821204.448         468.256          36.000  
G 6  22518857.072                3       -809.195          14.000  
G12  23458081.941   123273044.081         629.175          39.000  
C 3  37128796.293   193339354.0503       -354.896          35.000  
C16  38959558.685   202872629.552        1198.501          34.000  
G 5  22303614.285   117206289.722        1626.479          42.000  
G19  21621977.252   113624269.720       -1107.666          36.000  
G17  22425196.540   117845212.787       -1798.031          37.000  
C 4  39248400.354                3       -346.191          29.000  
G 4  23033343.824                3         76.368          23.000  
C 8  38075643.483                3        -63.090          17.000  
C13  38558713.529   200785309.886        -195.468          38.000  
G 9  23492894.192                3       -997.648          24.000  
C28  24161293.303   125814187.512        1713.866          31.000  
C 2  38014202.741   197949897.2872       -314.958          34.000  
> 2019  4 28 12 49 45.0030000  0 12                     
G 2  23372009.390   122820735.927         469.030          38.000  
G12  23457962.285   123272414.573         629.896          41.000  
C 3  37128864.476   193339708.7482       -354.411          35.000  
C16  38959328.172   202871430.535        1200.101          34.000  
G 5  22303304.623   117204663.155        1626.985          44.000  
G19  21622187.938   113625377.253       -1107.050          38.000  
G17  22425538.846   117847010.582       -1797.588          39.000  
C 4  39248466.241                3       -331.787          29.000  
C 8  38075653.916                3        -63.090          16.000  
C13  38558751.016   200785505.360        -194.824          38.000  
C28  24160964.114   125812474.141        1713.784          32.000  
C 2  38014263.291   197950211.6442       -313.482          35.000  
> 2019  4 28 12 49 46.0030000  0 12                     
G 2  23371919.890   122820266.442         468.929          35.000  
G12  23457842.391   123271784.765         628.838          39.000  
C 3  37128932.390   193340062.5273       -353.826          35.000  
C16  38959097.809   202870230.706        1199.891          33.000  
G 5  22302995.134   117203036.126        1626.528          42.000  
G19  21622398.392   113626484.421       -1107.953          37.000  
G17  22425880.968   117848807.902       -1797.425          38.000  
C 4  39248531.579                3       -343.701          29.000  
C 8  38075663.455                3        -50.219          12.000  
C13  38558788.069   200785699.786        -194.408          37.000  
C28  24160634.577   125810759.844        1713.653          31.000  
C 2  38014323.311   197950525.1283       -313.027          34.000  
> 2019  4 28 12 49 47.0030000  0 11                     
G 2  23371830.350   122819797.136         469.188          35.000  
G12  23457722.687   123271155.755         629.239          39.000  
C 3  37129000.513   193340416.5472       -353.628          35.000  
C16  38958867.096   202869031.141        1199.617          33.000  
G 5  22302685.690   117201409.785        1626.073          42.000  
G19  21622608.952   113627592.249       -1108.417          36.000  
G17  22426223.607   117850605.937       -1798.267          37.000  
C 4  39248597.271                3       -350.000          28.000  
C13  38558825.321   200785894.309        -194.149          37.000  
C28  24160305.357   125809045.861        1713.771          31.000  
C 2  38014383.538   197950838.8392       -313.356          34.000  
> 2019  4 28 12 49 48.0030000  0 11                     
G 2  23371740.966   122819327.684         470.015          35.000  
G12  23457603.148   123270527.301         628.221          39.000  
C 3  37129068.360   193340770.4592       -353.074          35.000  
C16  38958636.809   202867831.524        1200.834          33.000  
G 5  22302376.280   117199783.812        1626.042          42.000  
G19  21622819.716   113628700.477       -1107.947          36.000  
G17  22426566.271   117852404.361       -1798.215          37.000  
C 4  39248664.371                3       -343.018          28.000  
C13  38558862.678   200786088.675        -194.615          37.000  
C28  24159976.128   125807331.803        1714.905          31.000  
C 2  38014443.643   197951152.4823       -313.824          34.000  
> 2019  4 28 12 49 49.0030000  0 12                     
G 2  23371651.431   122818857.448         470.341          35.000  
G 6  22519625.553                3       -802.721          21.000  
G12  23457483.560   123269898.733         627.638          39.000  
C 3  37129136.189   193341123.6813       -353.240          35.000  
C16  38958406.384   202866631.301        1200.216          33.000  
G 5  22302066.855   117198157.576        1625.903          41.000  
G19  21623030.803   113629808.479       -1108.466          36.000  
G17  22426908.598   117854202.548       -1798.574          37.000  
C 4  39248730.802                3       -359.180          28.000  
C13  38558899.831   200786282.209        -193.752          37.000  
C28  24159646.688   125805617.088        1715.041          31.000  
C 2  38014503.458   197951463.3783       -313.382          34.000  
> 2019  4 28 12 49 50.0030000  0 12                     
G 2  23371561.733   122818387.239         470.262          37.000  
G12  23457363.788   123269270.765         627.668          40.000  
C 3  37129204.140   193341476.8982       -352.962          35.000  
C16  38958175.768   202865431.157        1199.732          34.000  
G 5  22301757.451   117196531.835        1625.592          43.000  
G19  21623241.972   113630917.004       -1108.575          37.000  
G17  22427251.419   117856001.187       -1798.446          39.000  
C 4  39248796.953                3       -332.910          28.000  
C13  38558936.867   200786475.657        -193.182          37.000  
G 9  23494071.691                3       -992.886          23.000  
C28  24159317.123   125803902.514        1714.143          32.000  
C 2  38014563.496   197951776.3053       -312.816          34.000  
> 2019  4 28 12 49 51.0030000  0 13                     
G 2  23371472.023   122817916.909         470.544          34.000  
G 6  22519934.082                3       -806.031          23.000  
G12  23457244.420   123268643.394         627.146          39.000  
C 3  37129272.010   193341830.1072       -353.219          35.000  
C16  38957945.198   202864230.986        1200.519          33.000  
G 5  22301448.122   117194906.508        1625.166          41.000  
G19  21623452.546   113632025.950       -1108.765          37.000  
G17  22427593.781   117857800.294       -1799.353          37.000  
C 4  39248863.221                2       -344.536          29.000  
C13  38558973.707   200786668.941        -192.680          37.000  
G 9  23494262.993                3      -1001.194          25.000  
C28  24158987.582   125802187.860        1714.813          31.000  
C 2  38014623.671   197952089.1523       -312.639          34.000  
> 2019  4 28 12 49 52.0030000  0 14                     
G 2  23371382.573   122817445.520         471.432          37.000  
G 6  22520089.664                3       -821.924          24.000  
G12  23457125.034   123268015.593         627.769          40.000  
C 3  37129339.698   193342183.2983       -352.224          35.000  
C16  38957714.378   202863029.893        1201.250          33.000  
G 5  22301139.031   117193280.618        1626.101          43.000  
G19  21623663.661   113633134.429       -1108.429          37.000  
G17  22427936.185   117859598.831       -1798.483          39.000  
C 4  39248928.982                2       -343.302          29.000  
G 4  23033231.061                3         75.914          23.000  
C13  38559010.507   200786861.153        -191.990          37.000  
G 9  23494455.188                3       -996.778          26.000  
C28  24158657.860   125800472.317        1715.131          31.000  
C 2  38014683.499   197952401.0402       -311.554          34.000  
> 2019  4 28 12 49 53.0030000  0 14                     
G 2  23371292.506   122816973.540         471.838          36.000  
G 6  22520241.805                3       -800.939          24.000  
G12  23457005.723   123267387.854         627.311          40.000  
C 3  37129407.154   193342534.9152       -352.341          35.000  
C16  38957483.636   202861828.317        1200.941          33.000  
G 5  22300829.545   117191654.651        1625.747          42.000  
G19  21623874.577   113634242.796       -1108.557          37.000  
G17  22428278.811   117861397.303       -1798.885          39.000  
C 4  39248994.643                3       -337.500          29.000  
G 4  23033216.697                3         75.567          24.000  
C13  38559047.127   200787052.664        -191.757          37.000  
G 9  23494645.354                2       -998.182          26.000  
C28  24158328.018   125798756.256        1714.932          32.000  
C 2  38014743.418   197952713.3693       -311.333          34.000  
> 2019  4 28 12 49 54.0030000  0 14                     
G 2  23371202.509   122816502.369         470.305          36.000  
G 6  22520393.723                3       -798.489          23.000  
G12  23456887.050   123266761.583         625.215          40.000  
C 3  37129474.832   193342887.4042       -353.242          35.000  
C16  38957253.160   202860627.627        1199.656          33.000  
G 5  22300520.222   117190029.986        1623.712          42.000  
G19  21624085.773   113635352.533       -1110.803          37.000  
G17  22428621.562   117863197.110       -1800.848          38.000  
C 4  39249060.735                2       -345.887          28.000  
G 4  23033204.436                3         72.608          25.000  
C13  38559084.101   200787244.925        -192.948          37.000  
G 9  23494832.930   123466194.6102      -1001.005          26.000  
C28  24157999.228   125797041.038        1714.114          31.000  
C 2  38014803.358   197953025.5052       -312.646          34.000  
> 2019  4 28 12 49 55.0030000  0 14                     
G 2  23371113.064   122816032.455         469.710          36.000  
G 6  22520548.050                3       -813.701          22.000  
G12  23456768.367   123266137.209         624.288          40.000  
C 3  37129542.831   193343241.1293       -353.457          36.000  
C16  38957022.848   202859428.300        1199.125          34.000  
G 5  22300211.471   117188407.090        1622.866          41.000  
G19  21624297.174   113636464.034       -1111.798          37.000  
G17  22428964.616   117864998.667       -1801.819          38.000  
C 4  39249126.887   204380471.6502       -343.227          29.000  
G 4  23033190.766                3         71.296          24.000  
C13  38559121.196   200787438.396        -193.699          38.000  
G 9  23495026.148   123467196.3562      -1001.581          26.000  
C28  24157668.764   125795327.202        1713.951          32.000  
C 2  38014863.552   197953338.9733       -313.472          35.000  
> 2019  4 28 12 49 56.0030000  0 13                     
G 2  23371024.017   122815562.699         469.509          36.000  
G 6  22520700.249                3       -810.190          22.000  
G12  23456649.804   123265513.668         623.260          39.000  
C 3  37129610.617   193343595.1232       -354.225          35.000  
C16  38956792.516   202858229.249        1198.723          33.000  
G 5  22299902.526   117186784.882        1621.998          41.000  
G19  21624509.133   113637576.269       -1112.714          36.000  
G17  22429307.966   117866800.900       -1802.182          38.000  
C 4  39249193.390                3       -348.828          29.000  
G 4  23033178.736                3         73.524          24.000  
C13  38559158.112   200787631.948        -193.637          37.000  
C28  24157343.641   125793613.646        1712.972          32.000  
C 2  38014923.635   197953652.6542       -313.448          34.000  
> 2019  4 28 12 49 57.0030000  0 13                     
G 2  23370934.517   122815092.058         471.467          36.000  
G 6  22520855.196                3       -808.901          22.000  
G12  23456530.813   123264889.926         624.231          40.000  
C 3  37129678.491   193343948.3112       -352.433          34.000  
C16  38956562.118   202857029.391        1201.460          32.000  
G 5  22299593.675   117185162.305        1623.241          41.000  
G19  21624720.824   113638688.162       -1111.639          36.000  
G17  22429651.109   117868602.803       -1801.176          38.000  
C 4  39249258.520                2       -341.180          28.000  
G 4  23033167.254                3         76.031          23.000  
C13  38559195.207   200787824.596        -191.643          36.000  
C28  24157011.978   125791899.341        1714.530          31.000  
C 2  38014983.464   197953962.5023       -311.810          33.000  
