     3.02           OBSERVATION DATA    M: Mixed            RINEX VERSION / TYPE
RTKCONV demo5 b33c                      20200603 074801 UTC PGM / RUN BY / DATE 
log: C:\Users\Ivan_PolyU_Dktp\Dropbox\HUAWEI Exp\2020_06_0  COMMENT             
format: u-blox                                              COMMENT             
                                                            MARKER NAME         
                                                            MARKER NUMBER       
                                                            MARKER TYPE         
                                                            OBSERVER / AGENCY   
                                                            REC # / TYPE / VERS 
                                                            ANT # / TYPE        
 -2418078.8488  5386070.4273  2405174.1501                  APPROX POSITION XYZ 
        0.0000        0.0000        0.0000                  ANTENNA: DELTA H/E/N
G    8 C1C L1C D1C S1C C2L L2L D2L S2L                      SYS / # / OBS TYPES 
R    8 C1C L1C D1C S1C C2C L2C D2C S2C                      SYS / # / OBS TYPES 
E    8 C1C L1C D1C S1C C7Q L7Q D7Q S7Q                      SYS / # / OBS TYPES 
J    8 C1C L1C D1C S1C C2L L2L D2L S2L                      SYS / # / OBS TYPES 
C    8 C1I L1I D1I S1I C7I L7I D7I S7I                      SYS / # / OBS TYPES 
  2020     6     3     3     2   27.0040000     GPS         TIME OF FIRST OBS   
  2020     6     3     3    18   52.0050000     GPS         TIME OF LAST OBS    
G                                                           SYS / PHASE SHIFT   
R                                                           SYS / PHASE SHIFT   
E                                                           SYS / PHASE SHIFT   
J                                                           SYS / PHASE SHIFT   
C                                                           SYS / PHASE SHIFT   
  0                                                         GLONASS SLOT / FRQ #
 C1C    0.000 C1P    0.000 C2C    0.000 C2P    0.000        GLONASS COD/PHS/BIS 
                                                            END OF HEADER       
> 2020  6  3  3  2 27.0040000  0 21                     
E15  24130320.902 1 126805698.482 1      -662.797          47.000    24130327.622 1  97162828.83511      -507.693          46.000  
G11  21539962.233 1 113193261.194 1     -1998.035          45.000                                                                  
G22  25362870.829 2 133282794.365 5       780.965          31.000                                                                  
G 7  21793914.334 1 114527786.984 2       280.780          39.000    21793914.593 1  89242437.306 4       218.731          35.000  
E14  24515547.550 1 128830084.644 2      3918.616          42.000    24515553.231 1  98713974.13012      3002.430          41.000  
G 3  26201388.472 9               9       922.000          24.000                                                                  
C23  24699514.992 1 128616849.443 1     -3076.278          47.000                                                                  
C27  23099167.926 1 120283429.853 1      -347.988          49.000                                                                  
C 8  38008476.738 1 197920117.747 1       145.293          42.000    38008471.687 1 153044367.188 1       112.385          44.000  
C28  23798624.421 1 123925679.287 1     -2987.150          47.000                                                                  
C 7  37692457.704 1 196274514.949 1      -541.256          44.000    37692453.635 1 151771889.172 1      -418.436          43.000  
C13  39082267.127 1 203511606.859 3       339.673          37.000    39082272.417 1 157368118.17314       262.572          35.000  
R12  20901667.898 4 111652957.691 1       674.963          48.000    20901671.273 4  86841202.021 1       524.966          45.000  
R11  21727385.218 4 116104552.674 1     -2645.436          47.000    21727387.133 4  90303548.686 1     -2057.656          42.000  
J 7  37641950.747 1 197809804.109 2     -1046.443          41.000    37641953.999 1 154137516.558 1      -815.258          45.000  
G 8  23380337.249 1 122864514.455 3     -3352.615          35.000    23380344.892 2               6     -2612.768          31.000  
G 1  21666201.814 1 113856650.473 1       465.520          45.000    21666204.282 1  88719481.831 1       362.774          44.000  
E30  23940375.329 1 125807547.944 1      -890.535          45.000    23940382.022 1  96397996.768 1      -682.352          46.000  
J 2  38629195.901 1 202997807.186 1       116.263          44.000    38629198.420 1 158180096.235 1        90.628          44.000  
J 3  40388823.373 1 212244698.861 1     -1730.669          44.000    40388824.089 1 165385510.891 1     -1348.855          43.000  
G 9                                                                  25038039.140 4               7     -2523.956          30.000  
> 2020  6  3  3  2 28.0040000  0 21                     
E15  24130447.314 1 126806361.797 1      -664.136          47.000    24130453.883 1  97163337.098 1      -508.802          46.000  
G11  21540342.637 1 113195259.977 1     -1999.605          45.000                                                                  
G22  25362722.267 2               6       779.644          31.000                                                                  
G 7  21793861.024 1 114527506.943 3       278.991          39.000    21793861.208 1  89242219.072 4       217.827          35.000  
E14  24514801.769 1 128826166.538 2      3917.688          42.000    24514807.503 1  98710971.957 2      3001.731          41.000  
G 3  26201219.942 9               9       922.000          23.000                                                                  
C23  24700105.652 1 128619926.095 1     -3077.434          47.000                                                                  
C27  23099234.873 1 120283778.384 1      -349.142          49.000                                                                  
C 8  38008448.784 1 197919973.100 2       143.820          42.000    38008443.868 1 153044255.337 1       111.155          44.000  
C28  23799197.978 1 123928666.922 1     -2988.410          47.000                                                                  
C 7  37692561.529 1 196275056.472 1      -542.169          44.000    37692557.532 1 151772307.902 1      -419.110          43.000  
C13  39082201.981 1 203511267.604 3       338.574          37.000    39082207.343 1 157367855.840 4       262.028          36.000  
R12  20901541.606 4 111652283.297 1       673.713          49.000    20901545.012 4  86840677.502 1       523.740          45.000  
R11  21727880.449 4 116107198.712 1     -2646.866          47.000    21727882.155 4  90305606.697 2     -2058.702          42.000  
J 7  37642149.847 1 197810850.774 2     -1047.323          41.000    37642153.112 1 154138332.148 1      -816.139          45.000  
G 8  23380975.496 1 122867867.692 3     -3353.892          35.000    23380982.745 2               7     -2613.479          30.000  
G 1  21666113.552 1 113856185.648 1       463.997          46.000    21666115.888 1  88719119.630 1       361.490          44.000  
E30  23940544.819 1 125808438.976 1      -891.671          45.000    23940551.599 1  96398679.500 1      -683.169          46.000  
J 2  38629173.952 1 202997691.215 1       115.508          44.000    38629176.344 1 158180005.869 1        89.839          44.000  
J 3  40389152.710 1 212246429.949 1     -1731.646          44.000    40389153.431 1 165386859.784 1     -1349.436          43.000  
G 9                                                                  25038655.384 4               8     -2524.139          29.000  
> 2020  6  3  3  2 29.0040000  0 21                     
E15  24130573.306 1 126807026.287 1      -664.838          47.000    24130580.432 1  97163846.247 1      -509.466          46.000  
G11  21540723.264 1 113197260.016 1     -2000.577          45.000                                                                  
G22  25362573.781 2 133281234.082 5       779.462          32.000                                                                  
G 7  21793808.045 1 114527228.228 2       277.951          39.000    21793808.168 2  89242001.880 4       216.723          35.000  
E14  24514056.379 1 128822249.292 2      3916.677          42.000    24514062.078 1  98707970.420 2      3001.282          41.000  
G 3  26201043.262 9               9       922.000          23.000                                                                  
C23  24700696.742 1 128623003.827 1     -3078.120          47.000                                                                  
C27  23099301.967 1 120284128.053 1      -350.061          49.000                                                                  
C 8  38008421.093 1 197919829.289 2       143.493          42.000    38008416.257 1 153044144.121 1       110.904          44.000  
C28  23799771.806 1 123931655.481 1     -2989.031          47.000                                                                  
C 7  37692665.541 1 196275598.669 1      -542.283          44.000    37692661.616 1 151772727.168 1      -419.341          43.000  
C13  39082136.984 1 203510929.159 3       338.485          37.000    39082142.335 1 157367594.149 3       261.308          35.000  
R12  20901415.664 4 111651610.114 1       672.539          48.000    20901418.962 4  86840153.903 1       523.116          45.000  
R11  21728376.036 4 116109846.089 1     -2647.995          47.000    21728377.499 4  90307665.780 2     -2059.541          42.000  
J 7  37642349.175 1 197811898.155 2     -1047.560          41.000    37642352.367 1 154139148.285 1      -816.289          45.000  
G 8  23381613.820 1 122871221.652 3     -3354.617          35.000    23381620.480 4               6     -2613.477          30.000  
G 1  21666025.474 1 113855722.199 1       462.839          46.000    21666027.888 1  88718758.497 1       360.623          44.000  
E30  23940714.809 1 125809330.931 1      -892.270          45.000    23940721.308 1  96399362.946 1      -683.744          46.000  
J 2  38629152.051 1 202997576.005 1       114.999          44.000    38629154.341 1 158179916.088 1        89.594          44.000  
J 3  40389482.253 1 212248161.665 1     -1731.556          44.000    40389482.929 1 165388209.185 2     -1349.411          43.000  
G 9                                                                  25039271.919 4               7     -2525.433          30.000  
> 2020  6  3  3  2 30.0040000  0 21                     
E15  24130700.260 1 126807691.802 1      -666.081          47.000    24130707.003 1  97164356.190 1      -510.444          46.000  
G11  21541104.084 1 113199261.146 1     -2001.650          45.000                                                                  
G22  25362425.487 2 133280454.850 4       778.438          33.000                                                                  
G 7  21793755.286 1 114526950.639 2       277.241          39.000    21793755.341 2  89241785.589 4       215.804          35.000  
E14  24513311.128 1 128818332.680 2      3916.240          42.000    24513316.781 1  98704969.383 2      3000.941          41.000  
G 3  26200861.738 9               9       922.000          23.000                                                                  
C23  24701287.838 1 128626082.480 1     -3079.152          48.000                                                                  
C27  23099369.254 1 120284478.680 1      -351.062          49.000                                                                  
C 8  38008393.438 1 197919686.219 2       142.726          42.000    38008388.799 1 153044033.479 1       110.434          44.000  
C28  23800345.818 1 123934644.832 1     -2989.859          48.000                                                                  
C 7  37692769.668 1 196276141.391 1      -542.999          44.000    37692765.835 1 151773146.834 1      -419.869          43.000  
C13  39082072.055 1 203510591.376 3       337.572          37.000    39082077.409 1 157367332.942 3       260.868          35.000  
R12  20901289.802 4 111650938.000 1       671.495          48.000    20901293.249 4  86839631.150 1       522.424          45.000  
R11  21728871.753 4 116112494.698 1     -2649.233          47.000    21728873.166 4  90309725.783 1     -2060.611          42.000  
J 7  37642548.591 1 197812946.112 2     -1048.221          41.000    37642551.896 1 154139964.887 1      -816.929          45.000  
G 8  23382252.164 1 122874576.196 3     -3354.726          35.000    23382258.455 2               6     -2613.653          30.000  
G 1  21665937.675 1 113855259.961 1       461.545          46.000    21665940.020 1  88718398.309 1       359.604          44.000  
E30  23940884.798 1 125810223.661 1      -893.084          45.000    23940891.229 1  96400046.984 1      -684.469          46.000  
J 2  38629130.264 1 202997461.390 1       114.261          44.000    38629132.416 1 158179826.772 1        89.219          44.000  
J 3  40389811.997 1 212249893.930 1     -1732.609          44.000    40389812.562 1 165389558.991 1     -1350.072          43.000  
G 9                                                                  25039888.502 4               8     -2524.969          29.000  
> 2020  6  3  3  2 31.0040000  0 21                     
E15  24130827.098 1 126808358.276 1      -667.211          47.000    24130833.645 1  97164866.870 1      -511.153          46.000  
G11  21541485.160 1 113201263.332 1     -2002.593          45.000                                                                  
G22  25362277.234 2 133279676.118 4       778.431          33.000                                                                  
G 7  21793702.635 1 114526674.228 2       275.545          39.000    21793702.749 2  89241570.191 4       214.644          35.000  
E14  24512565.436 1 128814416.725 2      3915.556          42.000    24512571.706 1  98701968.852 2      3000.140          41.000  
G 3  26200690.516 9               9       922.000          23.000                                                                  
C23  24701879.176 1 128629162.008 1     -3080.141          48.000                                                                  
C27  23099436.687 1 120284830.266 1      -352.259          48.000                                                                  
C 8  38008365.824 1 197919543.841 2       141.901          41.000    38008361.547 1 153043923.396 1       109.551          44.000  
C28  23800919.947 1 123937634.924 1     -2990.694          48.000                                                                  
C 7  37692874.048 1 196276684.599 1      -543.544          44.000    37692870.188 1 151773566.868 1      -420.306          43.000  
C13  39082007.253 1 203510254.199 3       336.756          37.000    39082012.648 1 157367072.206 3       260.449          35.000  
R12  20901164.194 4 111650266.927 1       670.472          48.000    20901167.516 4  86839109.212 1       521.403          45.000  
R11  21729367.783 4 116115144.444 1     -2650.324          47.000    21729368.866 4  90311786.699 2     -2061.402          43.000  
J 7  37642747.924 1 197813994.604 2     -1049.060          41.000    37642751.357 1 154140781.896 1      -817.551          46.000  
G 8  23382890.722 1 122877931.355 3     -3355.936          34.000    23382896.569 4               7     -2614.463          30.000  
G 1  21665850.112 1 113854798.900 1       460.387          46.000    21665852.477 1  88718039.042 1       358.665          44.000  
E30  23941055.222 1 125811117.114 1      -893.971          46.000    23941061.231 1  96400731.574 1      -685.002          46.000  
J 2  38629108.636 1 202997347.344 1       113.672          44.000    38629110.601 1 158179737.906 1        88.558          44.000  
J 3  40390141.703 1 212251626.657 1     -1733.097          44.000    40390142.286 1 165390909.166 2     -1350.551          43.000  
G 9                                                                  25040505.330 2               8     -2525.482          29.000  
> 2020  6  3  3  2 32.0040000  0 21                     
E15  24130954.133 1 126809025.611 1      -667.613          47.000    24130960.608 1  97165378.200 1      -511.481          46.000  
G11  21541866.268 1 113203266.473 1     -2003.489          45.000                                                                  
G22  25362129.102 2 133278897.840 5       777.818          33.000                                                                  
G 7  21793650.318 1 114526398.790 2       274.811          40.000    21793650.299 1  89241355.579 4       213.910          35.000  
E14  24511820.208 1 128810501.266 2      3915.476          42.000    24511826.700 1  98698968.698 2      3000.074          41.000  
G 3  26200514.919 9               9       922.000          24.000                                                                  
C23  24702470.648 1 128632242.300 1     -3080.601          48.000                                                                  
C27  23099504.565 1 120285182.657 1      -352.706          48.000                                                                  
C 8  38008338.290 1 197919402.025 2       141.673          41.000    38008334.314 1 153043813.723 1       109.656          44.000  
C28  23801494.246 1 123940625.637 1     -2990.888          48.000                                                                  
C 7  37692978.503 1 196277228.173 1      -543.688          44.000    37692974.485 1 151773987.210 1      -420.658          43.000  
C13  39081942.614 1 203509917.570 3       336.085          37.000    39081948.081 1 157366811.876 3       260.352          35.000  
R12  20901038.659 4 111649596.724 1       669.954          48.000    20901042.061 4  86838587.935 1       521.156          45.000  
R11  21729863.999 4 116117795.236 1     -2651.285          48.000    21729864.816 4  90313848.424 2     -2062.082          43.000  
J 7  37642947.447 1 197815043.493 2     -1048.859          41.000    37642950.914 1 154141599.203 1      -817.299          46.000  
G 8  23383529.178 1 122881286.865 4     -3355.634          34.000    23383534.715 4               7     -2613.777          30.000  
G 1  21665762.726 1 113854338.898 1       459.531          47.000    21665765.113 1  88717680.602 1       357.875          44.000  
E30  23941225.302 1 125812011.180 1      -894.116          45.000    23941231.403 1  96401416.636 1      -685.159          46.000  
J 2  38629087.063 1 202997233.719 1       113.547          44.000    38629089.123 1 158179649.364 1        88.439          44.000  
J 3  40390471.489 1 212253359.724 1     -1733.115          44.000    40390472.046 1 165392259.609 1     -1350.837          43.000  
G 9                                                                  25041122.042 2               8     -2525.055          28.000  
> 2020  6  3  3  2 33.0040000  0 21                     
E15  24131081.023 1 126809693.425 1      -668.118          47.000    24131087.847 1  97165889.894 1      -511.722          46.000  
G11  21542247.538 1 113205270.151 1     -2003.883          45.000                                                                  
G22  25361981.169 2 133278119.496 5       778.501          33.000                                                                  
G 7  21793598.039 1 114526123.973 2       274.355          40.000    21793598.033 1  89241141.438 3       213.670          35.000  
E14  24511075.118 1 128806585.944 2      3915.299          42.000    24511081.609 1  98695968.624 2      3000.219          41.000  
C23  24703062.116 1 128635322.956 1     -3080.775          48.000                                                                  
C27  23099572.292 1 120285535.479 1      -353.053          49.000                                                                  
C 8  38008310.668 1 197919260.380 2       141.741          41.000    38008307.079 1 153043704.203 1       109.582          44.000  
C28  23802068.692 1 123943616.597 1     -2991.206          47.000                                                                  
C 7  37693082.812 1 196277771.717 1      -543.523          44.000    37693078.842 1 151774407.502 1      -420.265          43.000  
C13  39081877.973 1 203509580.975 3       336.645          38.000    39081883.435 1 157366551.627 3       260.371          36.000  
R12  20900913.166 4 111648926.952 1       669.620          48.000    20900916.635 4  86838067.021 1       520.654          44.000  
R11  21730360.332 4 116120446.630 1     -2651.699          48.000    21730360.922 4  90315910.613 2     -2062.385          43.000  
G 9  25041676.049 9               9     -3244.656          21.000    25041738.553 2               6     -2524.323          29.000  
J 7  37643147.021 1 197816092.421 2     -1048.932          41.000    37643150.540 1 154142416.548 1      -817.350          46.000  
G 8  23384167.780 1 122884642.484 4     -3355.434          33.000    23384173.045 2               7     -2614.469          30.000  
G 1  21665675.472 1 113853879.566 1       458.792          47.000    21665677.775 1  88717322.653 1       357.781          45.000  
G 4  25899205.248 9               9     -3556.000          25.000                                                                  
E30  23941395.112 1 125812905.468 1      -894.427          45.000    23941401.434 1  96402101.865 1      -685.386          46.000  
J 2  38629065.493 1 202997120.130 1       113.743          44.000    38629067.694 1 158179560.873 1        88.300          44.000  
J 3  40390801.278 1 212255092.751 1     -1733.111          44.000    40390801.826 1 165393609.983 1     -1350.197          43.000  
> 2020  6  3  3  2 34.0040000  0 21                     
E15  24131208.338 1 126810361.735 1      -668.752          47.000    24131214.957 1  97166401.973 1      -512.245          46.000  
G11  21542628.991 1 113207274.408 1     -2004.708          44.000                                                                  
G22  25361833.036 2 133277341.224 5       778.154          35.000                                                                  
G 7  21793546.006 1 114525849.791 2       273.802          40.000    21793545.878 1  89240927.768 3       213.230          35.000  
E14  24510330.136 1 128802670.776 2      3915.094          42.000    24510336.473 1  98692968.715 2      2999.528          41.000  
C23  24703653.688 1 128638404.037 1     -3081.671          48.000                                                                  
C27  23099640.208 1 120285888.776 1      -353.774          48.000                                                                  
C 8  38008283.230 1 197919118.977 2       140.903          41.000    38008279.873 1 153043594.830 1       109.193          43.000  
C28  23802643.037 1 123946607.865 1     -2991.678          45.000                                                                  
C 7  37693187.275 1 196278315.302 1      -543.981          43.000    37693183.226 1 151774827.858 2      -420.344          42.000  
C13  39081813.366 1 203509244.537 3       335.681          37.000    39081818.827 1 157366291.500 3       260.054          35.000  
R12  20900787.747 4 111648257.742 1       668.737          46.000    20900791.317 4  86837546.518 1       520.251          43.000  
R11  21730856.809 4 116123098.721 1     -2652.751          47.000    21730857.176 4  90317973.315 2     -2062.773          43.000  
G 9  25042302.117 9               9     -3244.656          24.000    25042355.031 4               8     -2525.122          29.000  
J 7  37643346.686 1 197817141.384 2     -1048.926          41.000    37643350.230 1 154143233.928 1      -817.588          45.000  
G 8  23384806.354 2               7     -3355.361          31.000    23384811.376 4               8     -2613.864          28.000  
G 1  21665588.157 1 113853420.909 1       458.343          47.000    21665590.577 1  88716965.293 1       356.895          44.000  
G 4  25899881.114 9               9     -3556.000          23.000                                                                  
E30  23941565.307 1 125813799.992 1      -894.787          45.000    23941571.665 1  96402787.263 1      -685.703          45.000  
J 2  38629044.005 1 202997006.668 1       113.385          44.000    38629046.169 1 158179472.456 1        87.992          44.000  
J 3  40391131.033 1 212256825.751 1     -1732.996          43.000    40391131.689 1 165394960.398 1     -1350.480          43.000  
> 2020  6  3  3  2 35.0040000  0 22                     
E15  24131335.693 1 126811031.228 1      -670.234          47.000    24131342.543 1  97166914.980 1      -513.514          46.000  
G11  21543010.686 1 113209279.935 2     -2006.293          44.000                                                                  
G22  25361685.514 2 133276563.681 5       776.765          34.000                                                                  
G 7  21793494.029 1 114525576.980 2       272.285          41.000    21793493.895 1  89240715.186 4       211.975          36.000  
E14  24509585.177 1 128798756.464 2      3913.913          41.000    24509591.709 1  98689969.442 2      2998.802          41.000  
G 3  26199985.654 9               9       918.739          25.000                                                                  
C23  24704245.497 1 128641486.209 1     -3082.690          47.000                                                                  
C27  23099708.305 1 120286243.207 1      -355.052          49.000                                                                  
C 8  38008255.878 1 197918978.444 2       139.933          40.000    38008252.825 1 153043486.163 2       108.280          43.000  
C28  23803217.567 1 123949600.039 1     -2992.713          45.000                                                                  
C 7  37693291.814 1 196278859.584 1      -544.767          43.000    37693287.807 1 151775248.697 2      -421.185          42.000  
C13  39081748.974 1 203508908.943 3       335.128          37.000    39081754.305 1 157366031.998 3       258.842          35.000  
R12  20900662.669 4 111647589.795 1       667.122          47.000    20900666.408 4  86837026.999 1       519.308          43.000  
R11  21731353.366 4 116125752.169 1     -2654.359          46.000    21731353.868 4  90320037.136 1     -2064.282          44.000  
G 9  25042929.824 9               9     -3244.656          26.000    25042971.701 4               8     -2526.343          29.000  
J 7  37643546.409 1 197818191.107 3     -1050.302          41.000    37643550.043 1 154144051.880 1      -818.282          45.000  
G 8  23385445.049 1 122891354.564 5     -3357.253          32.000    23385450.215 2               9     -2615.638          28.000  
G 1  21665501.349 1 113852963.673 1       456.370          48.000    21665503.709 1  88716608.981 1       355.669          44.000  
G 4  25900552.700 9               9     -3556.000          21.000                                                                  
E30  23941735.690 1 125814695.482 1      -896.054          45.000    23941742.341 1  96403473.418 1      -686.471          46.000  
J 2  38629022.619 1 202996893.956 1       112.297          44.000    38629024.609 1 158179384.620 1        87.485          44.000  
J 3  40391460.950 1 212258559.453 1     -1734.250          43.000    40391461.648 1 165396311.350 1     -1351.449          43.000  
> 2020  6  3  3  2 36.0040000  0 22                     
E15  24131463.281 1 126811701.484 1      -670.312          47.000    24131469.952 1  97167428.550 1      -513.593          46.000  
G11  21543392.518 1 113211286.303 1     -2006.488          45.000                                                                  
G22  25361537.840 1 133275786.451 3       777.306          35.000                                                                  
G 7  21793442.229 1 114525305.071 2       271.896          40.000    21793442.197 1  89240503.270 3       212.242          36.000  
E14  24508840.432 1 128794842.553 2      3914.192          42.000    24508846.868 1  98686970.460 2      2999.078          41.000  
G 3  26199808.686 9               9       919.712          25.000                                                                  
C23  24704837.408 1 128644569.029 1     -3082.756          47.000                                                                  
C27  23099776.408 1 120286598.355 1      -355.105          49.000                                                                  
C 8  38008228.698 1 197918838.359 2       140.212          40.000    38008226.024 1 153043377.839 1       108.414          43.000  
C28  23803792.295 1 123952592.765 1     -2992.723          46.000                                                                  
C 7  37693396.308 1 196279404.118 1      -544.392          44.000    37693392.329 1 151775669.761 1      -420.664          42.000  
C13  39081684.550 1 203508573.735 3       335.250          37.000    39081689.926 1 157365772.786 3       259.190          36.000  
R12  20900537.779 4 111646922.672 1       667.103          47.000    20900541.490 4  86836508.132 1       518.977          44.000  
R11  21731850.001 4 116128406.581 1     -2654.522          46.000    21731850.627 4  90322101.656 1     -2064.667          44.000  
G 9  25043553.784 9               7     -3242.059          29.000    25043588.106 4               8     -2526.111          29.000  
J 7  37643746.183 1 197819241.141 2     -1050.090          40.000    37643749.833 1 154144870.074 1      -817.904          46.000  
G 8  23386083.891 1 122894711.368 4     -3356.508          34.000    23386089.028 2               6     -2615.213          31.000  
G 1  21665414.623 1 113852507.378 1       456.251          47.000    21665416.966 1  88716253.410 1       355.828          45.000  
G 4  25901223.290 9               9     -3556.000          20.000                                                                  
E30  23941906.416 1 125815591.484 1      -895.844          45.000    23941912.970 1  96404159.964 1      -686.408          46.000  
J 2  38629001.225 1 202996781.583 1       112.607          44.000    38629003.184 1 158179297.044 1        87.720          44.000  
J 3  40391790.842 1 212260293.402 1     -1733.790          43.000    40391791.598 1 165397662.455 1     -1350.850          43.000  
> 2020  6  3  3  2 37.0040000  0 21                     
E15  24131590.753 1 126812371.736 1      -670.304          46.000    24131597.528 1  97167942.137 1      -513.894          46.000  
G11  21543774.325 1 113213292.747 1     -2006.567          45.000                                                                  
G22  25361390.040 1 133275008.777 3       778.116          35.000                                                                  
G 7  21793390.560 1 114525033.269 2       271.768          41.000    21793390.478 1  89240291.505 3       212.306          36.000  
E14  24508095.618 1 128790928.282 2      3914.204          42.000    24508101.987 1  98683971.239 2      2999.411          41.000  
G 3  26199633.355 9               9       919.642          24.000                                                                  
C23  24705429.242 1 128647651.780 1     -3082.874          48.000                                                                  
C27  23099844.570 1 120286953.480 1      -355.267          49.000                                                                  
C 8  38008201.651 1 197918698.019 2       140.087          40.000    38008199.073 1 153043269.296 1       108.684          44.000  
C28  23804366.831 1 123955585.287 1     -2992.373          44.000                                                                  
C 7  37693500.813 1 196279948.185 1      -544.255          43.000    37693496.822 1 151776090.482 2      -420.687          42.000  
C13  39081619.975 1 203508238.160 3       335.772          37.000    39081625.443 1 157365513.315 3       259.232          35.000  
R12  20900413.021 4 111646255.540 1       667.118          46.000    20900416.519 4  86835989.267 1       518.522          44.000  
R11  21732346.780 4 116131061.106 1     -2654.477          47.000    21732347.260 4  90324166.278 1     -2064.568          43.000  
G 9  25044174.455 8               6     -3241.583          30.000    25044204.629 4               9     -2525.580          27.000  
J 7  37643945.874 1 197820290.718 2     -1049.840          40.000    37643949.469 1 154145687.934 1      -817.671          46.000  
G 8  23386722.460 1 122898067.749 4     -3357.417          31.000    23386727.960 4               6     -2615.399          31.000  
G 1  21665327.996 1 113852051.298 1       455.756          47.000    21665330.301 1  88715898.035 1       355.347          45.000  
E30  23942077.139 1 125816487.198 1      -895.573          45.000    23942083.283 1  96404846.302 1      -686.481          46.000  
J 2  38628979.935 1 202996668.779 1       112.910          45.000    38628981.647 1 158179209.164 2        88.019          43.000  
J 3  40392120.632 1 212262026.820 1     -1733.206          44.000    40392121.536 1 165399013.171 2     -1350.508          43.000  
> 2020  6  3  3  2 38.0040000  0 22                     
E15  24131718.480 1 126813042.024 1      -670.421          47.000    24131725.016 1  97168455.719 1      -513.866          46.000  
G11  21544156.210 1 113215299.317 2     -2006.652          45.000                                                                  
G22  25361242.143 1 133274230.703 3       777.988          35.000                                                                  
G 7  21793338.882 1 114524761.657 2       271.304          39.000    21793338.769 1  89240079.895 3       211.165          35.000  
E14  24507350.576 1 128787013.736 2      3914.692          42.000    24507356.947 1  98680971.772 2      2999.471          41.000  
G 3  26199459.555 8               9       917.563          24.000                                                                  
C23  24706021.037 1 128650734.469 1     -3082.809          48.000                                                                  
C27  23099912.577 1 120287308.598 1      -355.356          49.000                                                                  
C 8  38008174.353 1 197918557.398 2       140.621          40.000    38008172.072 1 153043160.580 1       108.749          44.000  
C28  23804941.300 1 123958577.580 1     -2992.574          46.000                                                                  
C 7  37693605.183 1 196280491.808 1      -543.425          44.000    37693601.328 1 151776510.846 2      -420.332          44.000  
C13  39081555.509 1 203507902.297 3       336.127          37.000    39081560.927 1 157365253.601 3       259.824          35.000  
R22  21006148.309 4 112132245.01211     -3511.649          45.000    21006151.722 4  87213983.313 2     -2731.161          43.000  
R12  20900288.206 4 111645588.438 1       666.887          47.000    20900291.658 4  86835470.389 1       518.664          45.000  
R11  21732843.535 4 116133715.828 1     -2654.816          47.000    21732843.917 4  90326231.051 1     -2064.943          43.000  
G 9  25044799.433 4 131611245.72735     -3241.168          31.000    25044821.028 4               8     -2526.440          29.000  
J 7  37644145.545 1 197821339.857 2     -1048.906          41.000    37644149.115 1 154146505.468 1      -817.345          46.000  
G 8  23387360.681 2 122901423.707 4     -3356.199          31.000    23387368.112 4               7     -2615.197          29.000  
G 1  21665241.266 1 113851595.455 1       455.306          47.000    21665243.780 1  88715542.841 1       354.781          45.000  
E30  23942247.609 1 125817382.729 1      -895.453          45.000    23942253.491 1  96405532.504 1      -686.132          45.000  
J 2  38628958.517 1 202996555.615 1       113.215          44.000    38628960.073 1 158179120.962 1        88.256          43.000  
J 3  40392450.424 1 212263759.811 1     -1732.950          43.000    40392451.274 1 165400363.563 2     -1350.375          43.000  
> 2020  6  3  3  2 39.0040000  0 22                     
E15  24131845.941 1 126813712.578 1      -670.594          47.000    24131852.536 1  97168969.534 1      -513.974          46.000  
G11  21544538.072 1 113217306.260 1     -2007.194          46.000                                                                  
G22  25361094.262 1 133273452.364 3       779.059          36.000                                                                  
G 7  21793287.310 1 114524490.468 2       271.210          40.000    21793287.210 2  89239868.594 4       210.768          35.000  
E14  24506605.680 1 128783099.103 2      3914.459          42.000    24506612.145 1  98677972.243 2      2999.488          41.000  
G 3  26199284.521 9               9       919.315          24.000                                                                  
C23  24706612.888 1 128653817.344 1     -3082.936          48.000                                                                  
C27  23099980.856 1 120287663.949 1      -355.599          48.000                                                                  
C 8  38008147.133 1 197918416.816 2       140.315          40.000    38008145.065 1 153043051.846 1       108.901          44.000  
C28  23805515.968 1 123961569.956 1     -2992.458          47.000                                                                  
C 7  37693709.447 1 196281035.196 1      -543.380          44.000    37693705.706 1 151776931.032 1      -420.121          43.000  
C13  39081490.950 1 203507566.384 3       335.702          38.000    39081496.346 1 157364993.836 4       260.075          35.000  
R22  21006806.147 4 112135756.613 1     -3511.705          44.000    21006809.505 4  87216714.591 2     -2731.581          43.000  
R12  20900163.368 4 111644921.615 1       666.515          47.000    20900166.847 4  86834951.770 1       518.430          45.000  
R11  21733340.528 4 116136370.965 1     -2655.343          48.000    21733340.760 4  90328296.150 1     -2065.206          43.000  
G 9  25045420.784 4               6     -3239.984          30.000    25045437.689 4               7     -2525.122          29.000  
J 7  37644345.180 1 197822388.844 2     -1048.800          41.000    37644348.787 1 154147322.860 1      -817.467          46.000  
G 8  23387999.247 1 122904779.508 3     -3355.647          35.000    23388010.418 8               6     -2614.990          31.000  
G 1  21665154.661 1 113851140.059 1       455.162          48.000    21665157.350 1  88715187.997 1       354.575          45.000  
E30  23942417.838 1 125818278.287 1      -895.528          45.000    23942423.776 1  96406218.703 1      -686.258          45.000  
J 2  38628936.996 1 202996442.300 1       113.353          45.000    38628938.329 1 158179032.684 1        88.056          43.000  
J 3  40392780.117 1 212265492.531 1     -1732.690          44.000    40392781.011 1 165401713.730 2     -1350.111          43.000  
> 2020  6  3  3  2 40.0040000  0 22                     
E15  24131973.649 1 126814383.235 1      -670.600          47.000    24131980.214 1  97169483.406 1      -513.957          46.000  
G11  21544919.896 1 113219313.365 1     -2007.271          46.000                                                                  
G22  25360946.340 1 133272673.740 3       778.434          36.000                                                                  
G 7  21793235.887 1 114524219.553 2       270.598          40.000    21793235.548 2  89239657.445 4       210.787          35.000  
E14  24505860.622 1 128779184.193 2      3915.219          42.000    24505867.136 1  98674972.521 2      2999.894          41.000  
G 3  26199108.222 8               9       920.755          25.000                                                                  
C23  24707204.803 1 128656900.232 1     -3082.923          48.000                                                                  
C27  23100049.139 1 120288019.362 1      -355.528          48.000                                                                  
C 8  38008119.710 1 197918276.011 2       140.709          41.000    38008118.048 1 153042942.970 1       109.010          44.000  
C28  23806090.474 1 123964562.175 1     -2992.163          46.000                                                                  
C 7  37693813.739 1 196281578.211 2      -542.876          44.000    37693809.916 1 151777350.924 1      -419.835          43.000  
C13  39081426.306 1 203507230.198 3       336.116          38.000    39081431.746 1 157364733.847 4       260.185          35.000  
R22  21007463.982 4 112139268.425 1     -3511.890          45.000    21007467.435 4  87219445.990 1     -2731.302          42.000  
R12  20900038.617 4 111644254.946 1       666.507          47.000    20900042.023 4  86834433.247 1       518.374          45.000  
R11  21733837.502 4 116139026.376 1     -2655.628          48.000    21733837.531 4  90330361.458 1     -2065.467          43.000  
G 9  25046038.607 8 131617727.88625     -3240.497          31.000    25046054.233 4               7     -2526.019          30.000  
J 7  37644544.662 1 197823437.491 2     -1048.853          41.000    37644548.485 1 154148139.961 1      -816.973          46.000  
G 8  23388637.827 1 122908135.021 3     -3355.312          36.000    23388650.992 8               6     -2615.061          32.000  
G 1  21665068.137 1 113850684.965 1       454.857          48.000    21665070.720 1  88714833.376 1       354.467          45.000  
E30  23942588.111 1 125819173.697 1      -895.324          45.000    23942594.217 1  96406904.789 1      -686.111          45.000  
J 2  38628915.364 1 202996328.658 1       113.663          45.000    38628916.654 1 158178944.117 1        88.643          43.000  
J 3  40393109.782 1 212267224.849 1     -1732.200          44.000    40393110.625 1 165403063.589 1     -1349.734          43.000  
> 2020  6  3  3  2 41.0040000  0 22                     
E15  24132101.339 1 126815054.054 1      -670.815          47.000    24132107.751 1  97169997.405 1      -514.071          46.000  
G11  21545301.883 1 113221320.712 1     -2007.527          45.000                                                                  
G22  25360798.398 1 133271894.788 3       779.169          36.000                                                                  
G 7  21793184.462 1 114523948.919 2       270.514          40.000    21793184.012 1  89239446.585 4       210.991          35.000  
E14  24505115.719 1 128775269.129 1      3915.151          42.000    24505122.071 1  98671972.666 2      2999.852          42.000  
G 3  26198931.396 8               9       919.831          24.000                                                                  
C23  24707796.834 1 128659983.177 1     -3083.014          47.000                                                                  
C27  23100117.414 1 120288374.905 1      -355.526          48.000                                                                  
C 8  38008092.575 1 197918135.064 2       141.263          41.000    38008090.969 1 153042834.003 1       108.864          44.000  
C28  23806665.057 1 123967554.347 1     -2992.198          46.000                                                                  
C 7  37693917.932 1 196282120.901 1      -542.343          43.000    37693914.157 1 151777770.578 1      -419.519          43.000  
C13  39081361.814 1 203506893.771 3       336.847          38.000    39081367.092 1 157364473.750 4       260.473          35.000  
R22  21008121.913 4 112142780.505 1     -3512.183          44.000    21008125.245 4  87222177.602 1     -2731.648          43.000  
R12  20899913.806 4 111643588.471 1       666.329          47.000    20899917.227 4  86833914.871 1       518.309          45.000  
R11  21734334.562 4 116141682.099 1     -2655.934          47.000    21734334.462 4  90332427.006 1     -2065.694          43.000  
G 9  25046657.765 4               6     -3240.137          30.000    25046670.728 4               7     -2525.439          30.000  
J 7  37644744.138 1 197824485.820 2     -1047.886          41.000    37644748.081 1 154148956.850 1      -816.786          46.000  
G 8  23389276.324 1 122911490.291 3     -3355.219          36.000    23389291.451 8  95775206.19615     -2614.633          33.000  
G 1  21664981.708 1 113850230.247 1       454.596          48.000    21664984.463 1  88714479.056 1       354.070          45.000  
E30  23942758.649 1 125820069.012 1      -895.196          46.000    23942764.767 1  96407590.802 1      -686.031          45.000  
J 2  38628893.828 1 202996214.758 1       114.167          45.000    38628895.011 1 158178855.366 1        88.678          43.000  
J 3  40393439.389 1 212268956.803 1     -1731.526          44.000    40393440.122 1 165404413.156 1     -1349.314          43.000  
> 2020  6  3  3  2 42.0040000  0 23                     
E15  24132229.027 1 126815725.085 1      -671.082          47.000    24132235.519 1  97170511.575 1      -514.367          46.000  
G11  21545683.923 1 113223328.358 1     -2007.715          46.000                                                                  
G22  25360650.399 1 133271115.630 3       779.082          36.000                                                                  
G 7  21793133.152 1 114523678.677 2       270.106          40.000    21793132.689 1  89239236.010 4       210.275          35.000  
E14  24504370.624 1 128771353.928 1      3915.314          42.000    24504377.146 1  98668972.713 2      2999.896          41.000  
G 3  26198757.459 9               9       920.233          25.000                                                                  
C23  24708388.660 1 128663066.264 1     -3083.340          47.000                                                                  
C27  23100185.742 1 120288730.637 1      -355.997          48.000                                                                  
C 8  38008065.362 1 197917994.078 2       140.978          41.000    38008063.926 1 153042724.971 1       108.860          44.000  
C28  23807239.737 1 123970546.511 1     -2992.135          46.000                                                                  
C 7  37694022.009 1 196282663.329 1      -542.137          44.000    37694018.383 1 151778190.011 1      -419.360          44.000  
C13  39081297.020 1 203506557.254 2       336.727          38.000    39081302.516 1 157364213.539 4       260.340          35.000  
R22  21008779.815 4 112146292.903 1     -3512.521          44.000    21008783.381 4  87224909.467 1     -2731.855          43.000  
R12  20899788.993 4 111642922.249 1       666.002          46.000    20899792.484 4  86833396.697 1       518.091          45.000  
R11  21734831.641 4 116144338.188 1     -2656.177          47.000    21734831.507 4  90334492.860 1     -2065.967          44.000  
R23  21408304.566 9               9      1062.500          30.000    21408347.329 9               9       822.803          29.000  
G 9  25047277.842 4 131624208.87225     -3240.125          31.000    25047287.207 2               7     -2525.165          30.000  
J 7  37644943.589 1 197825533.950 2     -1048.090          41.000    37644947.624 1 154149773.567 1      -816.558          46.000  
G 8  23389914.763 1 122914845.349 3     -3354.498          36.000    23389933.532 8  95777820.549 5     -2614.749          33.000  
G 1  21664895.241 1 113849775.937 1       454.161          48.000    21664898.051 1  88714125.034 1       353.986          45.000  
E30  23942929.003 1 125820964.306 1      -895.267          46.000    23942935.251 1  96408276.791 1      -685.894          45.000  
J 2  38628872.058 1 202996100.668 1       114.128          44.000    38628873.242 1 158178766.453 1        89.060          43.000  
J 3  40393768.999 1 212270688.490 1     -1731.502          44.000    40393769.593 1 165405762.530 1     -1349.293          43.000  
> 2020  6  3  3  2 43.0040000  0 23                     
E15  24132356.817 1 126816396.281 1      -671.311          47.000    24132363.279 1  97171025.871 1      -514.450          46.000  
G11  21546066.013 1 113225336.264 1     -2008.112          46.000                                                                  
G22  25360502.316 1 133270336.121 3       779.652          36.000                                                                  
G 7  21793081.888 1 114523408.726 2       269.782          40.000    21793081.252 1  89239025.634 4       210.740          34.000  
E14  24503625.529 1 128767438.553 1      3915.497          42.000    24503631.934 1  98665972.620 1      3000.109          41.000  
G 3  26198580.325 9               9       920.988          24.000                                                                  
C23  24708980.657 1 128666149.410 1     -3083.165          47.000                                                                  
C27  23100254.104 1 120289086.498 1      -355.916          48.000                                                                  
C 8  38008038.174 1 197917852.939 2       141.124          42.000    38008036.794 1 153042615.827 1       108.978          44.000  
C28  23807814.298 1 123973538.606 1     -2992.007          46.000                                                                  
C 7  37694126.120 1 196283205.444 1      -541.979          44.000    37694122.526 1 151778609.205 1      -419.041          43.000  
C13  39081232.237 1 203506220.541 3       336.692          38.000    39081237.840 1 157363953.169 3       260.227          36.000  
R22  21009437.942 4 112149805.568 1     -3512.829          44.000    21009441.504 4  87227641.543 2     -2732.229          42.000  
R12  20899664.243 4 111642256.190 1       666.051          46.000    20899667.746 4  86832878.659 1       517.991          45.000  
R11  21735328.721 4 116146994.620 1     -2656.554          47.000    21735328.574 4  90336558.967 1     -2066.222          44.000  
R23  21408119.950 9               9      1063.192          29.000    21408140.269 9               8       826.330          29.000  
G 9  25047895.205 4 131627448.93025     -3239.453          30.000    25047903.530 4               7     -2524.866          29.000  
J 7  37645142.960 1 197826581.778 2     -1047.727          41.000    37645147.003 1 154150590.068 1      -816.534          46.000  
G 8  23390553.417 1 122918200.173 2     -3354.563          37.000    23390571.173 8  95780434.663 5     -2613.916          33.000  
G 1  21664808.831 1 113849321.994 1       453.889          48.000    21664811.765 1  88713771.316 1       353.688          45.000  
E30  23943099.505 1 125821859.510 1      -895.176          46.000    23943105.561 1  96408962.745 1      -686.058          45.000  
J 2  38628850.364 1 202995986.322 1       114.406          44.000    38628851.404 1 158178677.357 1        89.122          43.000  
J 3  40394098.433 1 212272419.825 1     -1731.113          44.000    40394098.992 1 165407111.612 1     -1348.961          43.000  
> 2020  6  3  3  2 44.0040000  0 23                     
E15  24132484.584 1 126817067.762 1      -671.510          47.000    24132491.058 1  97171540.370 1      -514.459          46.000  
G11  21546448.141 1 113227344.526 1     -2008.420          46.000                                                                  
G22  25360354.192 1 133269556.485 3       779.877          37.000                                                                  
G 7  21793030.675 1 114523139.212 2       269.198          40.000    21793029.977 1  89238815.624 4       210.217          35.000  
E14  24502880.655 1 128763523.121 1      3915.587          42.000    24502886.790 1  98662972.486 1      3000.251          41.000  
G 3  26198404.537 9               9       923.555          24.000                                                                  
C23  24709572.613 1 128669232.759 1     -3083.480          47.000                                                                  
C27  23100322.442 1 120289442.614 1      -356.323          48.000                                                                  
C 8  38008010.909 1 197917711.815 2       141.084          42.000    38008009.655 1 153042506.692 1       109.093          44.000  
C28  23808388.899 1 123976530.770 1     -2992.114          46.000                                                                  
C 7  37694230.176 1 196283747.360 1      -541.846          44.000    37694226.644 1 151779028.243 1      -418.907          43.000  
C13  39081167.544 1 203505883.723 2       337.058          38.000    39081173.073 1 157363692.730 3       260.470          36.000  
R22  21010095.994 4 112153318.611 1     -3513.252          44.000    21010099.600 4  87230373.913 2     -2732.474          42.000  
R12  20899539.601 4 111641590.449 1       665.568          46.000    20899543.148 4  86832360.856 1       517.669          45.000  
R11  21735825.826 4 116149651.499 1     -2657.014          47.000    21735825.768 4  90338625.419 1     -2066.431          44.000  
R23  21407932.624 9               6      1062.125          28.000    21407935.743 9               7       826.516          29.000  
G 9  25048512.233 2               6     -3239.685          30.000    25048520.043 2               7     -2524.664          30.000  
J 7  37645342.428 1 197827629.460 2     -1047.761          41.000    37645346.463 1 154151406.433 1      -816.217          46.000  
G 8  23391191.879 1 122921554.841 2     -3354.452          37.000    23391209.573 8  95783048.724 4     -2614.622          33.000  
G 1  21664722.532 1 113848868.550 1       453.313          48.000    21664725.523 1  88713417.979 1       353.196          45.000  
E30  23943269.701 1 125822754.754 1      -895.142          46.000    23943275.801 1  96409648.701 1      -685.776          45.000  
J 2  38628828.570 1 202995871.842 1       114.570          45.000    38628829.543 1 158178588.152 1        89.329          43.000  
J 3  40394427.825 1 212274150.940 1     -1731.160          44.000    40394428.393 1 165408460.527 1     -1348.706          43.000  
> 2020  6  3  3  2 45.0040000  0 23                     
E15  24132612.192 1 126817739.381 1      -671.677          47.000    24132618.850 1  97172054.995 1      -514.598          46.000  
G11  21546830.361 1 113229353.006 1     -2008.522          46.000                                                                  
G22  25360206.034 1 133268776.518 3       779.869          36.000                                                                  
G 7  21792979.465 1 114522869.966 2       269.404          40.000    21792978.870 2  89238605.877 4       209.310          34.000  
E14  24502135.498 1 128759607.486 1      3915.650          42.000    24502141.769 1  98659972.180 1      3000.475          41.000  
G 3  26198232.549 9               9       922.580          23.000                                                                  
C23  24710164.627 1 128672316.144 1     -3083.357          47.000                                                                  
C27  23100390.823 1 120289798.822 1      -356.314          48.000                                                                  
C 8  38007983.779 1 197917570.535 2       141.492          42.000    38007982.498 1 153042397.451 1       109.314          44.000  
C28  23808963.629 1 123979522.843 1     -2992.155          46.000                                                                  
C 7  37694334.107 1 196284288.920 1      -541.479          44.000    37694330.662 1 151779447.015 1      -418.782          43.000  
C13  39081102.819 1 203505546.692 3       337.261          38.000    39081108.322 1 157363432.110 3       260.854          36.000  
R22  21010754.231 4 112156831.903 1     -3513.457          44.000    21010757.731 4  87233106.475 2     -2732.522          42.000  
R12  20899414.980 4 111640924.864 1       665.625          46.000    20899418.579 4  86831843.181 1       517.731          45.000  
R11  21736323.180 4 116152308.675 1     -2657.277          47.000    21736323.111 4  90340692.099 1     -2066.626          44.000  
R23  21407758.673 9               7      1062.021          27.000    21407735.816 9               7       825.889          28.000  
G 9  25049128.921 2               6     -3239.410          30.000    25049136.278 2               6     -2524.347          29.000  
J 7  37645541.815 1 197828676.820 2     -1047.550          41.000    37645545.859 1 154152222.556 1      -815.961          46.000  
G 8  23391830.322 1 122924909.227 2     -3354.229          37.000    23391847.562 4  95785662.528 4     -2613.861          33.000  
G 1  21664636.331 1 113848415.438 1       452.817          48.000    21664639.473 1  88713064.901 1       352.903          45.000  
E30  23943439.797 1 125823649.877 1      -894.979          46.000    23943446.172 1  96410334.569 1      -685.611          45.000  
J 2  38628806.665 1 202995757.070 1       114.853          45.000    38628807.699 1 158178498.721 1        89.497          43.000  
J 3  40394757.303 1 212275881.678 2     -1730.880          44.000    40394757.789 1 165409809.151 2     -1348.357          43.000  
> 2020  6  3  3  2 46.0040000  0 24                     
E15  24132739.971 1 126818411.180 1      -672.016          47.000    24132746.706 1  97172569.744 1      -514.771          46.000  
G11  21547212.628 1 113231361.752 1     -2009.205          46.000                                                                  
G22  25360057.846 1 133267996.269 3       780.179          36.000                                                                  
G 7  21792928.326 1 114522601.097 2       268.800          40.000    21792927.670 1  89238396.337 4       209.060          34.000  
E14  24501390.404 1 128755691.695 1      3915.619          42.000    24501396.629 1  98656971.783 1      3000.248          41.000  
G 3  26198058.433 9               9       922.065          22.000                                                                  
C23  24710756.749 1 128675399.632 1     -3083.638          47.000                                                                  
C27  23100459.305 1 120290155.192 1      -356.608          48.000                                                                  
C 8  38007956.641 1 197917429.161 2       141.151          42.000    38007955.345 1 153042288.142 1       108.923          44.000  
C28  23809538.350 1 123982514.872 1     -2992.155          46.000                                                                  
C 7  37694438.003 1 196284830.191 1      -541.443          44.000    37694434.587 1 151779865.549 1      -418.472          43.000  
C13  39081038.117 1 203505209.523 3       337.143          38.000    39081043.566 1 157363171.365 3       260.929          36.000  
R22  21011412.494 4 112160345.473 1     -3513.841          45.000    21011416.035 4  87235839.246 2     -2732.873          42.000  
R12  20899290.416 4 111640259.524 1       665.051          46.000    20899294.058 4  86831325.686 1       517.310          45.000  
R11  21736820.468 4 116154966.186 1     -2657.820          46.000    21736820.553 4  90342759.040 1     -2067.110          44.000  
R23  21407587.408 9               9      1061.173          27.000    21407533.768 9               7       825.211          28.000  
G 9  25049745.596 2               6     -3240.027          30.000    25049752.380 4               9     -2524.054          29.000  
J 7  37645741.115 1 197829723.900 2     -1047.080          41.000    37645745.089 1 154153038.460 1      -815.776          46.000  
G 8  23392468.598 1 122928263.398 2     -3354.414          37.000    23392485.439 4  95788276.146 4     -2613.673          33.000  
G 1  21664550.223 1 113847962.713 1       452.299          48.000    21664553.323 1  88712712.129 1       352.477          45.000  
E30  23943610.061 1 125824544.956 1      -895.210          45.000    23943616.496 1  96411020.407 1      -685.915          45.000  
J 2  38628784.830 1 202995642.074 1       115.079          45.000    38628785.818 1 158178409.107 1        89.550          43.000  
J 3  40395086.618 1 212277612.068 1     -1730.299          44.000    40395087.188 1 165411157.514 1     -1348.416          43.000  
R24                                                                  24616064.723 9               9      2081.689          30.000  
> 2020  6  3  3  2 47.0040000  0 24                     
E15  24132867.882 1 126819083.105 1      -671.941          47.000    24132874.591 1  97173084.602 1      -514.800          46.000  
G11  21547594.883 1 113233370.698 1     -2008.898          46.000                                                                  
G22  25359909.472 1 133267215.685 3       780.725          36.000                                                                  
G 7  21792877.166 1 114522332.462 2       268.867          40.000    21792876.583 2  89238187.027 4       209.035          35.000  
E14  24500645.193 1 128751775.671 2      3916.223          42.000    24500651.523 1  98653971.195 1      3000.695          41.000  
G 3  26197882.805 9               9       922.775          22.000                                                                  
C23  24711348.910 1 128678483.148 1     -3083.448          46.000                                                                  
C27  23100527.735 1 120290511.651 1      -356.414          48.000                                                                  
C 8  38007929.196 1 197917287.635 2       141.616          42.000    38007928.179 1 153042178.688 1       109.512          44.000  
C28  23810112.969 1 123985506.807 1     -2992.021          46.000                                                                  
C 7  37694541.884 1 196285371.093 1      -540.602          44.000    37694538.497 1 151780283.826 1      -418.024          43.000  
C13  39080973.277 1 203504872.107 3       337.716          38.000    39080978.843 1 157362910.468 3       260.554          37.000  
R22  21012070.527 4 112163859.261 1     -3513.834          45.000    21012074.378 4  87238572.199 2     -2733.048          42.000  
R12  20899165.953 4 111639594.320 1       665.221          47.000    20899169.588 4  86830808.299 1       517.614          45.000  
R11  21737317.692 4 116157623.951 1     -2657.919          46.000    21737317.940 4  90344826.206 1     -2067.084          45.000  
R23  21407410.136 9               9      1061.352          25.000    21407333.890 9               7       825.275          28.000  
R24  24615544.377 9               9      2670.535          26.000    24615574.653 9               6      2077.680          29.000  
G 9  25050362.099 2               7     -3239.166          29.000    25050368.226 4               8     -2523.615          28.000  
J 7  37645940.313 1 197830770.672 2     -1046.418          41.000    37645944.390 1 154153854.128 1      -815.284          46.000  
G 8  23393106.837 1 122931617.248 3     -3353.548          37.000    23393123.567 2  95790889.591 5     -2614.255          33.000  
G 1  21664464.168 1 113847510.306 1       452.293          48.000    21664467.213 1  88712359.605 1       352.390          45.000  
E30  23943780.317 1 125825439.889 1      -894.672          46.000    23943786.765 1  96411706.150 1      -685.701          45.000  
J 2  38628762.965 1 202995526.787 1       115.433          45.000    38628763.853 1 158178319.274 1        89.812          43.000  
J 3  40395415.763 1 212279342.091 1     -1729.705          44.000    40395416.343 1 165412505.580 2     -1347.782          43.000  
> 2020  6  3  3  2 48.0040000  0 24                     
E15  24132995.762 1 126819755.407 1      -672.603          47.000    24133002.568 1  97173599.745 1      -515.440          46.000  
G11  21547977.331 1 113235380.101 1     -2009.674          46.000                                                                  
G22  25359761.058 1 133266435.020 3       780.417          37.000                                                                  
G 7  21792826.147 1 114522064.396 2       267.600          41.000    21792825.631 2  89237978.109 4       208.961          35.000  
E14  24499900.040 1 128747859.697 1      3915.865          43.000    24499906.254 1  98650970.632 1      3000.458          42.000  
G 3  26197708.910 9               9       924.904          23.000                                                                  
C23  24711941.065 1 128681566.964 1     -3084.268          46.000                                                                  
C27  23100596.126 1 120290868.446 1      -357.013          48.000                                                                  
C 8  38007902.070 1 197917146.182 2       141.389          43.000    38007901.058 1 153042069.324 1       109.018          44.000  
C28  23810687.723 1 123988498.870 1     -2992.169          46.000                                                                  
C 7  37694645.777 1 196285911.877 1      -540.822          44.000    37694642.254 1 151780701.995 1      -418.046          44.000  
C13  39080908.562 1 203504534.687 2       337.251          38.000    39080913.929 1 157362649.549 3       260.646          36.000  
R22  21012728.895 4 112167373.545 1     -3514.694          45.000    21012732.597 4  87241305.529 1     -2733.930          42.000  
R12  20899041.489 4 111638929.494 1       664.464          47.000    20899045.157 4  86830291.225 1       516.914          45.000  
R11  21737815.021 4 116160282.321 1     -2658.802          45.000    21737815.603 4  90346893.809 1     -2067.902          45.000  
R24  24615035.730 9               7      2670.219          27.000    24615072.228 9               8      2077.371          29.000  
G 9  25050978.854 2               6     -3239.099          29.000    25050984.199 4               7     -2524.469          28.000  
J 7  37646139.449 1 197831817.375 2     -1047.059          41.000    37646143.691 1 154154669.749 1      -815.879          46.000  
G 8  23393744.996 1 122934971.077 3     -3354.046          37.000    23393761.480 4               6     -2614.212          33.000  
G 1  21664378.211 1 113847058.481 1       451.415          48.000    21664381.203 1  88712007.537 1       351.893          45.000  
E30  23943951.080 1 125826334.966 1      -895.213          46.000    23943956.975 1  96412391.974 1      -685.844          45.000  
J 2  38628740.986 1 202995411.448 1       115.456          45.000    38628741.768 1 158178229.394 1        89.754          43.000  
J 3  40395744.894 1 212281071.996 1     -1730.181          44.000    40395745.460 1 165413853.563 1     -1348.113          43.000  
R23                                                                  21407135.084 8               7       824.003          28.000  
> 2020  6  3  3  2 49.0040000  0 24                     
E15  24133123.870 1 126820428.536 1      -673.425          47.000    24133130.792 1  97174115.526 1      -516.049          46.000  
G11  21548359.913 1 113237390.426 1     -2010.970          46.000                                                                  
G22  25359612.775 1 133265654.746 3       780.048          36.000                                                                  
G 7  21792775.351 1 114521797.288 2       266.858          40.000    21792774.843 1  89237769.973 3       207.803          34.000  
E14  24499154.921 1 128743944.205 1      3915.338          43.000    24499161.211 1  98647970.457 1      3000.014          42.000  
G 3  26197530.189 9               9       921.019          24.000                                                                  
C23  24712533.342 1 128684651.495 1     -3084.785          46.000                                                                  
C27  23100664.818 1 120291226.041 1      -357.918          48.000                                                                  
C 8  38007875.022 1 197917005.285 2       140.860          43.000    38007873.982 1 153041960.360 1       108.669          44.000  
C28  23811262.524 1 123991491.557 1     -2992.859          46.000                                                                  
C 7  37694749.819 1 196286453.027 1      -541.333          44.000    37694746.231 1 151781120.436 1      -418.406          44.000  
C13  39080843.871 1 203504197.783 2       336.314          39.000    39080849.341 1 157362389.036 3       260.091          36.000  
R22  21013387.406 4 112170888.755 1     -3515.484          45.000    21013391.079 4  87244039.575 1     -2734.281          42.000  
R12  20898917.152 4 111638265.521 1       663.584          47.000    20898920.833 4  86829774.818 1       515.984          45.000  
R11  21738312.404 4 116162941.700 1     -2659.822          44.000    21738313.418 4  90348962.210 1     -2068.789          45.000  
R24  24614526.907 9               8      2669.739          27.000    24614561.155 9               7      2076.274          29.000  
G 9  25051595.509 2               6     -3239.484          28.000    25051600.155 4               7     -2524.097          28.000  
J 7  37646338.709 1 197832864.469 2     -1047.383          41.000    37646342.958 1 154155485.657 1      -816.011          46.000  
G 8  23394383.306 1 122938325.320 3     -3354.132          37.000    23394399.626 2  95796116.632 5     -2613.943          33.000  
G 1  21664292.289 1 113846607.686 1       450.352          48.000    21664295.452 1  88711656.273 1       350.970          45.000  
E30  23944121.733 1 125827230.626 1      -895.832          46.000    23944127.399 1  96413078.263 1      -686.375          45.000  
J 2  38628719.229 1 202995296.534 1       114.773          45.000    38628719.811 1 158178139.846 1        89.577          43.000  
J 3  40396074.083 1 212282802.201 1     -1730.271          44.000    40396074.809 1 165415201.768 1     -1348.054          43.000  
R23                                                                  21406935.239 8               7       823.906          28.000  
> 2020  6  3  3  2 50.0040000  0 24                     
E15  24133252.160 1 126821102.573 1      -674.461          47.000    24133258.979 1  97174631.986 1      -516.581          46.000  
G11  21548742.627 1 113239401.708 1     -2011.634          45.000                                                                  
G22  25359464.532 1 133264874.907 3       779.656          35.000                                                                  
G 7  21792724.665 1 114521531.226 2       265.451          40.000    21792724.155 1  89237562.650 3       207.376          34.000  
E14  24498410.163 1 128740029.256 1      3914.964          43.000    24498416.243 1  98644970.695 2      2999.656          42.000  
G 3  26197355.815 9               9       939.825          23.000                                                                  
C23  24713125.965 1 128687736.820 1     -3085.399          45.000                                                                  
C27  23100733.718 1 120291584.486 1      -358.664          49.000                                                                  
C 8  38007848.089 1 197916864.975 2       140.310          43.000    38007846.969 1 153041851.859 1       108.431          44.000  
C28  23811837.435 1 123994484.897 1     -2993.536          46.000                                                                  
C 7  37694853.954 1 196286994.581 1      -541.722          44.000    37694850.326 1 151781539.214 1      -419.025          44.000  
C13  39080779.278 1 203503861.369 2       336.367          38.000    39080784.744 1 157362128.909 3       260.192          36.000  
R22  21014046.183 4 112174404.980 1     -3516.621          45.000    21014049.796 4  87246774.419 2     -2735.104          42.000  
R12  20898793.015 4 111637602.514 1       662.602          47.000    20898796.848 4  86829259.141 1       515.407          45.000  
R11  21738810.147 4 116165602.088 1     -2660.903          44.000    21738811.376 4  90351031.418 1     -2069.575          45.000  
R23  21406816.045 9               9      1056.815          23.000    21406737.903 8               6       822.956          28.000  
R24  24614022.571 9               7      2669.282          27.000    24614056.166 9               8      2075.449          29.000  
G 9  25052212.367 2               6     -3240.076          28.000    25052216.264 4               7     -2524.292          28.000  
J 7  37646538.051 1 197833911.996 2     -1047.759          40.000    37646542.281 1 154156301.913 1      -816.337          46.000  
G 8  23395021.749 1 122941680.014 2     -3354.859          36.000    23395037.641 2  95798730.667 5     -2613.623          32.000  
G 1  21664206.590 1 113846157.988 1       449.403          48.000    21664209.825 1  88711305.861 1       350.042          45.000  
E30  23944291.967 1 125828126.924 1      -896.487          46.000    23944297.975 1  96413765.055 1      -687.095          45.000  
J 2  38628697.545 1 202995182.097 1       114.312          45.000    38628697.929 1 158178050.675 1        89.267          43.000  
J 3  40396403.518 1 212284532.793 1     -1730.648          44.000    40396404.128 1 165416550.303 1     -1348.613          43.000  
> 2020  6  3  3  2 51.0040000  0 23                     
E15  24133380.436 1 126821777.250 1      -675.097          47.000    24133387.311 1  97175148.953 1      -517.102          46.000  
G11  21549125.481 1 113241413.732 1     -2012.342          45.000                                                                  
G22  25359316.355 1 133264095.297 2       779.035          36.000                                                                  
G 7  21792674.210 1 114521265.962 2       264.893          40.000    21792673.648 1  89237355.936 4       206.690          34.000  
E14  24497665.449 1 128736114.629 2      3914.427          43.000    24497671.253 1  98641971.178 2      2999.228          42.000  
C23  24713718.585 1 128690822.746 1     -3086.312          45.000                                                                  
C27  23100802.805 1 120291943.539 1      -359.425          49.000                                                                  
C 8  38007821.272 1 197916725.041 1       139.711          43.000    38007820.077 1 153041743.650 1       108.017          44.000  
C28  23812412.334 1 123997478.666 1     -2994.011          46.000                                                                  
C 7  37694957.874 1 196287536.287 1      -541.837          44.000    37694954.371 1 151781958.084 1      -418.876          43.000  
C13  39080714.711 1 203503525.293 2       335.763          38.000    39080720.153 1 157361869.037 3       259.425          36.000  
R22  21014705.068 4 112177921.971 1     -3517.637          45.000    21014708.580 4  87249509.854 2     -2735.795          42.000  
R12  20898669.030 4 111636940.208 1       661.890          47.000    20898672.895 4  86828744.018 1       514.738          45.000  
R11  21739307.972 4 116168263.304 1     -2661.794          43.000    21739309.673 4  90353101.263 1     -2070.296          45.000  
R23  21406607.244 9               9      1058.141          24.000    21406541.063 8               7       822.335          28.000  
R24  24613517.869 9               7      2668.713          28.000    24613553.103 9               7      2076.088          28.000  
G 9  25052829.095 2               7     -3240.649          27.000    25052832.442 4               7     -2524.994          28.000  
J 7  37646737.479 1 197834959.754 2     -1048.187          40.000    37646741.794 1 154157118.338 1      -816.514          46.000  
G 8  23395660.037 1 122945034.955 3     -3355.378          35.000    23395676.069 2  95801344.887 5     -2613.858          33.000  
G 1  21664121.129 1 113845709.152 1       448.395          48.000    21664124.300 1  88710956.118 1       349.389          45.000  
E30  23944462.470 1 125829023.647 1      -897.054          45.000    23944468.630 1  96414452.140 1      -687.320          45.000  
J 2  38628675.901 1 202995067.890 1       113.899          45.000    38628676.210 1 158177961.686 1        88.883          43.000  
J 3  40396732.897 1 212286263.540 1     -1731.073          44.000    40396733.462 1 165417898.932 1     -1348.879          43.000  
> 2020  6  3  3  2 52.0040000  0 24                     
E15  24133508.896 1 126822452.613 1      -675.681          47.000    24133515.737 1  97175666.441 1      -517.784          46.000  
G11  21549508.470 1 113243426.518 1     -2013.054          45.000                                                                  
G22  25359168.198 1 133263315.868 3       779.179          36.000                                                                  
G 7  21792623.935 1 114521001.509 2       264.019          40.000    21792623.268 1  89237149.927 4       205.150          35.000  
E14  24496920.674 1 128732200.343 1      3914.068          43.000    24496926.407 1  98638971.926 2      2998.809          41.000  
C23  24714311.483 1 128693909.213 1     -3086.738          45.000                                                                  
C27  23100871.778 1 120292303.239 1      -360.158          48.000                                                                  
C 8  38007794.446 1 197916585.480 1       139.567          43.000    38007793.352 1 153041635.739 1       107.796          44.000  
C28  23812987.466 1 124000472.883 1     -2994.420          46.000                                                                  
C 7  37695062.013 1 196288078.200 1      -542.000          44.000    37695058.448 1 151782377.141 1      -419.294          44.000  
C13  39080650.162 1 203503189.476 2       336.114          38.000    39080655.672 1 157361609.376 3       259.087          36.000  
R22  21015364.073 4 112181439.735 1     -3518.186          45.000    21015367.452 4  87252245.899 2     -2736.309          42.000  
R12  20898545.072 4 111636278.621 1       661.338          47.000    20898549.085 4  86828229.447 1       514.131          45.000  
R11  21739805.822 4 116170925.352 2     -2662.451          42.000    21739807.936 4  90355171.741 1     -2070.696          45.000  
R23  21406393.152 9               7      1056.880          26.000    21406343.914 8               7       820.875          27.000  
R24  24613017.950 9               6      2667.502          29.000    24613052.418 8               7      2075.735          27.000  
G 9  25053446.123 2               8     -3240.802          26.000    25053448.765 4               9     -2525.214          27.000  
J 7  37646936.844 1 197836007.686 2     -1047.924          40.000    37646941.156 1 154157934.933 1      -816.610          46.000  
G 8  23396298.466 1 122948390.150 3     -3355.541          35.000    23396314.361 2  95803959.356 5     -2614.482          33.000  
G 1  21664035.810 1 113845261.197 1       447.329          47.000    21664039.030 1  88710607.059 1       348.680          45.000  
E30  23944633.392 1 125829920.803 1      -897.540          46.000    23944639.405 1  96415139.573 1      -687.731          45.000  
J 2  38628654.222 1 202994953.950 1       113.633          45.000    38628654.509 1 158177872.900 1        88.716          43.000  
J 3  40397062.219 1 212287994.454 1     -1730.992          44.000    40397062.820 1 165419247.687 1     -1348.853          43.000  
C 9                                                                  39241327.801 1 158008565.249 2     -2093.680          39.000  
> 2020  6  3  3  2 53.0040000  0 24                     
E15  24133637.673 1 126823128.843 1      -677.024          47.000    24133644.374 1  97176184.591 1      -518.813          46.000  
G11  21549891.668 1 113245440.266 1     -2014.365          45.000                                                                  
G22  25359020.209 1 133262536.873 2       778.442          35.000                                                                  
G 7  21792573.822 1 114520738.089 2       262.716          40.000    21792573.075 1  89236944.644 4       204.766          34.000  
E14  24496175.842 1 128728286.580 1      3913.212          43.000    24496181.663 1  98635973.061 2      2998.422          41.000  
C23  24714904.468 1 128696996.491 1     -3088.092          45.000                                                                  
C27  23100940.883 1 120292663.764 1      -361.307          48.000                                                                  
C 8  38007767.883 1 197916446.496 1       138.450          44.000    38007766.662 1 153041528.268 1       107.101          44.000  
C28  23813562.685 1 124003467.744 1     -2995.324          46.000                                                                  
C 7  37695166.215 1 196288620.496 1      -542.621          44.000    37695162.483 1 151782796.472 1      -419.597          44.000  
C13  39080585.918 1 203502854.240 2       334.704          38.000    39080591.313 1 157361350.117 3       259.009          36.000  
R22  21016023.313 4 112184958.505 1     -3519.598          45.000    21016026.545 4  87254982.702 1     -2737.284          42.000  
R12  20898421.223 4 111635617.913 1       660.170          47.000    20898425.367 4  86827715.559 1       513.438          45.000  
R11  21740303.866 4 116173588.426 2     -2663.748          42.000    21740306.509 4  90357243.044 1     -2071.840          45.000  
R23  21406185.815 9               9      1054.870          26.000    21406146.869 8               9       820.131          26.000  
R24  24612515.179 9               6      2667.475          29.000    24612552.958 8               7      2074.448          27.000  
G 9  25054063.059 2               7     -3240.936          26.000    25054065.272 4               9     -2525.708          27.000  
J 7  37647136.352 1 197837056.079 2     -1048.700          40.000    37647140.753 1 154158751.854 1      -817.141          46.000  
G 8  23396936.882 1 122951745.818 3     -3356.263          35.000    23396952.980 2  95806574.167 5     -2614.880          32.000  
G 1  21663950.689 1 113844814.308 1       446.239          47.000    21663953.867 1  88710258.849 1       347.594          45.000  
E30  23944804.451 1 125830818.575 1      -898.353          46.000    23944810.201 1  96415827.469 1      -688.343          45.000  
J 2  38628632.718 1 202994840.460 1       112.911          45.000    38628632.825 1 158177784.461 1        88.128          43.000  
J 3  40397391.644 1 212289725.729 1     -1731.768          44.000    40397392.282 1 165420596.724 1     -1349.191          43.000  
C 9                                                                  39241847.874 1 158010659.451 2     -2094.998          39.000  
> 2020  6  3  3  2 54.0040000  0 24                     
E15  24133766.331 1 126823806.108 1      -677.742          47.000    24133773.185 1  97176703.536 1      -519.350          46.000  
G11  21550275.131 1 113247455.123 1     -2015.507          46.000                                                                  
G22  25358872.133 1 133261758.463 3       778.156          35.000                                                                  
G 7  21792523.878 1 114520475.852 2       261.945          40.000    21792523.227 1  89236740.313 4       203.906          35.000  
E14  24495431.530 1 128724373.509 1      3912.680          43.000    24495437.105 1  98632974.730 2      2998.021          41.000  
C23  24715497.622 1 128700084.687 1     -3088.673          45.000                                                                  
C27  23101010.339 1 120293025.283 1      -362.065          49.000                                                                  
C 8  38007741.429 1 197916308.260 1       137.949          44.000    38007740.113 1 153041421.373 1       106.734          44.000  
C28  23814137.967 1 124006463.411 1     -2996.005          46.000                                                                  
C 7  37695270.543 1 196289163.328 1      -543.130          44.000    37695266.739 1 151783216.218 1      -419.872          44.000  
C13  39080521.755 1 203502519.664 2       334.402          38.000    39080527.055 1 157361091.406 3       258.413          36.000  
R22  21016682.654 4 112188478.402 1     -3520.501          45.000    21016685.862 4  87257720.409 2     -2738.199          42.000  
R12  20898297.757 4 111634958.307 1       658.958          47.000    20898302.020 4  86827202.538 1       512.517          45.000  
R11  21740802.178 4 116176252.732 2     -2664.666          40.000    21740805.212 4  90359315.299 1     -2072.768          46.000  
R23  21405978.668 9               7      1053.548          27.000    21405950.019 8               9       820.299          26.000  
R24  24612012.470 9               7      2666.130          29.000    24612054.023 8               8      2072.982          26.000  
G 9  25054680.007 2               7     -3241.736          26.000    25054682.004 4               9     -2524.994          27.000  
J 7  37647335.976 1 197838105.069 2     -1049.155          40.000    37647340.347 1 154159569.257 1      -817.743          46.000  
G 8  23397575.523 1 122955102.057 3     -3356.324          34.000    23397591.406 4               6     -2615.106          33.000  
G 1  21663865.771 1 113844368.671 1       445.030          47.000    21663868.993 1  88709911.598 1       346.622          45.000  
E30  23944975.323 1 125831717.131 1      -898.914          46.000    23944981.196 1  96416515.980 1      -688.788          45.000  
J 2  38628611.319 1 202994727.582 1       112.415          45.000    38628611.341 1 158177696.520 2        87.467          43.000  
J 3  40397721.221 1 212291457.539 1     -1732.341          44.000    40397721.808 1 165421946.188 2     -1349.773          42.000  
C 9                                                                  39242368.100 1 158012754.081 2     -2094.693          39.000  
> 2020  6  3  3  2 55.0040000  0 24                     
E15  24133895.491 1 126824484.666 1      -679.309          47.000    24133902.321 1  97177223.466 1      -520.486          46.000  
G11  21550658.820 1 113249471.339 1     -2016.980          46.000                                                                  
G22  25358724.332 1 133260980.864 3       776.669          35.000                                                                  
G 7  21792474.284 1 114520215.066 2       260.038          40.000    21792473.543 1  89236537.075 4       202.725          35.000  
E14  24494687.108 1 128720461.388 2      3911.575          43.000    24494692.549 1  98629977.132 2      2997.117          42.000  
C23  24716091.066 1 128703174.092 1     -3090.250          45.000                                                                  
C27  23101080.026 1 120293388.040 1      -363.419          49.000                                                                  
C 8  38007715.202 1 197916171.016 1       136.684          44.000    38007713.729 1 153041315.256 1       105.861          44.000  
C28  23814713.509 1 124009460.128 1     -2997.269          46.000                                                                  
C 7  37695374.892 1 196289706.951 1      -544.110          44.000    37695371.236 1 151783636.575 1      -420.765          44.000  
C13  39080457.706 1 203502186.026 3       333.291          39.000    39080463.023 1 157360833.432 3       257.400          36.000  
R22  21017342.424 4 112191999.724 1     -3522.295          45.000    21017345.507 4  87260459.198 1     -2739.564          42.000  
R12  20898174.564 4 111634300.046 1       657.389          46.000    20898178.760 4  86826690.556 1       511.459          45.000  
R11  21741300.772 4 116178918.512 2     -2666.648          41.000    21741304.307 4  90361388.689 1     -2073.921          46.000  
R23  21405771.944 9               8      1051.545          27.000    21405753.290 8               9       816.770          25.000  
R24  24611506.302 9               8      2664.995          28.000    24611555.465 8               8      2072.274          27.000  
G 9  25055297.047 2               7     -3242.657          26.000    25055298.847 2               8     -2527.539          26.000  
J 7  37647535.759 1 197839154.899 2     -1050.604          40.000    37647540.130 1 154160387.299 1      -818.430          46.000  
G 8  23398214.347 1 122958459.205 3     -3357.389          34.000    23398229.851 4  95811805.387 5     -2616.135          32.000  
G 1  21663781.153 1 113843924.529 1       443.265          47.000    21663784.310 1  88709565.496 1       345.432          44.000  
E30  23945146.204 1 125832616.726 1      -900.094          45.000    23945152.239 1  96417205.277 1      -689.716          45.000  
J 2  38628589.943 1 202994615.580 1       111.364          45.000    38628590.031 1 158177609.243 2        86.748          43.000  
J 3  40398050.938 1 212293190.111 1     -1733.103          44.000    40398051.550 1 165423296.251 1     -1350.528          42.000  
C 9                                                                  39242888.519 1 158014849.392 2     -2096.038          40.000  
> 2020  6  3  3  2 56.0040000  0 24                     
E15  24134024.910 1 126825164.545 1      -680.649          47.000    24134031.812 1  97177744.407 1      -521.529          46.000  
G11  21551042.871 1 113251488.954 1     -2018.252          46.000                                                                  
G22  25358576.829 1 133260204.155 3       775.842          35.000                                                                  
G 7  21792425.012 1 114519955.738 2       258.426          40.000    21792424.125 2  89236334.989 4       201.362          35.000  
E14  24493942.913 1 128716550.230 1      3910.666          43.000    24493948.262 1  98626980.285 2      2996.295          42.000  
C23  24716684.696 1 128706264.682 1     -3091.275          45.000                                                                  
C27  23101149.877 1 120293752.071 1      -364.767          48.000                                                                  
C 8  38007689.094 1 197916034.791 1       135.797          44.000    38007687.651 1 153041209.933 1       104.602          44.000  
C28  23815289.343 1 124012457.925 1     -2998.423          46.000                                                                  
C 7  37695479.407 1 196290251.395 1      -544.921          45.000    37695475.797 1 151784057.585 1      -421.549          44.000  
C13  39080393.865 1 203501853.351 3       331.824          38.000    39080399.047 1 157360576.142 3       257.118          36.000  
R22  21018002.293 4 112195522.455 1     -3523.480          46.000    21018005.364 4  87263199.101 2     -2740.407          42.000  
R12  20898051.530 4 111633643.137 1       656.139          46.000    20898055.790 4  86826179.613 1       510.472          45.000  
R11  21741799.555 4 116181585.770 2     -2667.829          41.000    21741803.822 4  90363463.234 1     -2075.186          46.000  
R23  21405566.905 9               8      1049.575          27.000    21405556.901 8               9       816.718          25.000  
R24  24611004.302 9               8      2663.430          28.000    24611057.090 8               8      2072.279          27.000  
G 9  25055914.365 2               9     -3243.420          26.000    25055915.906 4               9     -2527.332          26.000  
J 7  37647735.708 1 197840205.582 2     -1050.902          40.000    37647740.205 1 154161206.008 1      -819.067          46.000  
G 8  23398853.210 1 122961817.219 3     -3357.808          33.000    23398868.413 4               6     -2618.415          31.000  
G 1  21663696.739 1 113843481.884 1       441.732          47.000    21663699.999 1  88709220.578 1       344.266          44.000  
E30  23945317.539 1 125833517.390 1      -901.147          45.000    23945323.541 1  96417895.401 1      -690.583          45.000  
J 2  38628568.744 1 202994504.463 1       110.631          45.000    38628568.847 1 158177522.665 1        86.091          43.000  
J 3  40398380.862 1 212294923.491 1     -1733.751          44.000    40398381.291 1 165424646.940 1     -1351.086          42.000  
C 9                                                                  39243409.097 1 158016945.370 2     -2096.483          40.000  
> 2020  6  3  3  2 57.0040000  0 24                     
E15  24134154.476 1 126825845.731 1      -681.978          47.000    24134161.418 1  97178266.365 1      -522.691          46.000  
G11  21551427.057 1 113253507.981 1     -2019.934          46.000                                                                  
G22  25358429.324 1 133259428.300 3       775.045          35.000                                                                  
G 7  21792375.943 1 114519697.856 2       257.258          40.000    21792375.088 1  89236134.073 3       200.093          35.000  
E14  24493198.969 1 128712640.077 1      3909.524          43.000    24493204.159 1  98623984.182 2      2995.492          42.000  
C23  24717278.532 1 128709356.497 1     -3092.623          45.000                                                                  
C27  23101219.985 1 120294117.366 1      -366.137          48.000                                                                  
C 8  38007663.245 1 197915899.599 1       134.491          44.000    38007661.701 1 153041105.368 1       104.019          44.000  
C28  23815865.185 1 124015456.810 1     -2999.603          47.000                                                                  
C 7  37695584.263 1 196290796.666 1      -545.594          45.000    37695580.499 1 151784479.227 1      -422.150          44.000  
C13  39080330.084 1 203501521.598 2       331.136          39.000    39080335.359 1 157360319.636 3       256.190          37.000  
R22  21018662.607 4 112199046.633 1     -3525.042          45.000    21018665.493 4  87265940.140 2     -2741.775          42.000  
R12  20897928.773 4 111632987.587 1       654.753          46.000    20897933.011 4  86825669.755 1       509.241          45.000  
R11  21742298.735 4 116184254.527 2     -2669.433          41.000    21742303.370 4  90365538.937 1     -2076.270          46.000  
R23  21405362.704 9               8      1048.637          27.000    21405361.619 8               9       812.955          24.000  
R24  24610502.223 9               8      2661.903          28.000    24610559.027 8               9      2070.578          27.000  
G 9  25056531.842 2               8     -3244.806          25.000    25056532.956 4               9     -2527.582          25.000  
J 7  37647935.866 1 197841257.140 2     -1052.057          40.000    37647940.300 1 154162025.407 1      -819.875          46.000  
G 8  23399492.286 1 122965176.176 4     -3359.976          32.000    23399507.194 4               6     -2618.277          31.000  
G 1  21663612.779 1 113843040.774 1       440.128          47.000    21663616.052 1  88708876.849 1       342.917          44.000  
E30  23945489.073 1 125834419.156 1      -902.511          45.000    23945495.100 1  96418586.359 1      -691.575          45.000  
J 2  38628547.694 1 202994394.272 1       109.464          45.000    38628547.786 1 158177436.793 1        85.393          43.000  
J 3  40398710.957 1 212296657.695 1     -1734.798          44.000    40398711.317 1 165425998.273 1     -1351.918          42.000  
C 9                                                                  39243929.810 1 158019042.057 2     -2097.074          39.000  
> 2020  6  3  3  2 58.0040000  0 24                     
E15  24134284.311 1 126826528.352 1      -683.430          47.000    24134291.277 1  97178789.404 1      -523.699          46.000  
G11  21551811.646 1 113255528.506 1     -2021.438          46.000                                                                  
G22  25358282.106 1 133258653.422 3       774.268          34.000                                                                  
G 7  21792327.200 1 114519441.590 2       255.306          40.000    21792326.288 1  89235934.356 3       198.749          35.000  
E14  24492454.884 1 128708730.997 1      3908.411          43.000    24492460.221 1  98620988.902 1      2994.714          42.000  
C23  24717872.597 1 128712449.645 1     -3093.961          45.000                                                                  
C27  23101290.473 1 120294484.054 1      -367.627          49.000                                                                  
C 8  38007637.714 1 197915765.520 1       133.571          44.000    38007636.011 1 153041001.703 1       103.212          43.000  
C28  23816441.276 1 124018456.885 1     -3000.751          47.000                                                                  
C 7  37695689.026 1 196291342.901 1      -546.699          44.000    37695685.458 1 151784901.596 1      -422.805          44.000  
C13  39080266.620 1 203501190.902 2       330.254          39.000    39080271.847 1 157360063.923 3       255.382          37.000  
R22  21019323.124 4 112202572.370 1     -3526.530          45.000    21019325.915 4  87268682.377 2     -2743.211          42.000  
R12  20897806.333 4 111632333.513 1       653.276          46.000    20897810.567 4  86825161.033 1       507.902          45.000  
R11  21742798.242 4 116186924.916 2     -2671.310          41.000    21742803.310 4  90367615.925 1     -2077.768          46.000  
R23  21405157.725 9               7      1047.775          31.000    21405169.249 9               9       814.900          23.000  
R24  24610002.631 9               7      2661.113          27.000    24610061.107 8               9      2069.928          26.000  
G 9  25057149.423 2               8     -3245.306          25.000    25057149.996 4               9     -2529.413          24.000  
J 7  37648136.064 1 197842309.690 2     -1053.010          40.000    37648140.576 1 154162845.573 1      -820.632          46.000  
G 8  23400131.533 1 122968536.074 4     -3360.384          32.000    23400146.107 2               6     -2618.434          31.000  
G 1  21663529.056 1 113842601.295 1       438.312          47.000    21663532.222 1  88708534.395 1       341.584          44.000  
E30  23945660.797 1 125835322.087 1      -903.765          45.000    23945666.953 1  96419278.212 1      -692.484          45.000  
J 2  38628526.931 1 202994285.088 1       108.481          45.000    38628527.028 1 158177351.717 1        84.540          43.000  
J 3  40399041.146 1 212298392.828 1     -1735.746          44.000    40399041.447 1 165427350.317 1     -1352.583          42.000  
C 9                                                                  39244450.772 1 158021139.469 2     -2097.850          39.000  
> 2020  6  3  3  2 59.0040000  0 24                     
E15  24134414.428 1 126827212.616 1      -685.000          46.000    24134421.461 1  97179313.711 1      -524.877          46.000  
G11  21552196.414 1 113257550.753 1     -2023.050          45.000                                                                  
G22  25358135.120 1 133257879.759 3       773.433          34.000                                                                  
G 7  21792278.766 1 114519187.104 2       253.463          40.000    21792277.980 2  89235736.056 4       197.538          35.000  
E14  24491711.041 1 128704823.216 1      3907.174          43.000    24491716.624 1  98617994.618 1      2993.857          42.000  
C23  24718467.036 1 128715544.333 1     -3095.566          45.000                                                                  
C27  23101361.243 1 120294852.331 1      -369.088          48.000                                                                  
C 8  38007612.403 1 197915632.794 2       132.142          44.000    38007610.468 1 153040899.060 1       102.296          43.000  
C28  23817017.610 1 124021458.369 1     -3002.198          47.000                                                                  
C 7  37695794.387 1 196291890.256 1      -547.755          45.000    37695790.541 1 151785324.851 1      -423.657          44.000  
C13  39080203.453 1 203500861.496 2       328.803          39.000    39080208.656 1 157359809.210 3       254.232          37.000  
R22  21019983.932 4 112206099.865 1     -3528.301          45.000    21019986.747 4  87271425.973 2     -2744.385          42.000  
R12  20897684.268 4 111631681.148 1       651.646          46.000    20897688.525 4  86824653.629 1       506.785          46.000  
R11  21743298.243 4 116189597.171 2     -2673.250          42.000    21743303.586 4  90369694.347 1     -2079.078          47.000  
R23  21404953.494 9               9      1045.071          30.000                                                                  
R24  24609503.728 9               7      2659.680          27.000    24609563.410 8               9      2068.761          26.000  
G 9  25057767.065 2               9     -3246.558          25.000    25057765.596 8               9     -2531.364          23.000  
J 7  37648336.634 1 197843363.445 2     -1054.459          40.000    37648340.943 1 154163666.676 1      -821.514          46.000  
G 8  23400771.029 1 122971897.261 5     -3361.666          31.000    23400785.154 4               7     -2620.010          30.000  
G 1  21663445.640 1 113842163.640 1       436.765          47.000    21663448.804 1  88708193.374 1       340.478          44.000  
E30  23945832.988 1 125836226.407 1      -904.921          45.000    23945839.111 1  96419971.137 1      -693.508          45.000  
J 2  38628506.439 1 202994177.124 1       107.277          45.000    38628506.514 1 158177267.588 2        83.550          43.000  
J 3  40399371.556 1 212300129.081 1     -1736.726          44.000    40399371.894 1 165428703.254 2     -1353.658          43.000  
C 9                                                                  39244971.932 1 158023237.837 2     -2098.798          40.000  
> 2020  6  3  3  3  0.0040000  0 24                     
E15  24134544.826 1 126827898.368 1      -686.539          46.000    24134552.009 1  97179839.167 1      -526.145          46.000  
G11  21552581.565 1 113259574.575 1     -2024.886          45.000                                                                  
G22  25357988.248 1 133257107.105 3       772.251          34.000                                                                  
G 7  21792230.716 1 114518934.248 2       252.006          40.000    21792229.868 1  89235539.021 3       196.550          35.000  
E14  24490967.793 1 128700916.594 1      3905.972          43.000    24490973.120 1  98615001.243 1      2992.788          42.000  
C23  24719061.780 1 128718640.410 1     -3096.898          45.000                                                                  
C27  23101432.277 1 120295222.059 1      -370.553          49.000                                                                  
C 8  38007587.373 1 197915501.259 1       130.987          45.000    38007585.247 1 153040797.370 1       101.084          43.000  
C28  23817594.260 1 124024461.099 1     -3003.254          47.000                                                                  
C 7  37695899.624 1 196292438.616 1      -549.043          45.000    37695895.850 1 151785748.882 1      -424.657          44.000  
C13  39080140.465 1 203500533.235 2       327.794          39.000    39080145.715 1 157359555.378 3       253.442          37.000  
R22  21020645.075 4 112209628.976 1     -3529.984          45.000    21020647.849 4  87274170.834 2     -2745.497          42.000  
R12  20897562.388 4 111631030.355 1       649.862          46.000    20897566.733 4  86824147.443 1       505.704          46.000  
R11  21743798.461 4 116192271.117 2     -2674.776          42.000    21743804.154 4  90371774.087 1     -2080.423          47.000  
R23  21404747.724 9               9      1043.936          29.000                                                                  
R24  24609006.100 9               8      2658.029          28.000    24609065.956 8               9      2066.675          25.000  
G 9  25058384.748 2               9     -3248.358          25.000    25058376.766 9               9     -2530.654          23.000  
J 7  37648537.391 1 197844418.211 2     -1055.264          40.000    37648541.656 1 154164488.582 1      -822.325          46.000  
G 8  23401410.414 2 122975259.468 5     -3362.218          30.000    23401424.585 4               7     -2620.734          30.000  
G 1  21663362.516 1 113841727.711 1       434.964          46.000    21663365.716 1  88707853.701 1       338.852          43.000  
E30  23946005.648 1 125837131.981 1      -906.258          46.000    23946011.414 1  96420665.021 1      -694.609          46.000  
J 2  38628486.100 1 202994070.240 1       106.139          45.000    38628486.105 1 158177184.292 1        82.749          43.000  
J 3  40399702.091 1 212301866.316 1     -1737.873          44.000    40399702.529 1 165430056.937 1     -1354.186          43.000  
C 9                                                                  39245493.348 1 158025337.016 2     -2099.779          39.000  
> 2020  6  3  3  3  1.0040000  0 24                     
E15  24134675.589 1 126828585.494 1      -687.852          46.000    24134682.889 1  97180365.661 1      -527.123          46.000  
G11  21552966.919 1 113261599.819 1     -2025.904          45.000                                                                  
G22  25357841.559 1 133256335.359 4       771.846          34.000                                                                  
G 7  21792182.851 1 114518682.920 2       250.652          40.000    21792182.041 1  89235343.184 3       195.684          35.000  
E14  24490224.419 1 128697010.981 2      3905.246          42.000    24490229.888 1  98612008.635 2      2992.208          42.000  
C23  24719656.613 1 128721737.743 1     -3097.864          45.000                                                                  
C27  23101503.440 1 120295593.122 1      -371.641          49.000                                                                  
C 8  38007562.565 1 197915370.803 1       129.991          45.000    38007560.168 1 153040696.495 1       100.397          43.000  
C28  23818171.171 1 124027464.965 1     -3004.335          47.000                                                                  
C 7  37696005.093 1 196292987.830 1      -549.396          45.000    37696001.277 1 151786173.567 1      -425.098          44.000  
C13  39080077.698 1 203500205.939 2       326.801          39.000    39080082.886 1 157359302.306 3       252.466          37.000  
R22  21021306.410 4 112213159.563 1     -3531.270          45.000    21021309.299 4  87276916.841 2     -2746.510          42.000  
R12  20897440.714 4 111630380.950 1       648.763          46.000    20897445.114 4  86823642.363 1       504.581          46.000  
R11  21744299.087 4 116194946.590 1     -2676.081          43.000    21744304.974 4  90373855.012 1     -2081.532          47.000  
R23  21404536.524 9               9      1041.842          28.000                                                                  
R24  24608509.153 9               8      2657.019          28.000    24608570.528 8               9      2066.069          24.000  
G 9  25059002.671 2               9     -3248.535          25.000    25058987.770 9               9     -2530.323          22.000  
J 7  37648738.351 1 197845473.928 2     -1056.010          40.000    37648742.578 1 154165311.213 1      -823.088          46.000  
G 8  23402050.110 2 122978622.651 5     -3364.175          30.000    23402064.172 2               6     -2621.010          29.000  
G 1  21663279.761 1 113841293.342 1       433.568          46.000    21663282.893 1  88707515.228 1       337.723          43.000  
E30  23946177.977 1 125838038.669 1      -907.227          46.000    23946184.047 1  96421359.745 1      -695.097          45.000  
J 2  38628466.011 1 202993964.290 1       105.501          46.000    38628465.919 1 158177101.740 1        82.332          42.000  
J 3  40400032.849 1 212303604.411 1     -1738.417          44.000    40400033.299 1 165431411.289 1     -1354.607          43.000  
C 9                                                                  39246014.868 1 158027436.914 2     -2100.201          39.000  
> 2020  6  3  3  3  2.0040000  0 24                     
E15  24134806.546 1 126829274.011 1      -689.383          46.000    24134813.829 1  97180893.214 1      -528.177          46.000  
G11  21553352.693 1 113263626.544 1     -2027.504          45.000                                                                  
G22  25357695.005 1 133255564.564 4       770.331          34.000                                                                  
G 7  21792135.380 1 114518433.156 2       248.678          40.000    21792134.539 1  89235148.553 3       193.820          35.000  
E14  24489481.438 1 128693106.441 1      3903.825          42.000    24489486.936 1  98609016.837 1      2991.262          42.000  
C23  24720251.712 1 128724836.384 1     -3099.483          45.000                                                                  
C27  23101574.947 1 120295965.521 1      -373.127          49.000                                                                  
C 8  38007538.028 1 197915241.427 1       128.815          45.000    38007535.265 1 153040596.444 1        99.413          44.000  
C28  23818748.225 1 124030470.001 1     -3005.722          47.000                                                                  
C 7  37696110.721 1 196293537.971 1      -550.754          45.000    37696106.914 1 151786598.967 1      -425.962          44.000  
C13  39080015.165 1 203499879.715 2       325.439          39.000    39080020.204 1 157359050.007 3       252.105          37.000  
R22  21021968.157 4 112216691.665 1     -3532.958          45.000    21021971.027 4  87279664.034 2     -2747.716          42.000  
R12  20897319.339 4 111629732.953 1       647.219          46.000    20897323.866 4  86823138.362 1       503.299          46.000  
R11  21744800.117 4 116197623.609 1     -2677.783          43.000    21744806.043 4  90375937.130 1     -2082.673          47.000  
R23  21404334.069 9               9      1040.160          29.000                                                                  
R24  24608013.844 9               8      2655.846          28.000    24608077.874 9               9      2066.082          24.000  
G 9  25059620.799 2               9     -3249.359          24.000    25059598.549 9               9     -2539.320          21.000  
J 7  37648939.420 1 197846530.573 2     -1057.140          40.000    37648943.623 1 154166134.571 1      -823.926          46.000  
G 8  23402689.458 2 122981986.783 5     -3365.206          29.000    23402703.892 4               6     -2621.881          29.000  
G 1  21663197.393 1 113840860.558 1       431.932          46.000    21663200.317 1  88707177.991 1       336.688          43.000  
E30  23946350.657 1 125838946.508 1      -908.599          45.000    23946356.938 1  96422055.367 1      -696.228          45.000  
J 2  38628445.969 1 202993859.332 1       104.437          45.000    38628445.917 1 158177019.957 2        81.402          42.000  
J 3  40400363.824 1 212305343.396 1     -1739.512          44.000    40400364.202 1 165432766.355 1     -1355.582          43.000  
C 9                                                                  39246536.604 1 158029537.549 2     -2101.085          39.000  
> 2020  6  3  3  3  3.0040000  0 24                     
E15  24134937.719 1 126829963.904 1      -690.493          46.000    24134945.107 1  97181421.842 1      -529.137          46.000  
G11  21553738.649 1 113265654.739 1     -2028.831          45.000                                                                  
G22  25357548.555 1 133254794.720 3       769.317          34.000                                                                  
G 7  21792088.133 1 114518184.909 2       247.477          40.000    21792087.242 2  89234955.121 4       192.857          35.000  
E14  24488738.632 1 128689202.925 1      3903.172          42.000    24488744.160 1  98606025.825 2      2990.657          42.000  
C23  24720847.068 1 128727936.309 1     -3100.460          45.000                                                                  
C27  23101646.735 1 120296339.261 1      -374.331          49.000                                                                  
C 8  38007513.636 1 197915113.141 1       127.847          45.000    38007510.668 1 153040497.245 1        98.790          44.000  
C28  23819325.498 1 124033476.183 1     -3006.830          47.000                                                                  
C 7  37696216.561 1 196294088.990 1      -551.498          45.000    37696212.692 1 151787025.048 1      -426.642          43.000  
C13  39079952.734 1 203499554.459 2       324.978          39.000    39079957.722 1 157358798.530 3       251.212          37.000  
R22  21022630.128 4 112220225.264 1     -3534.271          45.000    21022632.949 4  87282412.403 2     -2748.916          42.000  
R12  20897198.318 4 111629086.370 1       645.997          46.000    20897202.730 4  86822635.464 1       502.317          46.000  
R11  21745301.428 4 116200302.165 1     -2679.466          43.000    21745307.581 4  90378020.461 1     -2084.006          47.000  
R23  21404135.035 8               8      1039.091          29.000                                                                  
R24  24607518.241 9               7      2655.072          29.000    24607583.189 9               9      2064.920          24.000  
G 9  25060238.921 2               9     -3250.482          24.000    25060209.786 9               9     -2532.110          20.000  
J 7  37649140.660 1 197847588.175 2     -1058.041          40.000    37649144.773 1 154166958.670 1      -824.561          46.000  
G 8  23403329.224 2 122985351.848 5     -3365.272          29.000    23403343.684 4               6     -2622.705          28.000  
G 1  21663115.224 1 113840429.372 1       430.386          46.000    21663118.066 1  88706842.004 2       335.317          43.000  
E30  23946523.797 1 125839855.489 1      -909.530          46.000    23946529.962 1  96422751.849 1      -696.990          45.000  
J 2  38628426.246 1 202993755.339 1       103.699          45.000    38628426.008 1 158176938.925 2        80.823          42.000  
J 3  40400694.996 1 212307083.256 1     -1740.314          44.000    40400695.251 1 165434122.085 1     -1356.073          43.000  
C 9                                                                  39247058.481 1 158031638.932 2     -2102.019          39.000  
> 2020  6  3  3  3  4.0040000  0 24                     
E15  24135069.251 1 126830655.200 1      -692.144          46.000    24135076.717 1  97181951.531 1      -530.224          46.000  
G11  21554124.952 1 113267684.414 1     -2030.518          45.000                                                                  
G22  25357402.521 1 133254025.810 4       767.824          33.000                                                                  
G 7  21792041.243 1 114517938.178 2       245.901          40.000    21792040.310 1  89234762.887 4       191.458          35.000  
E14  24487995.782 1 128685300.468 2      3901.919          42.000    24488001.671 1  98603035.639 2      2989.623          42.000  
C23  24721442.733 1 128731037.536 1     -3102.060          45.000                                                                  
C27  23101718.772 1 120296714.343 1      -375.775          49.000                                                                  
C 8  38007489.400 1 197914985.964 1       126.535          45.000    38007486.286 1 153040398.904 1        97.725          44.000  
C28  23819902.938 1 124036483.517 1     -3008.049          47.000                                                                  
C 7  37696322.641 1 196294640.887 1      -552.499          45.000    37696318.597 1 151787451.822 1      -427.471          43.000  
C13  39079890.480 1 203499230.295 2       323.533          39.000    39079895.515 1 157358547.853 3       250.027          37.000  
R22  21023292.377 4 112223760.383 1     -3536.139          45.000    21023295.123 4  87285161.929 2     -2750.334          42.000  
R12  20897077.636 4 111628441.268 1       644.199          46.000    20897082.057 4  86822133.710 1       500.948          46.000  
R11  21745803.047 4 116202982.268 1     -2681.052          44.000    21745809.246 4  90380104.999 1     -2085.269          46.000  
R23  21403940.108 8 114497045.81015      1036.382          33.000                                                                  
R24  24607025.596 8               7      2651.441          29.000    24607089.085 9               9      2063.724          23.000  
G 9  25060857.453 2               9     -3251.593          25.000    25060818.574 9               9     -2531.758          20.000  
J 7  37649341.973 1 197848646.711 2     -1059.194          40.000    37649346.146 1 154167783.513 1      -825.460          46.000  
G 8  23403969.087 2 122988717.919 5     -3366.868          28.000    23403983.577 4               8     -2623.242          28.000  
G 1  21663033.422 1 113839999.793 1       428.424          46.000    21663036.168 1  88706507.268 2       333.944          43.000  
E30  23946696.918 1 125840765.614 1      -910.897          45.000    23946703.143 1  96423449.230 1      -697.946          46.000  
J 2  38628406.730 1 202993652.320 1       102.398          45.000    38628406.364 1 158176858.653 2        79.814          42.000  
J 3  40401026.240 1 212308824.014 1     -1741.413          44.000    40401026.393 1 165435478.509 1     -1356.824          42.000  
C 9                                                                  39247580.588 1 158033741.057 2     -2102.512          40.000  
> 2020  6  3  3  3  5.0040000  0 24                     
E15  24135200.943 1 126831347.850 1      -693.381          46.000    24135208.553 1  97182482.266 1      -531.257          46.000  
G11  21554511.442 1 113269715.526 1     -2031.877          45.000                                                                  
G22  25357256.480 1 133253257.710 4       767.658          33.000                                                                  
G 7  21791994.548 1 114517693.000 2       244.056          40.000    21791993.665 1  89234571.815 3       190.434          35.000  
E14  24487253.395 1 128681399.035 2      3900.852          42.000    24487259.124 1  98600046.218 2      2988.938          42.000  
C23  24722038.814 1 128734140.005 1     -3103.207          45.000                                                                  
C27  23101791.109 1 120297090.739 1      -377.088          48.000                                                                  
C 8  38007465.432 1 197914859.857 1       125.388          45.000    38007462.156 1 153040301.385 1        97.165          44.000  
C28  23820480.594 1 124039491.970 1     -3009.169          47.000                                                                  
C 7  37696428.880 1 196295193.671 1      -553.334          45.000    37696424.826 1 151787879.257 1      -427.976          43.000  
C13  39079828.467 1 203498907.090 2       322.749          39.000    39079833.651 1 157358297.938 3       249.689          37.000  
R22  21023954.812 4 112227296.963 1     -3537.385          44.000    21023957.542 4  87287912.611 2     -2751.284          42.000  
R12  20896957.172 4 111627797.588 1       643.011          46.000    20896961.580 4  86821633.073 1       500.022          46.000  
R11  21746305.095 4 116205663.950 1     -2682.301          45.000    21746311.315 4  90382190.762 1     -2086.367          46.000  
R23  21403746.510 8 114496009.812 4      1035.749          33.000                                                                  
R24  24606533.443 8               7      2652.011          29.000    24606594.546 9               9      2063.749          23.000  
G 9  25061476.242 2               9     -3251.782          24.000    25061430.884 9               9     -2546.572          21.000  
J 7  37649543.631 1 197849706.157 2     -1059.785          40.000    37649547.706 1 154168609.046 1      -825.876          46.000  
G 8  23404609.432 2 122992084.903 5     -3368.012          29.000    23404623.607 4               8     -2623.739          27.000  
G 1  21662951.995 1 113839571.750 1       427.256          46.000    21662954.667 1  88706173.743 2       332.835          43.000  
E30  23946869.958 1 125841676.853 1      -911.900          45.000    23946876.389 1  96424147.446 1      -698.668          46.000  
J 2  38628387.312 1 202993550.248 1       101.671          45.000    38628386.927 1 158176779.116 1        79.153          42.000  
J 3  40401357.551 1 212310565.598 1     -1741.928          44.000    40401357.790 1 165436835.587 1     -1357.493          42.000  
C 9                                                                  39248102.858 1 158035843.859 2     -2102.768          40.000  
> 2020  6  3  3  3  6.0040000  0 24                     
E15  24135333.031 1 126832041.835 1      -694.648          46.000    24135340.563 1  97183014.020 1      -532.243          46.000  
G11  21554898.249 1 113271748.057 1     -2033.485          45.000                                                                  
G22  25357110.530 1 133252490.582 4       766.772          33.000                                                                  
G 7  21791948.159 1 114517449.301 2       242.784          40.000    21791947.172 1  89234381.918 3       189.263          35.000  
E14  24486511.040 1 128677498.593 2      3899.986          42.000    24486516.942 1  98597057.565 2      2988.237          42.000  
C23  24722635.094 1 128737243.728 1     -3104.420          45.000                                                                  
C27  23101863.645 1 120297468.434 1      -378.373          49.000                                                                  
C 8  38007441.614 1 197914734.773 1       124.497          45.000    38007438.213 1 153040204.671 1        96.141          44.000  
C28  23821058.429 1 124042501.527 1     -3010.123          47.000                                                                  
C 7  37696535.185 1 196295747.294 1      -554.009          45.000    37696531.192 1 151788307.367 1      -428.652          43.000  
C13  39079766.738 1 203498584.905 2       321.703          39.000    39079771.737 1 157358048.795 3       248.528          37.000  
R22  21024617.566 4 112230834.996 1     -3538.997          44.000    21024620.335 4  87290664.414 2     -2752.524          42.000  
R12  20896836.959 4 111627155.304 1       641.535          46.000    20896841.319 4  86821133.505 1       499.052          46.000  
R11  21746807.402 4 116208347.198 1     -2683.979          45.000    21746813.520 4  90384277.727 1     -2087.555          46.000  
R23  21403553.110 4 114494975.539 4      1033.377          34.000                                                                  
R24  24606041.252 8               7      2650.516          29.000    24606098.793 9               9      2060.073          22.000  
G 9  25062094.983 2               9     -3253.662          24.000    25062046.877 9               9     -2532.494          20.000  
J 7  37649745.427 1 197850766.509 2     -1060.969          40.000    37649749.427 1 154169435.295 1      -826.641          46.000  
G 8  23405249.778 2               6     -3369.110          29.000    23405263.960 4               8     -2624.603          27.000  
G 1  21662870.747 1 113839145.259 1       425.830          46.000    21662873.419 1  88705841.408 2       331.608          43.000  
E30  23947043.421 1 125842589.167 1      -912.899          45.000    23947050.139 1  96424846.491 1      -699.463          45.000  
J 2  38628368.021 1 202993449.102 1       100.577          45.000    38628367.567 1 158176700.304 2        78.348          42.000  
J 3  40401689.163 1 212312308.027 1     -1742.809          44.000    40401689.402 1 165438193.322 2     -1358.142          42.000  
C 9                                                                  39248625.313 1 158037947.396 2     -2104.126          40.000  
> 2020  6  3  3  3  7.0040000  0 24                     
E15  24135465.281 1 126832737.260 1      -695.997          46.000    24135472.800 1  97183546.879 1      -533.365          46.000  
G11  21555285.341 1 113273782.084 1     -2034.735          45.000                                                                  
G22  25356964.738 1 133251724.444 4       765.467          33.000                                                                  
G 7  21791902.149 1 114517207.168 2       241.404          40.000    21791901.110 1  89234193.233 3       188.590          35.000  
E14  24485769.094 1 128673599.228 2      3899.141          42.000    24485774.855 1  98594069.752 2      2987.556          41.000  
C23  24723231.318 1 128740348.764 1     -3105.686          45.000                                                                  
C27  23101936.337 1 120297847.503 1      -379.569          48.000                                                                  
C 8  38007417.952 1 197914610.828 1       123.459          45.000    38007414.403 1 153040108.834 1        95.392          44.000  
C28  23821636.432 1 124045512.275 1     -3011.315          47.000                                                                  
C 7  37696641.791 1 196296301.860 1      -554.854          45.000    37696637.725 1 151788736.183 1      -429.098          43.000  
C13  39079704.920 1 203498263.747 2       320.664          39.000    39079710.061 1 157357800.481 3       247.864          37.000  
R22  21025280.616 4 112234374.582 1     -3540.196          44.000    21025283.448 4  87293417.430 2     -2753.584          41.000  
R12  20896717.047 4 111626514.420 1       640.480          46.000    20896721.406 4  86820635.065 1       498.088          45.000  
R11  21747309.953 4 116211032.038 1     -2685.537          46.000    21747315.994 4  90386365.948 1     -2088.753          46.000  
R23  21403360.178 4 114493942.836 4      1031.679          34.000                                                                  
R24  24605550.552 9               6      2649.579          29.000    24605603.673 9               9      2066.865          22.000  
G 9  25062714.232 2               9     -3254.028          24.000    25062661.200 9               9     -2532.113          21.000  
J 7  37649947.383 1 197851827.831 2     -1061.962          40.000    37649951.311 1 154170262.301 1      -827.166          46.000  
G 8  23405890.549 2               6     -3368.373          30.000    23405904.192 4               8     -2625.786          27.000  
G 1  21662789.866 1 113838720.427 1       424.058          46.000    21662792.484 1  88705510.359 1       330.565          43.000  
E30  23947217.173 1 125843502.675 1      -913.916          45.000    23947224.111 1  96425546.462 1      -700.313          46.000  
J 2  38628349.021 1 202993348.972 1        99.712          46.000    38628348.515 1 158176622.282 1        77.508          42.000  
J 3  40402020.915 1 212314051.370 1     -1743.539          44.000    40402021.224 1 165439551.784 1     -1358.777          43.000  
C 9                                                                  39249147.995 1 158040051.689 2     -2104.794          40.000  
> 2020  6  3  3  3  8.0040000  0 24                     
E15  24135597.673 1 126833433.931 1      -697.225          46.000    24135605.266 1  97184080.698 1      -534.332          46.000  
G11  21555672.588 1 113275817.453 1     -2035.741          45.000                                                                  
G22  25356819.313 1 133250959.011 4       765.240          33.000                                                                  
G 7  21791856.358 1 114516966.449 2       240.037          40.000    21791855.298 1  89234005.659 4       186.792          35.000  
E14  24485027.334 1 128669700.808 2      3898.087          42.000    24485033.040 1  98591082.651 2      2986.993          42.000  
C23  24723827.809 1 128743454.970 1     -3106.715          45.000                                                                  
C27  23102009.385 1 120298227.802 1      -380.750          49.000                                                                  
C 8  38007394.585 1 197914487.861 1       122.639          45.000    38007390.797 1 153040013.745 1        94.835          44.000  
C28  23822215.071 1 124048524.044 1     -3012.028          47.000                                                                  
C 7  37696748.458 1 196296857.202 1      -555.731          45.000    37696744.330 1 151789165.593 1      -429.442          44.000  
C13  39079643.401 1 203497943.497 2       320.001          38.000    39079648.615 1 157357552.838 3       247.083          37.000  
R22  21025944.052 4 112237915.534 1     -3541.440          44.000    21025946.797 4  87296171.513 2     -2754.607          42.000  
R12  20896597.315 4 111625874.850 1       639.181          46.000    20896601.565 4  86820137.611 1       497.271          45.000  
R11  21747812.879 4 116213718.308 1     -2686.651          46.000    21747818.755 4  90388455.284 1     -2089.876          46.000  
R23  21403167.249 4 114492911.673 4      1030.812          35.000                                                                  
R24  24605056.522 8               6      2648.636          30.000                                                                  
G 9  25063333.379 2               9     -3254.730          25.000    25063277.247 9               9     -2536.531          22.000  
J 7  37650149.546 1 197852889.948 2     -1062.186          40.000    37650153.492 1 154171089.936 1      -827.753          46.000  
G 8  23406531.536 2 123002191.449 5     -3369.827          30.000    23406544.514 4               9     -2626.084          27.000  
G 1  21662709.245 1 113838297.031 1       422.950          46.000    21662711.795 1  88705180.448 1       329.498          42.000  
E30  23947391.255 1 125844417.210 1      -914.883          45.000    23947398.033 1  96426247.203 1      -701.005          46.000  
J 2  38628330.108 1 202993249.671 1        98.969          46.000    38628329.536 1 158176544.900 1        77.283          42.000  
J 3  40402352.630 1 212315795.467 1     -1744.209          44.000    40402353.087 1 165440910.816 2     -1359.267          42.000  
C 9                                                                  39249670.741 1 158042156.627 2     -2105.051          40.000  
> 2020  6  3  3  3  9.0040000  0 24                     
E15  24135730.660 1 126834131.778 1      -698.239          46.000    24135738.131 1  97184615.403 1      -535.050          46.000  
G11  21556060.251 1 113277854.095 1     -2037.049          45.000                                                                  
G22  25356673.794 2 133250194.412 5       763.989          32.000                                                                  
G 7  21791810.732 1 114516727.043 1       238.786          40.000    21791809.694 1  89233819.105 3       186.527          35.000  
E14  24484285.721 1 128665803.212 2      3897.328          42.000    24484291.312 1  98588096.178 2      2986.359          42.000  
C23  24724424.437 1 128746562.250 1     -3107.752          45.000                                                                  
C27  23102082.658 1 120298609.216 1      -381.840          49.000                                                                  
C 8  38007371.345 1 197914365.769 1       121.792          45.000    38007367.296 1 153039919.336 1        94.201          44.000  
C28  23822793.578 1 124051536.753 1     -3013.013          47.000                                                                  
C 7  37696855.239 1 196297413.198 1      -556.296          45.000    37696851.202 1 151789595.532 1      -430.089          44.000  
C13  39079582.096 1 203497623.999 2       319.482          39.000    39079587.232 1 157357305.797 3       246.510          37.000  
R22  21026607.703 4 112241457.772 1     -3542.634          44.000    21026610.454 4  87298926.593 2     -2755.594          42.000  
R12  20896477.823 4 111625236.524 1       637.935          46.000    20896482.002 4  86819641.146 1       495.983          45.000  
R11  21748316.081 4 116216405.912 1     -2688.148          47.000    21748321.834 4  90390545.640 1     -2090.907          45.000  
R23  21402974.315 4 114491881.968 3      1029.332          36.000                                                                  
R24  24604558.581 8               7      2647.244          31.000                                                                  
G 9  25063952.629 2               9     -3255.841          25.000    25063895.328 9               9     -2532.218          21.000  
J 7  37650351.834 1 197853952.814 2     -1063.020          40.000    37650355.811 1 154171918.131 1      -828.260          46.000  
G 8  23407172.860 2 123005561.997 5     -3370.853          31.000    23407185.105 4               9     -2627.220          27.000  
G 1  21662629.072 1 113837875.018 1       421.348          47.000    21662631.296 1  88704851.597 1       328.318          42.000  
E30  23947565.443 1 125845332.670 1      -915.747          45.000    23947572.079 1  96426948.654 1      -701.768          46.000  
J 2  38628311.299 1 202993151.129 1        98.347          46.000    38628310.767 1 158176468.122 2        76.678          42.000  
J 3  40402684.600 1 212317540.226 1     -1744.896          44.000    40402685.184 1 165442270.361 2     -1359.448          42.000  
C 9                                                                  39250193.711 1 158044262.118 2     -2105.668          40.000  
> 2020  6  3  3  3 10.0040000  0 24                     
E15  24135863.767 1 126834830.920 1      -699.891          46.000    24135871.325 1  97185151.104 1      -536.304          46.000  
G11  21556447.975 1 113279892.099 1     -2038.773          45.000                                                                  
G22  25356528.376 1 133249430.622 4       762.467          33.000                                                                  
G 7  21791765.435 1 114516489.081 2       237.310          40.000    21791764.338 2  89233633.664 4       185.497          35.000  
E14  24483544.289 1 128661906.557 2      3896.146          42.000    24483549.906 1  98585110.434 2      2985.235          42.000  
C23  24725021.506 1 128749670.720 1     -3109.231          45.000                                                                  
C27  23102156.198 1 120298991.877 1      -383.283          49.000                                                                  
C 8  38007348.159 1 197914244.639 1       120.689          45.000    38007344.038 1 153039825.685 1        93.238          44.000  
C28  23823372.320 1 124054550.505 1     -3014.333          47.000                                                                  
C 7  37696962.083 1 196297969.991 1      -557.208          45.000    37696958.138 1 151790026.086 1      -430.955          44.000  
C13  39079520.951 1 203497305.509 2       317.862          39.000    39079526.089 1 157357059.469 3       246.059          37.000  
R22  21027271.445 4 112245001.427 1     -3544.433          44.000    21027274.310 4  87301682.751 2     -2756.505          42.000  
R12  20896358.610 4 111624599.561 1       636.177          46.000    20896362.804 4  86819145.714 1       494.933          45.000  
R11  21748819.486 4 116219094.959 1     -2689.703          47.000    21748825.020 4  90392637.114 1     -2092.209          45.000  
R23  21402781.937 4 114490853.790 3      1027.281          36.000                                                                  
R24  24604064.448 8               7      2645.636          31.000                                                                  
G 9  25064572.139 2               9     -3256.659          26.000    25064512.965 9               9     -2538.644          21.000  
J 7  37650554.327 1 197855016.502 2     -1063.938          40.000    37650558.275 1 154172746.981 1      -829.164          46.000  
G 8  23407814.308 2 123008933.368 4     -3371.442          32.000    23407825.806 4               7     -2627.163          27.000  
G 1  21662549.203 1 113837454.495 1       419.669          47.000    21662551.168 1  88704523.923 1       327.130          43.000  
E30  23947739.891 1 125846249.165 1      -917.221          45.000    23947746.530 1  96427650.897 1      -702.664          45.000  
J 2  38628292.718 1 202993053.456 1        97.052          45.000    38628292.122 1 158176392.008 2        75.669          42.000  
J 3  40403016.684 1 212319285.768 1     -1746.069          44.000    40403017.335 1 165443630.534 1     -1360.726          42.000  
C 9                                                                  39250716.745 1 158046368.261 2     -2106.379          40.000  
> 2020  6  3  3  3 11.0040000  0 24                     
E15  24135997.017 1 126835531.389 1      -701.188          46.000    24136004.527 1  97185687.840 1      -537.324          46.000  
G11  21556836.080 1 113281931.517 2     -2040.016          45.000                                                                  
G22  25356383.115 1 133248667.642 4       762.970          33.000                                                                  
G 7  21791720.346 1 114516252.617 2       235.815          40.000    21791719.247 1  89233449.402 3       184.077          35.000  
E14  24482802.920 1 128658010.919 2      3894.931          42.000    24482808.623 1  98582125.448 2      2984.618          42.000  
C23  24725618.757 1 128752780.415 1     -3110.187          46.000                                                                  
C27  23102229.869 1 120299375.843 1      -384.701          49.000                                                                  
C 8  38007325.383 1 197914124.588 1       119.712          45.000    38007320.949 1 153039732.851 1        92.569          44.000  
C28  23823951.412 1 124057565.367 1     -3015.277          47.000                                                                  
C 7  37697069.278 1 196298527.623 1      -558.036          45.000    37697065.245 1 151790457.297 1      -431.805          44.000  
C13  39079460.019 1 203496987.956 2       316.896          39.000    39079465.137 1 157356813.934 3       245.157          37.000  
R22  21027935.492 4 112248546.515 1     -3545.603          44.000    21027938.397 4  87304440.059 2     -2757.751          42.000  
R12  20896239.558 4 111623963.987 1       635.007          46.000    20896243.898 4  86818651.389 1       493.818          45.000  
R11  21749323.277 4 116221785.564 1     -2691.397          47.000    21749328.382 4  90394729.794 1     -2093.238          44.000  
R23  21402589.819 4 114489827.189 3      1025.799          36.000    21402625.059 9               9       798.041          26.000  
R24  24603569.994 8               7      2645.128          31.000                                                                  
G 9  25065191.983 2               8     -3257.226          26.000    25065133.357 9               9     -2540.401          21.000  
J 7  37650756.839 1 197856081.094 2     -1064.974          40.000    37650760.857 1 154173576.542 1      -829.961          46.000  
G 8  23408455.925 1 123012305.719 4     -3373.096          32.000    23408466.978 4               8     -2628.088          28.000  
G 1  21662469.536 1 113837035.517 1       418.224          47.000    21662471.268 1  88704197.453 2       325.940          43.000  
E30  23947914.690 1 125847166.760 1      -918.219          45.000    23947921.175 1  96428353.994 1      -703.495          45.000  
J 2  38628274.272 1 202992956.712 1        96.274          45.000    38628273.700 1 158176316.626 2        74.846          42.000  
J 3  40403349.017 1 212321032.125 1     -1746.684          44.000    40403349.655 1 165444991.327 1     -1361.082          42.000  
C 9                                                                  39251240.049 1 158048475.121 2     -2107.204          40.000  
> 2020  6  3  3  3 12.0040000  0 24                     
E15  24136130.449 1 126836233.273 1      -702.609          46.000    24136138.224 1  97186225.643 1      -538.321          46.000  
G11  21557224.453 1 113283972.440 2     -2041.754          45.000                                                                  
G22  25356238.176 1 133247905.674 4       762.091          33.000                                                                  
G 7  21791675.602 1 114516017.699 2       234.319          40.000    21791674.454 1  89233266.379 4       182.513          34.000  
E14  24482061.712 1 128654116.304 2      3894.215          42.000    24482067.515 1  98579141.281 2      2983.728          42.000  
C23  24726216.166 1 128755891.421 1     -3111.808          45.000                                                                  
C27  23102303.964 1 120299761.164 1      -386.101          49.000                                                                  
C 8  38007302.825 1 197914005.638 1       118.358          45.000    38007298.116 1 153039640.876 1        91.416          44.000  
C28  23824530.453 1 124060581.398 1     -3016.489          47.000                                                                  
C 7  37697176.618 1 196299086.196 1      -558.816          45.000    37697172.567 1 151790889.196 1      -431.946          44.000  
C13  39079399.163 1 203496671.471 2       315.687          39.000    39079404.460 1 157356569.214 3       244.270          37.000  
R22  21028599.977 4 112252093.143 1     -3547.295          44.000    21028602.767 4  87307198.537 2     -2759.019          42.000  
R12  20896120.989 4 111623329.865 1       633.477          46.000    20896125.129 4  86818158.181 1       492.574          45.000  
R11  21749827.350 4 116224477.765 1     -2692.909          47.000    21749832.138 4  90396823.730 1     -2094.595          44.000  
R23  21402397.844 4 114488802.238 3      1024.185          37.000    21402427.942 9               9       797.706          26.000  
R24  24603075.678 4               6      2643.543          31.000                                                                  
G 9  25065811.943 2               7     -3258.374          26.000    25065753.285 9               9     -2537.585          21.000  
J 7  37650959.651 1 197857146.640 2     -1066.116          40.000    37650963.608 1 154174406.831 1      -830.621          46.000  
G 8  23409097.673 2 123015679.031 4     -3373.933          33.000    23409108.354 4               7     -2629.238          28.000  
G 1  21662390.133 1 113836618.132 1       416.538          47.000    21662391.849 1  88703872.233 1       324.559          43.000  
E30  23948089.636 1 125848085.512 1      -919.291          45.000    23948095.990 1  96429057.985 1      -704.471          45.000  
J 2  38628256.132 1 202992860.945 1        95.338          45.000    38628255.390 1 158176242.003 2        74.050          42.000  
J 3  40403681.519 1 212322779.391 1     -1747.623          44.000    40403682.306 1 165446352.832 1     -1362.057          42.000  
C 9                                                                  39251763.483 1 158050582.717 2     -2107.723          40.000  
> 2020  6  3  3  3 13.0040000  0 25                     
E15  24136264.131 1 126836936.524 1      -703.827          46.000    24136272.053 1  97186764.495 1      -539.260          46.000  
G11  21557613.084 1 113286014.797 1     -2042.998          45.000                                                                  
G22  25356093.419 1 133247144.670 4       759.867          34.000                                                                  
G 7  21791631.201 1 114515784.324 2       232.602          40.000    21791630.042 1  89233084.511 4       181.607          34.000  
E14  24481320.770 1 128650222.758 2      3893.151          41.000    24481326.631 1  98576157.905 2      2983.150          42.000  
C23  24726813.938 1 128759003.705 1     -3112.794          46.000                                                                  
C27  23102378.113 1 120300147.804 1      -387.183          49.000                                                                  
C 8  38007280.472 1 197913887.761 1       117.299          45.000    38007275.581 1 153039549.709 1        90.858          44.000  
C28  23825109.883 1 124063598.569 1     -3017.536          47.000                                                                  
C 7  37697284.045 1 196299645.657 1      -559.917          45.000    37697279.977 1 151791321.801 1      -432.690          44.000  
C13  39079338.621 1 203496355.956 2       314.988          38.000    39079343.853 1 157356325.218 3       243.720          37.000  
R22  21029264.549 4 112255641.246 1     -3548.736          44.000    21029267.476 4  87309958.162 2     -2759.823          41.000  
R12  20896002.531 4 111622697.163 1       632.003          46.000    20896006.643 4  86817666.074 1       491.453          45.000  
R11  21750331.631 4 116227171.526 1     -2694.412          47.000    21750336.145 4  90398918.870 1     -2095.668          44.000  
R23  21402206.302 4 114487778.927 3      1022.713          38.000    21402233.516 9               9       796.748          25.000  
R24  24602581.651 4               6      2641.346          32.000                                                                  
G 9  25066432.159 2               7     -3258.984          27.000    25066373.763 9               9     -2542.460          22.000  
J 7  37651162.612 1 197858213.120 2     -1066.953          40.000    37651166.622 1 154175237.851 1      -831.290          46.000  
G 8  23409739.659 1 123019053.296 4     -3374.430          33.000    23409750.045 4               6     -2629.631          29.000  
G 1  21662311.118 1 113836202.340 1       415.153          47.000    21662312.755 1  88703548.238 1       323.361          43.000  
E30  23948264.701 1 125849005.412 1      -920.392          45.000    23948270.985 1  96429762.834 1      -705.290          45.000  
J 2  38628238.199 1 202992766.154 1        94.424          45.000    38628237.395 1 158176168.126 2        73.733          42.000  
J 3  40404014.228 1 212324527.515 1     -1748.376          44.000    40404014.973 1 165447715.004 1     -1362.432          42.000  
E13  26836916.358 4 141028946.356 2      1483.171          37.000                                                                  
C 9                                                                  39252287.096 1 158052691.065 2     -2108.638          40.000  
> 2020  6  3  3  3 14.0040000  0 25                     
E15  24136398.275 1 126837640.920 1      -704.914          46.000    24136406.108 1  97187304.220 1      -540.139          46.000  
G11  21558002.036 1 113288058.372 1     -2043.922          45.000                                                                  
G22  25355948.570 1 133246384.290 4       760.209          34.000                                                                  
G 7  21791587.048 1 114515552.226 2       231.161          40.000    21791585.821 2  89232903.655 4       180.153          34.000  
E14  24480579.818 1 128646330.004 2      3892.367          41.000    24480585.803 1  98573175.152 2      2982.548          42.000  
C23  24727412.026 1 128762117.028 1     -3113.751          46.000                                                                  
C27  23102452.464 1 120300535.540 1      -388.265          49.000                                                                  
C 8  38007258.244 1 197913770.713 1       116.792          45.000    38007253.127 1 153039459.220 1        90.083          44.000  
C28  23825689.514 1 124066616.624 1     -3018.330          46.000                                                                  
C 7  37697391.617 1 196300205.737 1      -560.366          45.000    37697387.521 1 151791754.902 1      -433.329          44.000  
C13  39079278.162 1 203496041.208 2       314.458          38.000    39079283.379 1 157356081.863 2       242.717          37.000  
R22  21029929.460 4 112259190.591 1     -3549.675          44.000    21029932.313 4  87312718.766 2     -2760.752          41.000  
R12  20895884.395 4 111622065.609 1       631.045          46.000    20895888.318 4  86817174.860 1       490.826          45.000  
R11  21750835.985 4 116229866.571 1     -2695.413          46.000    21750840.344 4  90401015.008 2     -2096.385          43.000  
R23  21402015.025 4 114486757.006 2      1021.520          38.000    21402037.138 9               9       794.323          25.000  
R24  24602087.930 4               6      2640.550          31.000    24602142.633 9               9      2054.415          25.000  
G 9  25067052.409 2               7     -3259.900          27.000    25066992.990 9               9     -2535.985          22.000  
J 7  37651365.749 1 197859280.289 2     -1067.404          40.000    37651369.805 1 154176069.412 1      -831.934          46.000  
G 8  23410381.890 1 123022428.284 4     -3375.190          34.000    23410391.965 4               7     -2629.401          30.000  
G 1  21662232.174 1 113835787.873 1       413.861          47.000    21662233.971 1  88703225.267 1       322.540          43.000  
E30  23948440.168 1 125849926.187 1      -921.104          45.000    23948446.353 1  96430468.354 1      -705.685          45.000  
J 2  38628220.391 1 202992672.070 1        93.874          45.000    38628219.472 1 158176094.817 2        72.988          42.000  
J 3  40404346.978 1 212326276.275 1     -1749.065          44.000    40404347.745 1 165449077.673 1     -1362.948          43.000  
E13  26836634.074 2 141027463.798 2      1482.143          37.000                                                                  
C 9                                                                  39252810.859 1 158054799.929 2     -2109.036          41.000  
> 2020  6  3  3  3 15.0040000  0 25                     
E15  24136532.641 1 126838346.673 1      -706.597          46.000    24136540.324 1  97187844.994 1      -541.499          46.000  
G11  21558391.207 1 113290103.398 1     -2045.914          45.000                                                                  
G22  25355803.890 1 133245624.833 3       758.709          34.000                                                                  
G 7  21791543.092 1 114515321.609 2       229.697          40.000    21791541.922 1  89232723.986 4       178.563          34.000  
E14  24479839.051 1 128642438.261 2      3891.000          41.000    24479845.199 1  98570193.169 2      2981.551          42.000  
C23  24728010.095 1 128765231.612 1     -3115.389          46.000                                                                  
C27  23102527.178 1 120300924.580 1      -389.722          49.000                                                                  
C 8  38007236.082 1 197913654.737 1       115.376          45.000    38007230.882 1 153039369.545 1        89.171          44.000  
C28  23826269.235 1 124069635.815 1     -3019.910          46.000                                                                  
C 7  37697499.401 1 196300766.674 1      -561.591          45.000    37697495.187 1 151792188.642 1      -434.071          44.000  
C13  39079217.865 1 203495727.476 2       313.150          38.000    39079223.243 1 157355839.245 3       242.217          37.000  
R22  21030594.629 4 112262741.431 1     -3551.696          44.000    21030597.527 4  87315480.530 2     -2762.401          41.000  
R12  20895766.365 4 111621435.501 1       629.133          46.000    20895770.291 4  86816684.788 1       489.273          45.000  
R11  21751340.782 4 116232563.159 1     -2697.432          46.000    21751344.851 4  90403112.336 1     -2097.969          43.000  
R23  21401824.209 4 114485736.728 3      1019.527          38.000    21401842.478 9               9       791.347          25.000  
R24  24601594.354 4               7      2640.193          31.000    24601650.037 9               9      2053.269          25.000  
G 9  25067672.772 2               7     -3260.516          27.000    25067614.624 9               9     -2543.253          23.000  
J 7  37651568.940 1 197860348.354 2     -1068.591          40.000    37651572.937 1 154176901.682 1      -832.865          46.000  
G 8  23411024.482 1 123025804.183 3     -3375.871          34.000    23411034.155 2               7     -2630.759          31.000  
G 1  21662153.578 1 113835374.973 1       411.974          47.000    21662155.515 1  88702903.538 1       321.074          43.000  
E30  23948615.240 1 125850848.080 1      -922.464          45.000    23948621.622 1  96431174.746 1      -706.953          46.000  
J 2  38628202.738 1 202992578.939 1        92.519          45.000    38628201.790 1 158176022.240 2        72.092          42.000  
J 3  40404679.876 1 212328025.875 1     -1750.103          44.000    40404680.577 1 165450440.997 2     -1363.624          42.000  
E13  26836352.142 1 141025982.399 3      1480.234          38.000                                                                  
C 9                                                                  39253334.795 1 158056909.511 2     -2110.005          41.000  
> 2020  6  3  3  3 16.0040000  0 25                     
E15  24136667.366 1 126839054.025 1      -708.399          46.000    24136674.806 1  97188386.989 1      -542.802          46.000  
G11  21558780.633 1 113292150.086 1     -2047.604          45.000                                                                  
G22  25355659.388 1 133244866.522 3       757.283          34.000                                                                  
G 7  21791499.569 1 114515092.780 2       227.859          40.000    21791498.460 1  89232545.698 4       176.978          34.000  
E14  24479098.883 1 128638547.783 2      3889.760          41.000    24479104.824 1  98567212.142 2      2980.594          42.000  
C23  24728608.489 1 128768347.703 1     -3117.080          46.000                                                                  
C27  23102602.203 1 120301315.190 1      -391.623          49.000                                                                  
C 8  38007214.307 1 197913540.080 1       113.756          45.000    38007208.812 1 153039280.874 1        88.139          44.000  
C28  23826849.281 1 124072656.357 1     -3021.396          46.000                                                                  
C 7  37697607.307 1 196301328.728 1      -562.841          45.000    37697603.049 1 151792623.269 1      -435.209          43.000  
C13  39079157.876 1 203495414.965 3       311.608          38.000    39079163.309 1 157355597.615 3       240.706          37.000  
R22  21031260.051 4 112266293.992 1     -3553.790          44.000    21031262.911 4  87318243.637 2     -2763.968          41.000  
R12  20895648.698 4 111620807.045 1       627.444          46.000    20895652.692 4  86816195.986 1       488.030          45.000  
R11  21751845.876 4 116235261.558 1     -2699.545          46.000    21751849.485 4  90405211.075 1     -2099.587          42.000  
R23  21401633.549 4 114484718.302 3      1017.263          38.000    21401648.792 9               9       790.537          26.000  
R24  24601101.246 4               7      2637.671          30.000    24601156.897 9               9      2051.216          24.000  
G 9  25068293.355 2               6     -3262.598          28.000    25068240.528 9               9     -2539.613          23.000  
J 7  37651772.387 1 197861417.589 2     -1070.009          40.000    37651776.365 1 154177734.846 1      -833.813          46.000  
G 8  23411667.259 1 123029181.322 3     -3377.795          34.000    23411676.779 2               6     -2632.298          31.000  
G 1  21662075.392 1 113834963.880 1       410.149          47.000    21662077.394 1  88702583.212 1       319.678          44.000  
E30  23948790.969 1 125851771.320 1      -924.006          45.000    23948797.363 1  96431882.170 1      -708.132          46.000  
J 2  38628185.118 1 202992486.981 1        91.202          45.000    38628184.320 1 158175950.584 2        71.188          42.000  
J 3  40405013.085 1 212329776.579 1     -1751.502          44.000    40405013.790 1 165451805.171 2     -1364.619          42.000  
E13  26836070.341 1 141024502.354 2      1479.011          38.000                                                                  
C 9                                                                  39253858.886 1 158059020.001 2     -2111.106          41.000  
> 2020  6  3  3  3 17.0040000  0 25                     
E15  24136802.141 1 126839762.899 1      -709.550          46.000    24136809.918 1  97188930.155 1      -543.773          46.000  
G11  21559170.464 1 113294198.383 1     -2049.038          45.000                                                                  
G22  25355515.110 1 133244109.263 3       756.924          35.000                                                                  
G 7  21791456.377 1 114514865.620 2       226.278          41.000    21791455.292 2  89232368.641 4       176.888          34.000  
E14  24478358.806 1 128634658.486 2      3888.752          41.000    24478364.869 1  98564232.046 2      2979.541          42.000  
C23  24729207.266 1 128771465.200 1     -3118.085          46.000                                                                  
C27  23102677.545 1 120301707.262 1      -392.780          49.000                                                                  
C 8  38007192.590 1 197913426.626 1       112.831          45.000    38007186.967 1 153039193.168 1        87.176          43.000  
C28  23827429.708 1 124075678.184 1     -3022.208          46.000                                                                  
C 7  37697715.480 1 196301891.819 1      -563.552          45.000    37697711.197 1 151793058.674 1      -435.566          43.000  
C13  39079097.954 1 203495103.661 3       310.439          37.000    39079103.655 1 157355356.859 3       239.838          37.000  
R22  21031926.001 4 112269848.178 1     -3555.051          44.000    21031928.820 4  87321008.001 2     -2764.803          41.000  
R12  20895531.371 4 111620180.171 1       626.261          47.000    20895535.385 4  86815708.410 1       486.995          45.000  
R11  21752351.348 4 116237961.654 1     -2700.863          46.000    21752354.608 4  90407311.145 1     -2100.760          42.000  
R23  21401443.141 4 114483701.673 2      1015.297          39.000    21401454.295 9               9       788.786          26.000  
R24  24600608.149 4               7      2637.460          31.000    24600664.717 9               9      2051.428          24.000  
G 9  25068914.122 2               6     -3263.318          28.000    25068867.638 9               9     -2540.767          23.000  
J 7  37651976.027 1 197862487.879 2     -1070.491          40.000    37651979.950 1 154178568.836 1      -834.343          46.000  
G 8  23412310.229 1 123032559.513 3     -3378.397          34.000    23412319.341 2  95869545.835 5     -2632.327          31.000  
G 1  21661997.503 1 113834554.514 1       408.678          48.000    21661999.660 1  88702264.223 1       318.445          44.000  
E30  23948966.773 1 125852695.839 1      -925.052          45.000    23948973.380 1  96432590.563 1      -708.777          45.000  
J 2  38628167.769 1 202992396.125 1        90.518          45.000    38628167.010 1 158175879.800 2        70.231          42.000  
J 3  40405346.422 1 212331528.283 1     -1751.958          44.000    40405347.039 1 165453170.140 2     -1365.156          42.000  
E13  26835788.754 1 141023023.657 2      1477.937          37.000                                                                  
C 9                                                                  39254383.284 1 158061131.313 2     -2111.945          41.000  
> 2020  6  3  3  3 18.0040000  0 25                     
E15  24136937.269 1 126840473.093 1      -710.972          46.000    24136945.015 1  97189474.324 1      -544.853          46.000  
G11  21559560.421 1 113296248.085 1     -2050.887          45.000                                                                  
G22  25355371.025 1 133243352.910 3       755.468          35.000                                                                  
G 7  21791413.506 1 114514639.937 2       224.752          41.000    21791412.279 2  89232192.803 4       175.269          34.000  
E14  24477619.095 1 128630770.164 2      3887.612          42.000    24477625.050 1  98561252.683 2      2978.799          42.000  
C23  24729806.144 1 128774583.906 1     -3119.435          46.000                                                                  
C27  23102753.179 1 120302100.601 1      -394.091          49.000                                                                  
C 8  38007171.061 1 197913314.210 1       111.628          45.000    38007165.345 1 153039106.239 1        86.357          43.000  
C28  23828010.270 1 124078701.103 1     -3023.642          46.000                                                                  
C 7  37697823.783 1 196302455.746 1      -564.561          45.000    37697819.487 1 151793494.750 1      -436.570          43.000  
C13  39079038.444 1 203494793.248 3       309.864          37.000    39079043.988 1 157355116.825 3       239.251          37.000  
R22  21032592.083 4 112273403.790 1     -3556.509          44.000    21032594.989 4  87323773.483 2     -2766.080          41.000  
R12  20895414.261 4 111619554.654 1       624.603          47.000    20895418.225 4  86815221.901 1       485.761          45.000  
R11  21752857.009 4 116240663.225 1     -2702.289          46.000    21752859.907 4  90409412.354 2     -2101.840          42.000  
R23  21401253.183 4 114482686.600 3      1014.035          38.000    21401263.133 9               9       788.957          26.000  
R24  24600115.487 4               8      2635.927          30.000    24600172.133 9               9      2053.070          23.000  
G 9  25069535.083 2 131741158.74815     -3264.306          28.000    25069495.388 9               9     -2537.249          25.000  
J 7  37652179.748 1 197863559.063 2     -1071.600          40.000    37652183.661 1 154179403.516 1      -835.110          46.000  
G 8  23412953.392 1 123035938.617 3     -3379.485          34.000    23412962.623 2               6     -2634.456          32.000  
G 1  21661920.073 1 113834146.683 1       406.907          48.000    21661922.100 1  88701946.431 1       317.019          44.000  
E30  23949142.994 1 125853621.443 1      -926.270          45.000    23949149.374 1  96433299.784 1      -709.587          45.000  
J 2  38628150.682 1 202992306.188 1        89.317          45.000    38628149.840 1 158175809.702 2        69.819          42.000  
J 3  40405679.987 1 212333280.809 1     -1753.114          44.000    40405680.531 1 165454535.740 2     -1365.951          43.000  
E13  26835507.545 1 141021546.027 2      1477.336          38.000                                                                  
C 9                                                                  39254907.800 1 158063243.332 2     -2112.639          41.000  
> 2020  6  3  3  3 19.0040000  0 25                     
E15  24137072.819 1 126841184.719 1      -712.315          46.000    24137080.437 1  97190019.602 1      -545.810          46.000  
G11  21559950.743 1 113298299.267 1     -2051.862          45.000                                                                  
G22  25355227.219 1 133242597.533 4       754.434          35.000                                                                  
G 7  21791370.827 1 114514415.824 2       223.406          41.000    21791369.634 1  89232018.180 4       173.566          34.000  
E14  24476879.510 1 128626882.939 2      3886.620          42.000    24476885.358 1  98558274.151 1      2978.255          42.000  
C23  24730405.233 1 128777703.942 1     -3120.520          46.000                                                                  
C27  23102828.986 1 120302495.336 1      -395.358          49.000                                                                  
C 8  38007149.712 1 197913202.930 1       110.543          45.000    38007143.957 1 153039020.186 1        85.525          43.000  
C28  23828590.963 1 124081725.217 1     -3024.801          46.000                                                                  
C 7  37697932.250 1 196303020.607 1      -565.463          45.000    37697927.939 1 151793931.528 1      -437.129          43.000  
C13  39078979.106 1 203494483.931 3       308.597          38.000    39078984.535 1 157354877.663 3       238.372          37.000  
R22  21033258.432 4 112276960.955 1     -3557.802          44.000    21033261.511 4  87326540.164 2     -2767.074          41.000  
R12  20895297.483 4 111618930.619 1       623.395          47.000    20895301.417 4  86814736.533 1       484.825          45.000  
R11  21753362.959 4 116243366.402 1     -2704.080          46.000    21753365.496 4  90411514.792 2     -2102.991          41.000  
R23  21401063.560 4 114481673.251 2      1012.543          39.000    21401070.489 9               9       786.744          26.000  
R24  24599622.793 8               8      2636.608          30.000    24599680.001 9               9      2048.282          23.000  
G 9  25070156.239 1 131744423.351 5     -3265.027          29.000    25070124.104 9               9     -2544.364          26.000  
J 7  37652383.742 1 197864631.232 2     -1072.714          40.000    37652387.715 1 154180238.966 1      -835.680          46.000  
G 8  23413596.685 1 123039318.710 3     -3380.463          34.000    23413606.464 4               6     -2634.130          33.000  
G 1  21661842.800 1 113833740.474 1       405.504          48.000    21661844.781 1  88701629.903 1       315.953          44.000  
E30  23949319.414 1 125854548.226 1      -927.372          45.000    23949325.887 1  96434009.926 1      -710.637          46.000  
J 2  38628133.804 1 202992217.255 1        88.380          45.000    38628132.884 1 158175740.418 2        68.841          42.000  
J 3  40406013.659 1 212335034.251 1     -1753.825          44.000    40406014.160 1 165455902.070 1     -1366.869          43.000  
E13  26835226.547 1 141020069.688 3      1475.521          38.000                                                                  
C 9                                                                  39255432.473 1 158065356.081 1     -2113.181          41.000  
> 2020  6  3  3  3 20.0040000  0 25                     
E15  24137208.565 1 126841897.748 1      -713.473          46.000    24137216.185 1  97190565.946 1      -546.745          46.000  
G11  21560341.385 1 113300351.959 1     -2053.424          45.000                                                                  
G22  25355083.508 1 133241843.065 4       754.253          35.000                                                                  
G 7  21791328.508 1 114514193.267 2       222.022          41.000    21791327.208 2  89231844.756 4       172.927          34.000  
E14  24476139.933 1 128622996.777 1      3885.919          42.000    24476146.019 1  98555296.465 1      2977.317          42.000  
C23  24731004.599 1 128780825.291 1     -3121.834          46.000                                                                  
C27  23102905.041 1 120302891.426 1      -396.711          49.000                                                                  
C 8  38007128.439 1 197913092.755 1       109.831          45.000    38007122.790 1 153038935.000 1        84.798          44.000  
C28  23829171.913 1 124084750.480 1     -3025.664          46.000                                                                  
C 7  37698040.856 1 196303586.374 1      -566.168          45.000    37698036.711 1 151794369.017 1      -437.605          43.000  
C13  39078919.862 1 203494175.656 3       307.765          38.000    39078925.402 1 157354639.273 3       238.098          37.000  
R22  21033925.124 4 112280519.648 1     -3559.041          44.000    21033928.181 4  87329308.051 2     -2768.368          41.000  
R12  20895180.963 4 111618308.040 1       621.999          47.000    20895184.851 4  86814252.309 1       483.804          45.000  
R11  21753869.223 4 116246071.150 1     -2705.366          46.000    21753871.337 4  90413618.486 2     -2104.095          41.000  
R23  21400874.170 4 114480661.543 2      1011.331          38.000    21400877.274 9               9       787.408          26.000  
R24  24599130.297 8               9      2633.810          29.000    24599190.784 9               9      2047.552          23.000  
G 9  25070777.584 2 131747688.908 5     -3265.802          28.000    25070751.213 9               9     -2544.315          26.000  
J 7  37652587.904 1 197865704.352 1     -1073.568          40.000    37652591.902 1 154181075.167 1      -836.439          46.000  
G 8  23414240.154 1 123042699.819 3     -3381.683          34.000    23414250.259 4  95877447.345 5     -2634.182          33.000  
G 1  21661765.916 1 113833335.885 1       403.972          48.000    21661767.883 1  88701314.650 1       314.720          44.000  
E30  23949495.842 1 125855476.169 1      -928.321          45.000    23949502.475 1  96434720.947 1      -711.352          46.000  
J 2  38628116.980 1 202992129.325 1        87.539          45.000    38628116.202 1 158175671.900 1        68.252          42.000  
J 3  40406347.538 1 212336788.581 1     -1754.544          44.000    40406348.088 1 165457269.087 1     -1367.213          42.000  
E13  26834945.698 1 141018594.473 3      1475.142          38.000                                                                  
C 9                                                                  39255957.361 1 158067469.615 2     -2114.039          41.000  
> 2020  6  3  3  3 21.0040000  0 25                     
E15  24137344.585 1 126842612.090 1      -714.935          46.000    24137352.189 1  97191113.296 1      -547.814          46.000  
G11  21560732.199 1 113302406.037 1     -2054.738          45.000                                                                  
G22  25354939.986 1 133241089.506 4       752.888          34.000                                                                  
G 7  21791286.433 1 114513972.176 2       220.489          41.000    21791285.094 2  89231672.466 4       171.430          35.000  
E14  24475400.714 1 128619111.577 2      3885.117          42.000    24475406.650 1  98552319.481 1      2976.744          42.000  
C23  24731604.115 1 128783947.843 1     -3122.999          46.000                                                                  
C27  23102981.378 1 120303288.776 1      -397.793          49.000                                                                  
C 8  38007107.529 1 197912983.608 1       108.601          45.000    38007101.800 1 153038850.589 1        84.048          44.000  
C28  23829753.267 1 124087776.835 1     -3026.804          46.000                                                                  
C 7  37698149.567 1 196304152.959 1      -566.891          45.000    37698145.516 1 151794807.145 1      -438.551          43.000  
C13  39078860.825 1 203493868.343 2       307.243          37.000    39078866.376 1 157354401.646 3       237.346          37.000  
R22  21034592.051 4 112284079.773 1     -3560.808          44.000    21034595.058 4  87332077.024 2     -2769.449          41.000  
R12  20895064.718 4 111617686.832 1       620.532          47.000    20895068.513 4  86813769.145 1       482.660          45.000  
R11  21754375.658 4 116248777.411 1     -2706.929          46.000    21754377.556 4  90415723.359 2     -2105.680          41.000  
R23  21400684.828 4 114479651.405 3      1009.482          38.000    21400686.410 9               9       783.603          26.000  
R24  24598638.088 4               8      2632.170          28.000    24598701.081 9               9      2046.935          23.000  
G 9  25071399.019 2 131750955.364 5     -3266.943          28.000    25071381.090 9               7     -2545.831          26.000  
J 7  37652792.163 1 197866778.334 2     -1074.348          40.000    37652796.271 1 154181912.033 1      -837.150          46.000  
G 8  23414883.723 1 123046081.781 3     -3382.260          34.000    23414894.429 4  95880082.651 5     -2635.713          33.000  
G 1  21661689.325 1 113832932.790 1       402.539          48.000    21661691.179 1  88701000.551 1       313.548          44.000  
E30  23949672.759 1 125856405.190 1      -929.582          45.000    23949679.271 1  96435432.790 1      -712.288          46.000  
J 2  38628100.425 1 202992042.272 1        86.658          45.000    38628099.668 1 158175604.063 1        67.612          42.000  
J 3  40406681.558 1 212338543.736 1     -1755.537          44.000    40406681.998 1 165458636.718 1     -1367.809          42.000  
E13  26834665.177 1 141017120.402 3      1473.902          38.000                                                                  
C 9                                                                  39256482.415 1 158069583.804 2     -2114.370          41.000  
> 2020  6  3  3  3 22.0040000  0 25                     
E15  24137480.569 1 126843327.798 1      -716.301          46.000    24137488.270 1  97191661.694 1      -548.901          46.000  
G11  21561123.241 1 113304461.551 2     -2055.966          45.000                                                                  
G22  25354796.654 1 133240336.825 3       752.511          34.000                                                                  
G 7  21791244.555 1 114513752.595 2       219.198          41.000    21791243.338 1  89231501.355 4       170.800          35.000  
E14  24474661.564 1 128615227.422 2      3883.694          42.000    24474667.600 1  98549343.315 1      2975.777          42.000  
C23  24732204.119 1 128787071.678 1     -3124.403          46.000                                                                  
C27  23103057.911 1 120303687.467 1      -399.494          49.000                                                                  
C 8  38007086.755 1 197912875.506 2       107.534          45.000    38007081.040 1 153038767.016 1        83.126          44.000  
C28  23830334.678 1 124090804.313 1     -3027.944          46.000                                                                  
C 7  37698258.474 1 196304720.427 1      -567.872          45.000    37698254.455 1 151795245.950 1      -439.280          44.000  
C13  39078801.884 1 203493562.013 3       305.532          37.000    39078807.529 1 157354164.744 3       236.569          37.000  
R22  21035259.275 4 112287641.372 1     -3562.266          44.000    21035262.398 4  87334847.174 2     -2770.870          42.000  
R12  20894948.642 4 111617067.029 1       619.076          47.000    20894952.527 4  86813287.086 1       481.495          45.000  
R11  21754882.415 4 116251485.227 1     -2708.534          45.000    21754884.051 4  90417829.415 1     -2106.777          41.000  
R23  21400495.879 4 114478642.867 3      1007.729          37.000    21400496.755 9               9       784.062          25.000  
R24  24598145.974 4               8      2631.086          27.000    24598212.775 9               9      2045.400          22.000  
G 9  25072020.625 2 131754222.750 5     -3268.396          28.000    25072009.143 9               7     -2546.259          27.000  
J 7  37652996.763 1 197867853.245 2     -1075.491          40.000    37653000.919 1 154182749.615 1      -837.710          46.000  
G 8  23415527.723 1 123049464.722 3     -3383.569          34.000    23415538.911 2  95882718.704 4     -2636.299          34.000  
G 1  21661612.981 1 113832531.287 1       400.841          48.000    21661614.934 1  88700687.693 1       312.124          44.000  
E30  23949849.846 1 125857335.309 1      -930.526          45.000    23949856.267 1  96436145.489 1      -713.249          45.000  
J 2  38628083.998 1 202991956.182 1        85.652          45.000    38628083.188 1 158175536.983 2        66.755          42.000  
J 3  40407015.692 1 212340299.729 1     -1756.442          44.000    40407016.182 1 165460005.028 2     -1368.636          42.000  
E13  26834385.039 1 141015647.487 2      1472.492          38.000                                                                  
C 9                                                                  39257007.676 1 158071698.709 2     -2115.134          41.000  
> 2020  6  3  3  3 23.0040000  0 25                     
E15  24137616.892 1 126844045.024 1      -717.964          46.000    24137624.764 1  97192211.254 1      -550.096          46.000  
G11  21561514.681 1 113306518.682 1     -2057.821          45.000                                                                  
G22  25354653.540 1 133239585.232 3       751.313          35.000                                                                  
G 7  21791203.100 1 114513534.691 2       217.248          41.000    21791201.848 1  89231331.568 4       168.921          34.000  
E14  24473922.592 1 128611344.443 2      3882.537          42.000    24473928.631 1  98546368.049 1      2974.879          42.000  
C23  24732804.395 1 128790196.919 1     -3125.894          46.000                                                                  
C27  23103134.833 1 120304087.616 1      -400.832          49.000                                                                  
C 8  38007066.186 1 197912768.631 1       106.611          44.000    38007060.484 1 153038684.358 1        82.409          43.000  
C28  23830916.378 1 124093833.084 1     -3029.502          46.000                                                                  
C 7  37698367.755 1 196305288.915 1      -568.788          45.000    37698363.597 1 151795685.537 1      -439.863          44.000  
C13  39078743.415 1 203493256.842 3       304.950          37.000    39078748.898 1 157353928.782 3       235.745          37.000  
R22  21035926.768 4 112291204.606 1     -3563.854          44.000    21035929.879 4  87337618.550 2     -2771.841          41.000  
R12  20894832.892 4 111616448.801 1       617.523          47.000    20894836.716 4  86812806.228 1       480.393          45.000  
R11  21755389.319 4 116254194.724 1     -2710.243          45.000    21755390.729 4  90419936.781 2     -2107.942          42.000  
R23  21400307.517 4 114477636.141 3      1005.818          37.000    21400304.760 9               9       782.597          25.000  
R24  24597654.262 4               9      2629.780          27.000                                                                  
G 9  25072642.701 2 131757491.129 5     -3268.787          28.000    25072640.597 9               7     -2547.266          27.000  
J 7  37653201.471 1 197868929.206 2     -1076.556          40.000    37653205.599 1 154183588.040 1      -838.739          46.000  
G 8  23416172.147 1 123052848.721 3     -3384.268          34.000    23416183.729 2  95885355.616 4     -2637.219          34.000  
G 1  21661537.036 1 113832131.501 1       399.010          48.000    21661538.974 1  88700376.167 1       310.787          44.000  
E30  23950027.042 1 125858266.715 1      -931.877          45.000    23950033.319 1  96436859.153 1      -714.039          45.000  
J 2  38628067.888 1 202991871.191 1        84.431          45.000    38628066.953 1 158175470.747 1        65.903          42.000  
J 3  40407349.999 1 212342056.737 1     -1757.358          44.000    40407350.487 1 165461374.132 2     -1369.421          42.000  
E13  26834105.138 1 141014175.876 2      1471.281          38.000                                                                  
C 9                                                                  39257533.175 1 158073814.470 2     -2116.228          41.000  
> 2020  6  3  3  3 24.0040000  0 25                     
E15  24137753.852 1 126844763.715 1      -719.493          46.000    24137761.725 1  97192761.938 1      -551.197          46.000  
G11  21561906.431 1 113308577.370 1     -2059.707          45.000                                                                  
G22  25354510.525 1 133238834.649 3       750.007          35.000                                                                  
G 7  21791162.011 1 114513318.418 2       215.476          41.000    21791160.677 1  89231163.062 3       167.593          35.000  
E14  24473184.004 1 128607462.605 2      3881.087          42.000    24473189.969 1  98543393.650 1      2973.914          42.000  
C23  24733404.738 1 128793323.543 1     -3127.519          46.000                                                                  
C27  23103212.010 1 120304489.188 1      -402.345          49.000                                                                  
C 8  38007046.009 1 197912662.939 2       104.844          44.000    38007040.285 1 153038602.626 1        81.275          43.000  
C28  23831498.192 1 124096863.073 1     -3030.775          46.000                                                                  
C 7  37698477.234 1 196305858.392 1      -569.857          45.000    37698472.959 1 151796125.899 1      -440.923          44.000  
C13  39078685.052 1 203492952.802 3       303.478          38.000    39078690.662 1 157353693.690 3       234.385          37.000  
R22  21036594.666 4 112294769.440 1     -3565.832          44.000    21036597.726 4  87340391.213 2     -2773.384          42.000  
R12  20894717.476 4 111615832.116 1       615.870          47.000    20894721.291 4  86812326.596 1       478.924          45.000  
R11  21755896.593 4 116256905.888 1     -2711.995          45.000    21755897.764 4  90422045.452 2     -2109.371          42.000  
R23  21400119.224 4 114476631.175 3      1003.540          37.000    21400115.957 9               9       780.434          25.000  
R24  24597162.973 4               9      2628.363          26.000                                                                  
G 9  25073264.939 2 131760760.571 5     -3269.818          29.000    25073269.607 9               7     -2547.833          28.000  
J 7  37653406.392 1 197870006.203 2     -1077.579          40.000    37653410.565 1 154184427.259 1      -839.705          46.000  
G 8  23416816.419 1 123056233.797 3     -3385.281          34.000    23416828.773 4  95887993.329 4     -2638.328          34.000  
G 1  21661461.288 1 113831733.390 1       397.109          48.000    21661463.311 1  88700065.947 1       309.488          44.000  
E30  23950204.607 1 125859199.348 1      -933.342          46.000    23950210.855 1  96437573.774 1      -715.072          45.000  
J 2  38628051.931 1 202991787.244 1        83.247          45.000    38628050.972 1 158175405.344 2        64.969          42.000  
J 3  40407684.449 1 212343814.710 1     -1758.448          44.000    40407684.974 1 165462743.977 2     -1370.173          42.000  
E13  26833825.109 1 141012705.534 2      1469.587          38.000                                                                  
C 9                                                                  39258058.859 1 158075931.017 2     -2117.176          41.000  
> 2020  6  3  3  3 25.0040000  0 25                     
E15  24137891.018 1 126845483.922 1      -720.979          46.000    24137898.672 1  97193313.792 1      -552.497          46.000  
G11  21562298.475 1 113310637.627 1     -2061.114          45.000                                                                  
G22  25354367.812 1 133238085.120 3       748.773          34.000                                                                  
G 7  21791121.117 1 114513103.792 2       213.853          41.000    21791119.809 1  89230995.806 3       166.854          35.000  
E14  24472445.394 1 128603581.906 2      3880.406          42.000    24472451.523 1  98540420.151 1      2973.008          42.000  
C23  24734005.451 1 128796451.574 1     -3128.824          46.000                                                                  
C27  23103289.482 1 120304892.211 1      -403.773          49.000                                                                  
C 8  38007025.924 1 197912558.464 1       103.900          44.000    38007020.208 1 153038521.834 1        80.439          43.000  
C28  23832080.534 1 124099894.335 1     -3031.945          46.000                                                                  
C 7  37698586.617 1 196306428.878 1      -570.942          45.000    37698582.553 1 151796567.027 2      -441.614          43.000  
C13  39078627.012 1 203492649.849 3       302.704          38.000    39078632.492 1 157353459.411 3       234.196          37.000  
R22  21037262.802 4 112298335.891 1     -3567.354          44.000    21037265.730 4  87343165.107 2     -2774.277          42.000  
R12  20894602.386 4 111615216.991 1       614.290          47.000    20894606.199 4  86811848.162 1       477.849          45.000  
R11  21756404.200 4 116259618.743 1     -2713.686          45.000    21756405.230 4  90424155.449 1     -2110.604          42.000  
R23  21399931.085 4 114475627.954 3      1002.267          36.000    21399928.141 9               9       780.083          24.000  
R24  24596671.839 4               8      2626.855          27.000                                                                  
G 9  25073887.209 2 131764031.079 5     -3270.886          28.000    25073898.693 9               6     -2548.859          28.000  
J 7  37653611.527 1 197871084.258 2     -1078.549          40.000    37653615.758 1 154185267.301 1      -840.455          46.000  
G 8  23417461.189 1 123059619.985 3     -3387.155          34.000    23417474.013 2  95890631.879 4     -2639.075          34.000  
G 1  21661385.892 1 113831336.985 1       395.505          49.000    21661388.029 1  88699757.066 1       308.115          45.000  
E30  23950382.176 1 125860133.232 1      -934.480          46.000    23950388.469 1  96438289.350 1      -716.018          45.000  
J 2  38628036.260 1 202991704.390 1        82.326          45.000    38628035.150 1 158175340.775 2        64.128          42.000  
J 3  40408019.184 1 212345573.679 1     -1759.440          44.000    40408019.642 1 165464114.615 2     -1371.092          42.000  
E13  26833545.326 1 141011236.465 3      1468.521          38.000                                                                  
C 9                                                                  39258584.694 1 158078048.411 2     -2118.075          41.000  
> 2020  6  3  3  3 26.0040000  0 25                     
E15  24138028.311 1 126846205.675 1      -722.283          46.000    24138035.850 1  97193866.823 1      -553.510          46.000  
G11  21562690.885 1 113312699.516 1     -2062.422          45.000                                                                  
G22  25354225.308 1 133237336.690 4       747.805          34.000                                                                  
G 7  21791080.665 1 114512890.870 2       212.334          41.000    21791079.292 1  89230829.907 3       165.045          35.000  
E14  24471707.447 1 128599702.452 2      3879.156          42.000    24471713.247 1  98537447.567 1      2972.350          42.000  
C23  24734606.550 1 128799581.030 1     -3130.043          46.000                                                                  
C27  23103367.205 1 120305296.757 1      -405.295          49.000                                                                  
C 8  38007005.986 1 197912455.234 1       102.633          44.000    38007000.396 1 153038442.023 1        79.455          43.000  
C28  23832662.974 1 124102926.903 1     -3032.985          46.000                                                                  
C 7  37698696.375 1 196307000.429 1      -571.910          45.000    37698692.280 1 151797008.980 1      -442.190          43.000  
C13  39078569.065 1 203492348.129 2       301.135          38.000    39078574.618 1 157353226.093 3       233.216          37.000  
R22  21037931.312 4 112301904.002 1     -3568.706          45.000    21037934.226 4  87345940.310 2     -2775.612          42.000  
R12  20894487.501 4 111614603.449 1       612.898          47.000    20894491.341 4  86811370.970 1       476.628          45.000  
R11  21756912.172 4 116262333.363 1     -2715.389          45.000    21756912.957 4  90426266.791 1     -2111.706          43.000  
R23  21399743.282 4 114474626.534 4      1000.500          35.000    21399737.554 9               9       779.348          23.000  
R24  24596181.280 4               8      2625.176          27.000                                                                  
G 9  25074509.784 2               6     -3271.936          28.000    25074525.231 9               6     -2549.890          28.000  
J 7  37653816.951 1 197872163.415 2     -1079.467          40.000    37653821.077 1 154186108.197 1      -841.150          46.000  
G 8  23418106.206 1 123063007.253 3     -3387.797          34.000    23418119.174 2  95893271.268 4     -2639.328          34.000  
G 1  21661310.840 1 113830942.330 1       393.999          49.000    21661313.104 1  88699449.543 1       306.882          45.000  
E30  23950560.263 1 125861068.431 1      -935.654          46.000    23950566.323 1  96439005.936 1      -717.101          45.000  
J 2  38628020.670 1 202991622.671 1        81.435          45.000    38628019.545 1 158175277.104 2        63.466          42.000  
J 3  40408354.091 1 212347333.701 1     -1760.486          44.000    40408354.472 1 165465486.042 1     -1371.755          42.000  
E13  26833266.125 1 141009768.773 2      1467.399          38.000                                                                  
C 9                                                                  39259110.751 1 158080166.635 2     -2118.533          42.000  
> 2020  6  3  3  3 27.0040000  0 25                     
E15  24138165.860 1 126846928.629 1      -723.351          46.000    24138173.495 1  97194420.764 1      -554.260          46.000  
G11  21563083.440 1 113314762.701 1     -2063.984          45.000                                                                  
G22  25354082.912 1 133236588.999 3       747.741          34.000                                                                  
G 7  21791040.425 1 114512679.309 2       210.868          41.000    21791039.026 1  89230665.036 3       164.775          35.000  
E14  24470969.584 1 128595823.845 1      3878.350          42.000    24470975.226 1  98534475.650 1      2971.629          43.000  
C23  24735207.735 1 128802711.615 1     -3131.265          46.000                                                                  
C27  23103445.203 1 120305702.441 1      -406.174          49.000                                                                  
C 8  38006986.273 1 197912352.901 1       101.671          43.000    38006980.678 1 153038362.912 1        78.673          44.000  
C28  23833245.473 1 124105960.435 1     -3033.856          47.000                                                                  
C 7  37698806.270 1 196307572.660 1      -572.593          45.000    37698802.267 1 151797451.458 1      -442.424          43.000  
C13  39078511.458 1 203492047.224 2       300.427          38.000    39078516.858 1 157352993.428 3       232.364          37.000  
R22  21038600.140 4 112305473.432 1     -3570.099          44.000    21038603.013 4  87348716.538 2     -2776.714          42.000  
R12  20894372.822 4 111613991.147 1       611.810          47.000    20894376.770 4  86810894.727 1       475.786          45.000  
R11  21757420.221 4 116265049.303 1     -2716.307          44.000    21757421.054 4  90428379.222 2     -2112.909          43.000  
R23  21399555.749 4 114473626.606 4       999.191          35.000                                                                  
R24  24595690.749 4               7      2624.499          27.000                                                                  
G 9  25075132.677 2               7     -3272.339          28.000    25075150.617 8               7     -2550.366          28.000  
J 7  37654022.471 1 197873243.335 2     -1080.239          40.000    37654026.612 1 154186949.702 1      -841.876          46.000  
G 8  23418751.465 2 123066395.300 4     -3388.375          34.000    23418764.511 2  95895911.375 4     -2640.793          34.000  
G 1  21661236.054 1 113830549.096 1       392.694          49.000    21661238.392 1  88699143.119 1       305.925          45.000  
E30  23950738.557 1 125862004.587 1      -936.591          46.000    23950744.512 1  96439723.243 1      -717.625          45.000  
J 2  38628005.370 1 202991541.740 1        80.650          45.000    38628004.037 1 158175214.037 2        62.803          43.000  
J 3  40408689.175 1 212349094.400 1     -1760.879          44.000    40408689.541 1 165466858.016 1     -1372.018          42.000  
E13  26832987.271 1 141008302.062 3      1466.185          38.000                                                                  
C 9                                                                  39259636.992 1 158082285.469 2     -2119.214          42.000  
> 2020  6  3  3  3 28.0040000  0 25                     
E15  24138303.785 1 126847652.813 1      -724.973          46.000    24138311.228 1  97194975.661 1      -555.438          46.000  
G11  21563476.339 1 113316827.171 1     -2065.233          45.000                                                                  
G22  25353940.622 1 133235842.075 4       746.883          34.000                                                                  
G 7  21791000.439 1 114512469.109 2       209.532          41.000    21790999.002 1  89230501.253 4       163.020          35.000  
E14  24470232.005 1 128591946.139 1      3876.991          42.000    24470237.294 1  98531504.416 1      2970.760          43.000  
C23  24735809.129 1 128805843.316 1     -3132.319          46.000                                                                  
C27  23103523.373 1 120306109.308 1      -407.504          49.000                                                                  
C 8  38006966.797 1 197912251.517 1       101.009          43.000    38006961.157 1 153038284.516 1        77.897          44.000  
C28  23833828.197 1 124108994.965 1     -3035.013          47.000                                                                  
C 7  37698916.306 1 196308145.622 1      -573.496          45.000    37698912.360 1 151797894.525 1      -443.502          43.000  
C13  39078453.803 1 203491747.165 3       299.799          38.000    39078459.440 1 157352761.398 3       231.627          37.000  
R22  21039269.106 4 112309044.184 1     -3571.410          45.000    21039271.979 4  87351493.790 2     -2777.745          42.000  
R12  20894258.449 4 111613380.126 1       610.312          47.000    20894262.558 4  86810419.493 1       474.597          45.000  
R11  21757928.409 4 116267766.676 1     -2718.321          44.000    21757929.473 4  90430492.716 1     -2114.040          44.000  
R23  21399368.268 4 114472628.133 4       997.663          34.000                                                                  
R24  24595200.312 4               7      2623.517          27.000                                                                  
G 9  25075755.725 2               7     -3273.443          27.000    25075776.386 8               7     -2550.116          28.000  
J 7  37654228.145 1 197874324.019 2     -1081.251          40.000    37654232.405 1 154187791.792 1      -842.509          46.000  
G 8  23419396.956 2 123069784.182 3     -3389.874          33.000    23419409.859 4  95898552.011 4     -2641.013          34.000  
G 1  21661161.585 1 113830157.286 1       390.971          49.000    21661163.843 1  88698837.807 1       304.809          45.000  
E30  23950916.756 1 125862941.721 1      -937.646          46.000    23950922.781 1  96440441.314 1      -718.537          45.000  
J 2  38627990.130 1 202991461.619 1        79.793          45.000    38627988.793 1 158175151.603 2        61.908          43.000  
J 3  40409024.389 1 212350855.821 1     -1761.819          44.000    40409024.747 1 165468230.566 1     -1373.003          42.000  
E13  26832708.300 1 141006836.367 2      1464.954          38.000                                                                  
C 9                                                                  39260163.415 1 158084404.894 2     -2119.714          42.000  
> 2020  6  3  3  3 29.0040000  0 25                     
E15  24138441.856 1 126848377.997 1      -725.703          46.000    24138449.240 1  97195531.330 1      -556.042          46.000  
G11  21563869.237 1 113318892.736 2     -2066.179          44.000                                                                  
G22  25353798.469 1 133235095.763 4       745.734          35.000                                                                  
G 7  21790960.548 1 114512260.077 2       208.667          41.000    21790959.209 1  89230338.377 4       162.353          35.000  
E14  24469494.399 1 128588069.092 1      3876.662          43.000    24469499.547 1  98528533.695 1      2970.463          43.000  
C23  24736410.578 1 128808975.936 1     -3133.064          46.000                                                                  
C27  23103601.574 1 120306517.148 1      -408.304          49.000                                                                  
C 8  38006947.486 1 197912150.846 2       100.450          43.000    38006941.809 1 153038206.667 1        77.659          44.000  
C28  23834411.105 1 124112030.268 1     -3035.597          47.000                                                                  
C 7  37699026.474 1 196308719.102 1      -573.751          45.000    37699022.485 1 151798337.981 1      -443.721          43.000  
C13  39078396.381 1 203491447.790 3       299.290          38.000    39078401.950 1 157352529.903 3       231.604          37.000  
R22  21039938.320 4 112312616.063 1     -3572.339          45.000    21039941.104 4  87354271.904 2     -2778.370          42.000  
R12  20894144.326 4 111612770.179 1       609.496          47.000    20894148.330 4  86809945.079 1       474.070          45.000  
R11  21758436.871 4 116270485.194 1     -2718.946          44.000    21758438.092 4  90432607.130 1     -2114.870          44.000  
R23  21399181.000 4 114471630.921 5       996.877          34.000                                                                  
R24  24594710.120 4               7      2622.116          28.000                                                                  
G 9  25076378.978 2               8     -3273.773          27.000    25076399.448 8               6     -2551.086          28.000  
J 7  37654433.835 1 197875405.268 2     -1081.265          40.000    37654438.117 1 154188634.320 1      -842.772          46.000  
G 8  23420042.617 2 123073173.616 4     -3389.768          33.000    23420055.354 2  95901193.132 4     -2641.072          34.000  
G 1  21661087.340 1 113829766.689 1       389.939          49.000    21661089.658 1  88698533.449 1       304.054          45.000  
E30  23951095.268 1 125863879.631 1      -938.336          46.000    23951101.425 1  96441159.969 1      -719.025          45.000  
J 2  38627974.990 1 202991382.080 1        79.399          45.000    38627973.632 1 158175089.618 2        61.986          43.000  
J 3  40409359.733 1 212352617.736 1     -1762.082          44.000    40409360.047 1 165469603.481 2     -1373.017          42.000  
E13  26832429.698 1 141005371.469 2      1464.535          38.000                                                                  
C 9                                                                  39260689.895 1 158086524.769 1     -2120.132          42.000  
> 2020  6  3  3  3 30.0040000  0 25                     
E15  24138580.151 1 126849104.304 1      -726.739          46.000    24138587.548 1  97196087.850 1      -556.854          46.000  
G11  21564262.469 1 113320959.514 1     -2067.212          44.000                                                                  
G22  25353656.469 1 133234350.052 4       745.610          34.000                                                                  
G 7  21790921.079 1 114512052.333 2       207.188          41.000    21790919.543 1  89230176.474 3       161.824          35.000  
E14  24468756.812 1 128584192.832 1      3876.073          43.000    24468761.888 1  98525563.573 1      2969.972          43.000  
C23  24737012.273 1 128812109.575 1     -3134.022          46.000                                                                  
C27  23103680.114 1 120306926.073 1      -409.288          49.000                                                                  
C 8  38006928.182 1 197912051.015 1        99.430          43.000    38006922.671 1 153038129.461 1        76.885          44.000  
C28  23834994.049 1 124115066.456 1     -3036.515          47.000                                                                  
C 7  37699136.650 1 196309293.238 1      -574.393          45.000    37699132.701 1 151798781.931 1      -444.131          43.000  
C13  39078338.988 1 203491149.178 2       298.345          38.000    39078344.604 1 157352298.989 3       230.831          37.000  
R22  21040607.662 4 112316189.179 1     -3573.636          45.000    21040610.445 4  87357051.014 2     -2779.653          42.000  
R12  20894030.432 4 111612161.398 1       608.212          47.000    20894034.403 4  86809471.582 1       473.185          45.000  
R11  21758945.557 4 116273205.042 2     -2720.436          43.000    21758947.071 4  90434722.558 1     -2115.735          44.000  
R23  21398993.921 4 114470635.118 5       995.944          34.000                                                                  
R24  24594220.072 4               6      2621.243          29.000                                                                  
G 9  25077002.244 2               8     -3274.487          27.000    25077020.553 8               8     -2551.416          28.000  
J 7  37654639.786 1 197876487.206 2     -1082.103          40.000    37654644.021 1 154189477.376 1      -843.121          46.000  
G 8  23420688.411 2 123076563.756 4     -3390.690          33.000    23420700.835 2  95903834.794 4     -2641.800          34.000  
G 1  21661013.307 1 113829377.427 1       388.732          49.000    21661015.671 1  88698230.130 1       302.830          45.000  
E30  23951273.869 1 125864818.414 1      -939.177          46.000    23951280.123 1  96441879.282 1      -719.398          45.000  
J 2  38627959.900 1 202991303.259 1        78.552          45.000    38627958.712 1 158175028.203 2        61.409          43.000  
J 3  40409695.172 1 212354380.278 1     -1762.681          44.000    40409695.463 1 165470976.893 2     -1373.568          42.000  
E13  26832150.955 1 141003907.478 3      1463.630          38.000                                                                  
C 9                                                                  39261216.452 1 158088645.180 2     -2120.384          42.000  
> 2020  6  3  3  3 31.0040000  0 25                     
E15  24138718.445 1 126849831.648 1      -727.863          46.000    24138725.914 1  97196645.161 1      -557.771          46.000  
G11  21564655.995 1 113323027.373 1     -2068.373          44.000                                                                  
G22  25353514.679 1 133233604.996 3       744.589          34.000                                                                  
G 7  21790881.717 1 114511845.765 2       205.765          41.000    21790880.346 1  89230015.521 4       160.716          35.000  
E14  24468019.648 1 128580317.263 1      3875.113          42.000    24468024.267 1  98522593.993 1      2969.277          43.000  
C23  24737614.195 1 128815244.137 1     -3135.047          46.000                                                                  
C27  23103758.732 1 120307335.989 1      -410.538          49.000                                                                  
C 8  38006908.803 1 197911951.911 1        98.579          43.000    38006903.630 1 153038052.826 1        76.122          44.000  
C28  23835577.106 1 124118103.443 1     -3037.570          47.000                                                                  
C 7  37699247.042 1 196309867.904 1      -575.104          45.000    37699243.093 1 151799226.298 1      -444.805          43.000  
C13  39078281.856 1 203490851.257 3       297.500          38.000    39078287.381 1 157352068.605 3       230.243          37.000  
R22  21041277.244 4 112319763.425 1     -3575.046          44.000    21041280.043 4  87359830.966 2     -2780.234          41.000  
R12  20893916.683 4 111611553.690 1       607.020          47.000    20893920.598 4  86808998.928 1       472.005          45.000  
R11  21759454.422 4 116275926.058 1     -2721.737          43.000    21759456.261 4  90436838.910 1     -2116.891          44.000  
R23  21398807.138 4 114469640.619 4       993.710          35.000                                                                  
R24  24593730.476 4               6      2620.445          29.000                                                                  
G 9  25077625.744 2               7     -3275.494          27.000    25077642.559 8               8     -2551.935          28.000  
J 7  37654845.694 1 197877569.715 2     -1082.825          41.000    37654850.086 1 154190320.901 1      -843.971          46.000  
G 8  23421334.332 2 123079954.478 4     -3390.818          32.000    23421346.289 2  95906476.911 4     -2641.715          34.000  
G 1  21660939.442 1 113828989.390 1       387.198          49.000    21660941.903 1  88697927.761 1       301.835          45.000  
E30  23951452.636 1 125865757.979 1      -939.978          46.000    23951458.777 1  96442599.223 1      -720.273          45.000  
J 2  38627944.940 1 202991225.054 1        77.814          45.000    38627943.903 1 158174967.267 1        60.509          43.000  
J 3  40410030.690 1 212356143.335 1     -1763.396          44.000    40410030.980 1 165472350.699 1     -1374.037          42.000  
E13  26831872.619 1 141002444.326 2      1462.516          38.000                                                                  
C 9                                                                  39261743.200 1 158090766.068 2     -2121.286          42.000  
> 2020  6  3  3  3 32.0040000  0 25                     
E15  24138857.264 1 126850560.080 1      -728.827          46.000    24138864.462 1  97197203.316 1      -558.562          46.000  
G11  21565049.713 1 113325096.425 1     -2069.595          44.000                                                                  
G22  25353372.940 1 133232860.522 3       744.401          35.000                                                                  
G 7  21790842.582 1 114511640.425 2       204.914          41.000    21790841.262 1  89229855.520 3       159.459          35.000  
E14  24467282.443 1 128576442.453 1      3874.602          42.000    24467287.059 1  98519624.986 1      2968.734          42.000  
C23  24738216.356 1 128818379.679 1     -3135.963          46.000                                                                  
C27  23103837.726 1 120307746.951 1      -411.336          49.000                                                                  
C 8  38006889.790 1 197911853.591 1        97.883          42.000    38006884.724 1 153037976.814 1        75.658          44.000  
C28  23836160.481 1 124121141.286 1     -3038.333          47.000                                                                  
C 7  37699357.498 1 196310443.164 1      -575.344          45.000    37699353.655 1 151799671.135 1      -445.063          43.000  
C13  39078224.911 1 203490554.034 2       296.833          38.000    39078230.305 1 157351838.788 3       229.603          36.000  
R22  21041947.027 4 112323338.862 1     -3575.926          44.000    21041949.898 4  87362611.876 2     -2781.326          41.000  
R12  20893803.055 4 111610947.140 1       606.123          48.000    20893807.031 4  86808527.165 1       471.446          45.000  
R11  21759963.752 4 116278648.337 1     -2723.013          43.000    21759965.730 4  90438956.246 1     -2117.693          45.000  
R23  21398620.704 4 114468647.413 4       992.804          35.000                                                                  
R24  24593240.898 4               6      2621.027          29.000                                                                  
G 9  25078249.335 2               9     -3276.001          27.000    25078265.610 8               8     -2552.814          28.000  
J 7  37655051.845 1 197878652.866 2     -1083.373          40.000    37655056.259 1 154191164.905 1      -844.142          46.000  
G 8  23421980.085 2 123083345.863 5     -3391.492          31.000    23421991.793 2  95909119.566 4     -2642.305          34.000  
G 1  21660865.757 1 113828602.647 1       386.200          48.000    21660868.376 1  88697626.402 1       300.989          45.000  
E30  23951631.679 1 125866698.393 1      -940.763          46.000    23951637.746 1  96443319.798 1      -720.947          45.000  
J 2  38627930.133 1 202991147.513 1        77.303          45.000    38627929.134 1 158174906.848 1        60.124          43.000  
J 3  40410366.378 1 212357906.966 1     -1763.770          44.000    40410366.523 1 165473724.951 1     -1374.365          42.000  
E13  26831594.443 1 141000982.050 3      1461.938          38.000                                                                  
C 9                                                                  39262270.032 1 158092887.462 2     -2121.495          42.000  
> 2020  6  3  3  3 33.0040000  0 25                     
E15  24138996.200 1 126851289.896 1      -730.448          46.000    24139003.312 1  97197762.527 1      -559.734          46.000  
G11  21565443.737 1 113327166.927 1     -2070.964          44.000                                                                  
G22  25353231.390 1 133232117.065 3       742.120          35.000                                                                  
G 7  21790803.943 1 114511436.642 2       202.994          41.000    21790802.523 1  89229696.726 3       158.264          36.000  
E14  24466545.451 1 128572568.702 1      3873.229          43.000    24466549.885 1  98516656.766 1      2967.889          43.000  
C23  24738818.763 1 128821516.508 1     -3137.521          46.000                                                                  
C27  23103916.837 1 120308159.247 1      -412.925          49.000                                                                  
C 8  38006870.978 1 197911756.364 2        96.584          42.000    38006866.106 1 153037901.625 1        74.669          44.000  
C28  23836744.257 1 124124180.259 1     -3039.572          47.000                                                                  
C 7  37699468.188 1 196311019.342 1      -576.556          45.000    37699464.302 1 151800116.669 1      -445.938          43.000  
C13  39078168.025 1 203490257.846 2       295.456          38.000    39078173.414 1 157351609.743 3       228.846          37.000  
R22  21042617.100 4 112326915.817 1     -3577.824          45.000    21042619.871 4  87365393.946 2     -2782.763          41.000  
R12  20893689.767 4 111610342.042 1       604.253          48.000    20893693.791 4  86808056.522 1       470.136          45.000  
R11  21760473.270 4 116281372.207 1     -2724.475          43.000    21760475.655 4  90441074.818 1     -2119.229          45.000  
R23  21398434.772 4 114467655.832 4       990.687          36.000    21398421.039 9               9       771.227          25.000  
R24  24592751.718 4               6      2618.356          30.000                                                                  
G 9  25078873.146 2               7     -3276.874          26.000    25078887.873 8               9     -2553.522          27.000  
J 7  37655258.108 1 197879736.951 2     -1084.288          40.000    37655262.595 1 154192009.661 1      -845.199          46.000  
G 8  23422625.740 2               6     -3392.933          30.000    23422637.301 2  95911762.990 4     -2643.869          33.000  
G 1  21660792.472 1 113828217.494 1       384.409          48.000    21660795.156 1  88697326.282 1       299.584          45.000  
E30  23951811.156 1 125867639.947 1      -942.172          46.000    23951816.993 1  96444041.240 1      -721.808          45.000  
J 2  38627915.459 1 202991070.954 1        75.977          45.000    38627914.602 1 158174847.174 1        59.306          43.000  
J 3  40410702.162 1 212359671.485 1     -1764.980          44.000    40410702.407 1 165475099.900 1     -1375.212          42.000  
E13  26831316.336 1 140999520.948 2      1460.439          38.000                                                                  
C 9                                                                  39262797.048 1 158095009.570 2     -2122.573          42.000  
> 2020  6  3  3  3 34.0040000  0 25                     
E15  24139135.348 1 126852020.956 1      -731.548          46.000    24139142.466 1  97198322.683 1      -560.494          46.000  
G11  21565838.056 1 113329238.753 1     -2072.362          44.000                                                                  
G22  25353089.956 1 133231374.288 4       742.162          35.000                                                                  
G 7  21790765.428 1 114511234.213 2       201.871          42.000    21790763.983 1  89229538.974 3       157.495          35.000  
E14  24465808.708 1 128568695.823 1      3872.479          43.000    24465812.767 1  98513689.253 1      2967.213          43.000  
C23  24739421.333 1 128824654.479 1     -3138.535          46.000                                                                  
C27  23103996.337 1 120308572.739 1      -414.006          49.000                                                                  
C 8  38006852.251 1 197911660.066 2        96.059          41.000    38006847.610 1 153037827.176 1        74.040          44.000  
C28  23837327.904 1 124127220.241 1     -3040.348          47.000                                                                  
C 7  37699579.113 1 196311596.252 1      -577.261          45.000    37699575.038 1 151800562.768 1      -446.343          43.000  
C13  39078111.313 1 203489962.501 2       295.090          38.000    39078116.669 1 157351381.362 3       228.123          36.000  
R22  21043287.447 4 112330494.104 1     -3578.784          45.000    21043290.158 4  87368177.062 2     -2783.530          41.000  
R12  20893576.614 4 111609738.180 1       603.331          48.000    20893580.753 4  86807586.852 1       469.371          45.000  
R11  21760983.193 4 116284097.508 2     -2725.961          43.000    21760985.786 4  90443194.486 1     -2119.922          45.000  
R23  21398249.002 4 114466665.751 3       989.535          36.000    21398233.656 9               9       770.167          26.000  
R24  24592262.483 4               8      2616.581          30.000                                                                  
G 9  25079497.098 2               8     -3277.313          26.000    25079510.825 8               8     -2554.138          28.000  
J 7  37655464.502 1 197880821.849 2     -1085.267          40.000    37655468.966 1 154192855.018 1      -845.604          46.000  
G 8  23423271.219 2               6     -3393.339          30.000    23423282.821 2  95914407.029 5     -2644.098          34.000  
G 1  21660719.477 1 113827833.797 1       383.153          48.000    21660722.273 1  88697027.299 1       298.552          45.000  
E30  23951990.465 1 125868582.482 1      -942.870          46.000    23951996.335 1  96444763.443 1      -722.397          45.000  
J 2  38627901.076 1 202990995.202 1        75.474          45.000    38627900.038 1 158174788.151 1        58.749          43.000  
J 3  40411038.018 1 212361436.721 1     -1765.583          44.000    40411038.345 1 165476475.406 1     -1375.401          42.000  
E13  26831038.167 1 140998060.866 2      1459.709          38.000                                                                  
C 9                                                                  39263324.263 1 158097132.304 2     -2123.053          42.000  
> 2020  6  3  3  3 35.0040000  0 25                     
E15  24139274.665 1 126852753.100 1      -732.659          47.000    24139281.770 1  97198883.678 1      -561.499          46.000  
G11  21566232.557 1 113331311.756 2     -2073.673          44.000                                                                  
G22  25352948.653 1 133230632.202 3       741.804          35.000                                                                  
G 7  21790727.181 1 114511033.064 2       200.450          42.000    21790725.679 1  89229382.240 3       155.693          35.000  
E14  24465071.938 1 128564823.723 1      3871.737          43.000    24465075.933 1  98510722.324 2      2966.474          43.000  
C23  24740024.073 1 128827793.438 1     -3139.665          45.000                                                                  
C27  23104075.930 1 120308987.280 1      -415.190          49.000                                                                  
C 8  38006833.785 1 197911564.617 2        94.752          41.000    38006829.228 1 153037753.332 1        73.506          44.000  
C28  23837911.742 1 124130261.087 1     -3041.467          47.000                                                                  
C 7  37699689.993 1 196312173.758 1      -577.944          45.000    37699685.937 1 151801009.324 2      -446.832          43.000  
C13  39078054.801 1 203489667.911 2       293.997          38.000    39078060.094 1 157351153.596 3       227.312          36.000  
R22  21043957.916 4 112334073.602 1     -3580.195          45.000    21043960.760 4  87370961.106 2     -2784.475          41.000  
R12  20893463.782 4 111609135.473 1       601.997          48.000    20893467.891 4  86807118.087 1       468.226          45.000  
R11  21761493.218 4 116286824.102 2     -2727.432          43.000    21761496.084 4  90445315.180 1     -2121.145          45.000  
R23  21398063.807 4 114465677.048 3       987.862          37.000    21398047.926 9               7       768.700          27.000  
R24  24591773.501 4               6      2616.179          31.000                                                                  
G 9  25080121.035 2               7     -3278.229          26.000    25080135.406 8               8     -2554.584          28.000  
J 7  37655671.056 1 197881907.370 2     -1086.161          40.000    37655675.478 1 154193700.891 1      -846.144          46.000  
G 8  23423916.458 2 123093525.215 5     -3394.284          29.000    23423928.790 2  95917051.571 5     -2644.087          33.000  
G 1  21660646.769 1 113827451.379 1       381.761          48.000    21660649.577 1  88696729.315 1       297.503          45.000  
E30  23952169.741 1 125869525.880 1      -943.840          46.000    23952175.839 1  96445486.307 1      -723.324          45.000  
J 2  38627886.896 1 202990920.131 1        74.564          45.000    38627885.771 1 158174729.655 1        58.209          43.000  
J 3  40411374.062 1 212363202.542 1     -1766.154          44.000    40411374.414 1 165477851.378 1     -1376.233          42.000  
E13  26830760.567 1 140996601.708 2      1458.228          38.000                                                                  
C 9                                                                  39263851.613 1 158099255.535 2     -2123.399          42.000  
> 2020  6  3  3  3 36.0040000  0 25                     
E15  24139414.159 1 126853486.542 1      -734.216          46.000    24139421.322 1  97199445.658 1      -562.551          46.000  
G11  21566627.268 1 113333386.125 1     -2075.213          44.000                                                                  
G22  25352807.667 1 133229890.953 3       740.968          35.000                                                                  
G 7  21790689.217 1 114510833.345 2       198.725          42.000    21790687.825 2  89229226.618 4       154.662          35.000  
E14  24464335.434 1 128560952.567 1      3870.549          43.000    24464339.372 1  98507756.098 1      2966.005          43.000  
C23  24740627.122 1 128830933.588 1     -3140.797          45.000                                                                  
C27  23104155.661 1 120309403.064 1      -416.589          49.000                                                                  
C 8  38006815.552 1 197911470.122 2        93.813          41.000    38006811.031 1 153037680.267 1        72.733          44.000  
C28  23838495.920 1 124133302.974 1     -3042.528          47.000                                                                  
C 7  37699801.093 1 196312752.070 1      -578.785          45.000    37699796.976 1 151801456.523 1      -447.635          43.000  
C13  39077998.505 1 203489374.230 2       293.025          38.000    39078003.766 1 157350926.502 3       226.285          36.000  
R22  21044628.737 4 112337654.494 1     -3581.801          45.000    21044631.506 4  87373746.254 2     -2785.874          41.000  
R12  20893351.211 4 111608534.103 1       600.510          48.000    20893355.292 4  86806650.353 1       467.080          45.000  
R11  21762003.729 4 116289552.152 2     -2729.205          43.000    21762006.595 4  90447436.978 1     -2122.427          45.000  
R23  21397878.965 4 114464689.869 3       986.395          38.000    21397865.702 9               7       767.616          27.000  
R24  24591284.584 4               6      2614.884          32.000                                                                  
G 9  25080745.059 2               8     -3279.327          26.000    25080759.609 8               9     -2555.585          27.000  
J 7  37655877.819 1 197882993.724 2     -1086.838          40.000    37655882.041 1 154194547.412 1      -846.886          46.000  
G 8  23424562.033 2 123096919.919 5     -3394.867          28.000    23424574.537 2  95919696.840 5     -2646.053          33.000  
G 1  21660574.207 1 113827070.462 1       380.193          48.000    21660577.139 1  88696432.496 1       296.189          45.000  
E30  23952349.522 1 125870470.306 1      -944.846          46.000    23952355.562 1  96446209.959 1      -724.110          45.000  
J 2  38627872.848 1 202990845.939 1        73.638          45.000    38627871.577 1 158174671.840 2        57.434          43.000  
J 3  40411710.334 1 212364969.143 1     -1767.024          44.000    40411710.628 1 165479227.957 1     -1377.020          42.000  
E13  26830483.311 1 140995143.588 2      1457.337          38.000                                                                  
C 9                                                                  39264379.064 1 158101379.446 2     -2124.515          42.000  
> 2020  6  3  3  3 37.0040000  0 25                     
E15  24139554.193 1 126854221.368 1      -735.750          46.000    24139561.217 1  97200008.716 1      -563.719          46.000  
G11  21567022.236 1 113335461.961 2     -2076.779          44.000                                                                  
G22  25352666.714 1 133229150.660 3       739.471          36.000                                                                  
G 7  21790651.507 1 114510635.188 2       197.139          42.000    21790650.115 1  89229072.195 3       153.794          36.000  
E14  24463598.830 1 128557082.481 1      3869.246          43.000    24463602.822 1  98504790.708 1      2964.768          43.000  
C23  24741230.293 1 128834075.034 1     -3142.481          45.000                                                                  
C27  23104235.729 1 120309820.194 1      -418.017          49.000                                                                  
C 8  38006797.322 1 197911376.740 2        92.524          41.000    38006793.100 1 153037608.057 1        71.659          44.000  
C28  23839080.299 1 124136346.025 1     -3043.838          47.000                                                                  
C 7  37699912.463 1 196313331.286 1      -580.045          45.000    37699908.207 1 151801904.417 1      -448.583          43.000  
C13  39077942.273 1 203489081.633 3       291.361          38.000    39077947.602 1 157350700.206 3       226.265          36.000  
R22  21045299.922 4 112341236.891 1     -3583.292          44.000    21045302.586 4  87376532.583 2     -2787.436          41.000  
R12  20893238.860 4 111607934.203 1       598.940          48.000    20893243.018 4  86806183.774 1       465.729          45.000  
R11  21762514.402 4 116292281.741 1     -2730.669          43.000    21762517.562 4  90449560.024 1     -2124.035          45.000  
R23  21397694.522 4 114463704.331 2       984.763          39.000    21397682.217 8               6       766.003          28.000  
R24  24590796.039 4 131497922.70115      2612.638          32.000                                                                  
G 9  25081369.179 2               8     -3280.267          26.000    25081383.414 8               8     -2556.305          27.000  
J 7  37656084.762 1 197884081.058 2     -1088.002          40.000    37656088.903 1 154195394.673 1      -847.722          46.000  
G 8  23425207.221 2 123100315.528 5     -3395.900          28.000    23425220.316 4  95922342.815 5     -2646.245          33.000  
G 1  21660501.902 1 113826691.163 1       378.150          48.000    21660504.995 1  88696136.941 1       294.581          45.000  
E30  23952529.801 1 125871415.906 1      -946.395          46.000    23952535.593 1  96446934.498 1      -725.048          45.000  
J 2  38627859.003 1 202990772.721 1        72.413          45.000    38627857.741 1 158174614.800 1        56.400          43.000  
J 3  40412046.617 1 212366736.656 1     -1768.357          44.000    40412046.902 1 165480605.227 2     -1377.815          42.000  
E13  26830205.829 1 140993686.645 3      1456.371          38.000                                                                  
C 9                                                                  39264906.662 1 158103504.101 2     -2125.321          42.000  
> 2020  6  3  3  3 38.0040000  0 25                     
E15  24139694.318 1 126854957.713 1      -737.114          46.000    24139701.380 1  97200572.923 1      -564.700          46.000  
G11  21567417.500 1 113337539.403 2     -2078.081          44.000                                                                  
G22  25352525.943 1 133228411.461 3       738.302          35.000                                                                  
G 7  21790614.106 1 114510438.703 2       195.380          42.000    21790612.688 1  89228919.091 3       152.680          36.000  
E14  24462862.580 1 128553213.563 1      3868.035          44.000    24462866.744 1  98501826.209 1      2964.026          43.000  
C23  24741833.986 1 128837217.895 1     -3143.408          45.000                                                                  
C27  23104316.162 1 120310238.808 1      -419.562          49.000                                                                  
C 8  38006779.320 1 197911284.568 2        91.684          40.000    38006775.461 1 153037536.791 1        70.558          44.000  
C28  23839664.919 1 124139390.351 1     -3045.114          47.000                                                                  
C 7  37700023.784 1 196313911.518 1      -580.737          45.000    37700019.663 1 151802353.084 1      -449.287          43.000  
C13  39077886.176 1 203488790.157 2       290.335          38.000    39077891.602 1 157350474.839 3       225.012          36.000  
R22  21045971.243 4 112344820.939 1     -3584.964          44.000    21045973.980 4  87379320.174 2     -2788.362          41.000  
R12  20893126.909 4 111607335.886 1       597.366          48.000    20893131.039 4  86805718.403 1       464.751          45.000  
R11  21763025.455 4 116295013.069 1     -2732.272          44.000    21763028.835 4  90451684.380 1     -2125.249          45.000  
R23  21397510.358 4 114462720.574 2       983.051          39.000    21397500.081 9               6       764.434          29.000  
R24  24590307.886 4 131495309.929 5      2611.107          32.000                                                                  
G 9  25081993.516 2               7     -3280.957          27.000    25082004.730 8               7     -2556.519          28.000  
J 7  37656291.843 1 197885169.443 2     -1088.993          40.000    37656296.053 1 154196242.779 1      -848.663          46.000  
G 8  23425852.407 2 123103712.350 5     -3397.346          28.000    23425866.089 4  95924989.653 5     -2647.442          32.000  
G 1  21660429.955 1 113826313.575 1       376.423          48.000    21660433.119 1  88695842.714 1       293.467          45.000  
E30  23952710.144 1 125872362.779 1      -947.748          46.000    23952715.730 1  96447660.024 1      -726.183          45.000  
J 2  38627845.305 1 202990700.620 1        71.502          45.000    38627844.035 1 158174558.618 1        55.502          43.000  
J 3  40412383.171 1 212368505.152 1     -1769.138          44.000    40412383.461 1 165481983.281 1     -1378.627          42.000  
E13  26829928.714 1 140992231.067 2      1454.281          38.000    26829936.727 9 108033037.149 5      1114.658          37.000  
C 9                                                                  39265434.515 1 158105629.591 2     -2125.860          42.000  
> 2020  6  3  3  3 39.0040000  0 25                     
E15  24139834.573 1 126855695.512 1      -738.463          46.000    24139841.751 1  97201138.264 1      -565.960          46.000  
G11  21567813.044 1 113339618.360 2     -2079.595          44.000                                                                  
G22  25352385.338 1 133227673.213 3       738.068          35.000                                                                  
G 7  21790577.007 1 114510243.820 2       194.094          42.000    21790575.654 1  89228767.248 4       151.127          36.000  
E14  24462126.770 1 128549345.733 1      3867.332          43.000    24462130.695 1  98498862.563 1      2963.344          43.000  
C23  24742437.777 1 128840362.099 1     -3144.889          45.000                                                                  
C27  23104396.931 1 120310658.805 1      -420.593          49.000                                                                  
C 8  38006761.476 1 197911193.550 2        90.592          40.000    38006758.012 1 153037466.409 1        70.078          44.000  
C28  23840249.716 1 124142435.881 1     -3046.053          47.000                                                                  
C 7  37700135.418 1 196314492.706 1      -581.829          45.000    37700131.373 1 151802802.495 1      -449.801          43.000  
C13  39077830.453 1 203488499.738 2       290.114          38.000    39077835.866 1 157350250.289 3       223.899          36.000  
R22  21046642.936 4 112348406.529 1     -3586.576          44.000    21046645.701 4  87382108.961 2     -2789.694          41.000  
R12  20893015.158 4 111606739.065 1       596.096          48.000    20893019.313 4  86805254.205 1       463.712          44.000  
R11  21763536.935 4 116297746.002 1     -2733.694          44.000    21763540.467 4  90453809.999 1     -2126.118          45.000  
R23  21397326.417 4 114461738.527 2       980.984          40.000    21397317.392 8  89025368.30815       763.754          29.000  
R24  24589819.804 4 131492698.473 5      2611.128          33.000                                                                  
G 9  25082617.959 2               9     -3281.677          26.000    25082627.176 8               8     -2557.166          27.000  
J 7  37656499.120 1 197886258.823 2     -1089.590          40.000    37656503.430 1 154197091.652 1      -849.314          46.000  
G 8  23426498.276 2 123107110.176 5     -3398.192          29.000    23426512.156 4               6     -2648.087          32.000  
G 1  21660358.297 1 113825937.630 1       374.995          48.000    21660361.641 1  88695549.769 1       292.362          45.000  
E30  23952890.495 1 125873310.838 1      -948.570          46.000    23952896.256 1  96448386.462 1      -726.908          45.000  
J 2  38627831.683 1 202990629.532 1        70.453          45.000    38627830.478 1 158174503.214 1        54.992          43.000  
J 3  40412719.896 1 212370274.605 1     -1770.145          44.000    40412720.165 1 165483362.060 2     -1378.817          42.000  
E13  26829652.222 1 140990776.688 2      1453.740          38.000    26829660.427 8 108031922.766 3      1114.081          36.000  
C 9                                                                  39265962.550 1 158107755.850 2     -2126.776          42.000  
> 2020  6  3  3  3 40.0040000  0 25                     
E15  24139975.269 1 126856434.878 1      -740.023          46.000    24139982.491 1  97201704.783 1      -567.066          46.000  
G11  21568208.979 1 113341698.969 1     -2081.271          44.000                                                                  
G22  25352245.066 1 133226936.047 4       737.021          35.000                                                                  
G 7  21790540.325 1 114510050.650 1       192.374          42.000    21790538.879 1  89228616.737 3       149.792          36.000  
E14  24461391.304 1 128545479.148 2      3866.052          43.000    24461395.036 1  98495899.854 1      2962.143          43.000  
C23  24743041.930 1 128843507.773 1     -3146.210          45.000                                                                  
C27  23104477.922 1 120311080.330 1      -422.240          49.000                                                                  
C 8  38006743.889 1 197911103.801 2        89.248          40.000    38006740.761 1 153037396.988 1        69.148          44.000  
C28  23840834.794 1 124145482.730 1     -3047.360          47.000                                                                  
C 7  37700247.236 1 196315074.962 1      -582.601          45.000    37700243.096 1 151803252.733 1      -450.707          43.000  
C13  39077774.854 1 203488210.572 3       288.522          38.000    39077780.391 1 157350026.663 3       223.492          36.000  
R22  21047314.898 4 112351993.774 1     -3587.716          44.000    21047317.768 4  87384899.053 2     -2790.716          41.000  
R12  20892903.767 4 111606143.833 1       594.472          48.000    20892907.805 4  86804791.259 1       462.366          44.000  
R11  21764048.665 4 116300480.726 1     -2735.526          44.000    21764052.336 4  90455937.007 1     -2127.657          45.000  
R23  21397142.741 4 114460758.298 2       979.343          40.000    21397140.084 8               7       761.989          30.000  
R24  24589332.194 4 131490088.499 5      2609.680          32.000                                                                  
G 9  25083242.569 2               7     -3284.070          27.000    25083248.636 8               8     -2559.210          27.000  
J 7  37656706.634 1 197887349.337 2     -1091.072          40.000    37656711.018 1 154197941.401 1      -850.264          46.000  
G 8  23427144.650 2 123110509.146 5     -3399.363          32.000    23427158.598 2  95930285.896 5     -2649.086          33.000  
G 1  21660286.958 1 113825563.452 1       373.467          48.000    21660290.437 1  88695258.207 1       291.077          45.000  
E30  23953071.071 1 125874260.218 1      -949.818          46.000    23953076.797 1  96449113.922 1      -727.987          45.000  
J 2  38627818.395 1 202990559.589 1        69.550          45.000    38627817.168 1 158174448.718 1        54.111          43.000  
J 3  40413056.749 1 212372045.083 1     -1770.781          44.000    40413057.079 1 165484741.671 2     -1379.806          42.000  
E13  26829375.674 1 140989323.685 2      1452.072          38.000    26829383.821 4 108030809.414 3      1112.998          37.000  
C 9                                                                  39266490.779 1 158109882.970 2     -2127.613          42.000  
> 2020  6  3  3  3 41.0040000  0 25                     
E15  24140116.361 1 126857175.708 1      -741.840          47.000    24140123.424 1  97202272.431 1      -568.337          46.000  
G11  21568605.280 1 113343781.122 2     -2083.025          44.000                                                                  
G22  25352105.004 1 133226199.970 3       735.482          35.000                                                                  
G 7  21790503.908 1 114509859.098 2       190.581          42.000    21790502.455 1  89228467.471 4       148.070          36.000  
E14  24460655.863 1 128541613.678 2      3865.045          43.000    24460659.385 1  98492938.000 1      2960.889          43.000  
C23  24743646.341 1 128846654.821 1     -3147.804          46.000                                                                  
C27  23104558.990 1 120311503.280 1      -423.963          49.000                                                                  
C 8  38006726.658 1 197911015.248 2        88.097          40.000    38006723.796 1 153037328.525 1        67.969          44.000  
C28  23841419.994 1 124148530.820 1     -3048.925          47.000                                                                  
C 7  37700359.076 1 196315658.214 1      -583.940          45.000    37700355.099 1 151803703.736 1      -451.483          43.000  
C13  39077719.526 1 203487922.477 2       287.262          39.000    39077725.128 1 157349803.911 3       221.906          36.000  
R22  21047987.218 4 112355582.637 1     -3589.651          44.000    21047990.055 4  87387690.367 2     -2791.973          41.000  
R12  20892792.587 4 111605550.118 1       592.706          48.000    20892796.647 4  86804329.480 1       461.028          44.000  
R11  21764560.740 4 116303217.070 1     -2737.159          44.000    21764564.437 4  90458065.275 1     -2129.000          45.000  
R23  21396959.451 4 114459779.814 2       977.407          40.000    21396958.806 8               7       759.279          30.000  
R24  24588844.779 4 131487479.891 5      2608.471          32.000                                                                  
G 9  25083867.456 2               7     -3285.284          27.000    25083871.583 8               9     -2559.131          27.000  
J 7  37656914.330 1 197888440.875 2     -1092.167          40.000    37656918.862 1 154198791.935 1      -851.094          46.000  
G 8  23427791.138 2 123113909.107 4     -3400.427          33.000    23427804.935 2  95932935.238 4     -2650.293          32.000  
G 1  21660216.069 1 113825190.972 1       371.414          48.000    21660219.532 1  88694967.959 1       289.722          45.000  
E30  23953251.765 1 125875210.818 1      -951.313          46.000    23953257.775 1  96449842.308 1      -728.924          45.000  
J 2  38627805.283 1 202990490.727 1        67.975          45.000    38627804.088 1 158174395.041 1        53.057          43.000  
J 3  40413393.875 1 212373816.548 1     -1772.176          44.000    40413394.176 1 165486122.037 2     -1380.807          42.000  
E13  26829099.210 1 140987871.920 2      1450.872          38.000    26829106.932 2 108029697.062 3      1111.588          37.000  
C 9                                                                  39267019.224 1 158112010.902 2     -2128.478          42.000  
> 2020  6  3  3  3 42.0040000  0 25                     
E15  24140257.563 1 126857917.945 1      -743.035          47.000    24140264.708 1  97202841.162 1      -569.469          46.000  
G11  21569001.704 1 113345864.766 2     -2084.533          44.000                                                                  
G22  25351965.117 1 133225464.846 3       733.954          35.000                                                                  
G 7  21790467.802 1 114509669.101 2       189.115          42.000    21790466.338 1  89228319.401 3       147.424          36.000  
E14  24459920.315 1 128537749.310 1      3863.744          44.000    24459924.001 1  98489976.979 1      2960.246          44.000  
C23  24744251.048 1 128849803.154 1     -3148.951          45.000                                                                  
C27  23104640.515 1 120311927.587 1      -425.234          49.000                                                                  
C 8  38006709.443 1 197910927.805 2        87.013          40.000    38006707.007 1 153037260.900 1        66.955          44.000  
C28  23842005.521 1 124151580.063 1     -3049.825          47.000                                                                  
C 7  37700471.248 1 196316242.360 1      -584.835          45.000    37700467.295 1 151804155.427 1      -452.053          43.000  
C13  39077664.432 1 203487635.445 2       286.036          39.000    39077670.072 1 157349581.939 3       221.584          36.000  
R22  21048659.768 4 112359173.013 1     -3591.204          44.000    21048662.748 4  87390482.893 2     -2793.451          41.000  
R12  20892681.863 4 111604957.887 1       591.469          48.000    20892685.812 4  86803868.857 1       459.952          44.000  
R11  21765073.190 4 116305955.000 1     -2739.098          44.000    21765076.816 4  90460194.783 1     -2130.158          45.000  
R23  21396776.309 4 114458802.983 2       976.104          40.000    21396776.690 8               7       759.674          31.000  
R24  24588357.245 4 131484872.611 4      2605.990          32.000                                                                  
G 9  25084492.741 2               8     -3285.272          27.000    25084492.288 9               9     -2565.479          26.000  
J 7  37657122.193 1 197889533.365 2     -1093.162          40.000    37657126.871 1 154199643.226 1      -851.866          46.000  
G 8  23428437.881 2 123117310.101 4     -3402.000          33.000    23428451.513 4               6     -2650.276          32.000  
G 1  21660145.356 1 113824820.088 1       369.796          48.000    21660148.891 1  88694678.948 1       288.260          44.000  
E30  23953432.820 1 125876162.609 1      -952.391          46.000    23953438.854 1  96450571.595 1      -729.998          45.000  
J 2  38627792.446 1 202990422.823 1        67.226          45.000    38627791.207 1 158174342.140 2        52.309          43.000  
J 3  40413731.176 1 212375588.909 1     -1772.905          44.000    40413731.476 1 165487503.097 1     -1381.454          42.000  
E13  26828823.079 1 140986421.382 2      1449.658          38.000    26828830.960 1 108028585.579 3      1111.087          37.000  
C 9                                                                  39267547.880 1 158114139.590 2     -2129.333          42.000  
> 2020  6  3  3  3 43.0040000  0 25                     
E15  24140399.019 1 126858661.548 1      -744.375          47.000    24140406.144 1  97203410.937 1      -570.470          46.000  
G11  21569398.514 1 113347949.856 2     -2085.953          44.000                                                                  
G22  25351825.379 1 133224730.578 3       733.538          35.000                                                                  
G 7  21790432.020 1 114509480.641 2       187.639          42.000    21790430.510 1  89228172.567 3       146.173          36.000  
E14  24459184.816 1 128533885.962 1      3862.623          43.000    24459188.998 1  98487016.763 2      2959.771          43.000  
C23  24744856.022 1 128852952.762 1     -3150.288          45.000                                                                  
C27  23104722.269 1 120312353.217 1      -426.444          49.000                                                                  
C 8  38006692.581 1 197910841.438 2        85.671          40.000    38006690.470 1 153037194.106 1        66.370          44.000  
C28  23842591.255 1 124154630.443 1     -3051.009          46.000                                                                  
C 7  37700583.680 1 196316827.401 1      -585.768          45.000    37700579.623 1 151804607.832 1      -453.187          43.000  
C13  39077609.538 1 203487349.397 2       285.601          39.000    39077615.011 1 157349360.794 4       220.175          35.000  
R22  21049332.569 4 112362764.872 1     -3592.699          44.000    21049335.702 4  87393276.548 2     -2794.334          41.000  
R12  20892571.340 4 111604367.115 1       589.902          48.000    20892575.259 4  86803409.374 1       458.685          44.000  
R11  21765585.944 4 116308694.453 1     -2740.607          45.000    21765589.537 4  90462325.463 1     -2131.207          45.000  
R23  21396593.555 4 114457827.835 2       974.212          41.000    21396596.394 8               6       757.280          31.000  
R24  24587869.886 4 131482266.532 5      2604.818          33.000                                                                  
G 9  25085117.921 2               8     -3286.761          27.000    25085115.290 9               9     -2559.636          26.000  
J 7  37657330.401 1 197890626.789 2     -1094.099          40.000    37657334.808 1 154200495.224 1      -852.390          46.000  
G 8  23429085.175 1 123120712.034 4     -3402.305          34.000    23429098.198 4  95938236.174 5     -2651.761          32.000  
G 1  21660074.924 1 113824450.781 1       368.368          48.000    21660078.548 1  88694391.186 1       287.211          44.000  
E30  23953614.100 1 125877115.521 1      -953.590          46.000    23953620.249 1  96451301.743 1      -730.880          46.000  
J 2  38627779.741 1 202990355.892 1        66.288          45.000    38627778.449 1 158174289.985 2        51.710          43.000  
J 3  40414068.633 1 212377362.132 1     -1773.810          44.000    40414068.981 1 165488884.838 1     -1382.298          42.000  
E13  26828547.466 1 140984971.979 2      1448.745          38.000    26828555.129 1 108027475.023 3      1109.888          37.000  
C 9                                                                  39268076.733 1 158116268.979 2     -2130.094          42.000  
> 2020  6  3  3  3 44.0040000  0 25                     
E15  24140540.819 1 126859406.573 1      -745.809          47.000    24140548.018 1  97203981.793 1      -571.491          46.000  
G11  21569795.591 1 113350036.435 1     -2087.692          44.000                                                                  
G22  25351685.943 1 133223997.359 3       732.626          35.000                                                                  
G 7  21790396.444 1 114509293.737 2       186.267          42.000    21790394.908 1  89228026.931 4       144.871          36.000  
E14  24458449.702 1 128530023.679 1      3861.624          43.000    24458454.028 1  98484057.369 1      2958.902          43.000  
C23  24745461.175 1 128856103.684 1     -3151.452          45.000                                                                  
C27  23104804.347 1 120312780.217 1      -427.718          49.000                                                                  
C 8  38006676.087 1 197910756.184 2        84.617          40.000    38006674.124 1 153037128.188 1        65.407          44.000  
C28  23843177.201 1 124157681.995 1     -3052.228          46.000                                                                  
C 7  37700696.251 1 196317413.336 1      -586.405          45.000    37700692.127 1 151805060.920 1      -453.810          43.000  
C13  39077554.912 1 203487064.413 2       284.529          39.000    39077560.236 1 157349140.421 3       219.343          35.000  
R22  21050005.654 4 112366358.255 1     -3594.095          44.000    21050008.864 4  87396071.405 2     -2795.511          41.000  
R12  20892461.198 4 111603777.813 1       588.423          48.000    20892464.752 4  86802951.023 1       457.747          44.000  
R11  21766099.128 4 116311435.519 1     -2742.112          46.000    21766102.722 4  90464457.395 1     -2132.533          46.000  
R23  21396411.162 4 114456854.354 2       972.392          41.000    21396417.075 8               6       756.359          31.000  
R24  24587382.789 4 131479661.765 5      2604.157          32.000                                                                  
G 9  25085743.457 2               8     -3287.671          27.000    25085734.882 9               9     -2562.125          26.000  
J 7  37657538.627 1 197891721.154 2     -1094.712          41.000    37657543.039 1 154201347.989 1      -853.186          46.000  
G 8  23429733.004 1 123124114.957 3     -3403.650          35.000    23429745.283 2  95940887.753 5     -2651.971          32.000  
G 1  21660004.839 1 113824083.093 1       366.911          47.000    21660008.450 1  88694104.676 1       286.140          44.000  
E30  23953795.563 1 125878069.596 1      -954.711          46.000    23953801.730 1  96452032.787 1      -731.645          46.000  
J 2  38627767.065 1 202990289.954 1        65.378          45.000    38627765.920 1 158174238.589 2        50.957          43.000  
J 3  40414406.231 1 212379136.261 1     -1774.652          44.000    40414406.622 1 165490267.280 1     -1383.024          43.000  
E13  26828271.995 1 140983523.819 2      1447.720          39.000    26828279.569 1 108026365.385 3      1108.758          37.000  
C 9                                                                  39268605.724 1 158118399.136 2     -2130.568          42.000  
> 2020  6  3  3  3 45.0040000  0 25                     
E15  24140682.988 1 126860153.158 1      -747.586          46.000    24140689.947 1  97204553.848 1      -572.795          46.000  
G11  21570192.963 1 113352124.642 1     -2089.227          44.000                                                                  
G22  25351546.674 1 133223265.253 4       731.299          35.000                                                                  
G 7  21790361.181 1 114509108.556 2       184.208          42.000    21790359.570 1  89227882.593 3       144.093          36.000  
E14  24457714.847 1 128526162.625 1      3860.345          44.000    24457719.243 1  98481098.887 1      2957.908          43.000  
C23  24746066.576 1 128859256.058 1     -3153.176          45.000                                                                  
C27  23104886.649 1 120313208.732 1      -429.384          49.000                                                                  
C 8  38006659.719 1 197910672.209 2        83.228          40.000    38006657.975 1 153037063.238 1        64.417          44.000  
C28  23843763.529 1 124160734.861 1     -3053.606          46.000                                                                  
C 7  37700808.961 1 196318000.339 1      -587.548          45.000    37700804.832 1 151805514.812 1      -454.214          43.000  
C13  39077500.446 1 203486780.640 2       283.125          38.000    39077505.780 1 157348920.966 3       219.010          35.000  
R22  21050679.108 4 112369953.325 1     -3596.102          44.000    21050682.342 4  87398867.561 2     -2796.963          41.000  
R12  20892351.099 4 111603190.085 1       586.857          48.000    20892354.697 4  86802493.903 1       456.393          44.000  
R11  21766612.623 4 116314178.360 1     -2743.881          46.000    21766616.026 4  90466590.726 1     -2134.078          46.000  
R23  21396229.065 4 114455882.676 2       970.726          42.000    21396235.489 8               6       755.169          32.000  
R24  24586895.594 4               6      2602.831          32.000                                                                  
G 9  25086369.274 2               7     -3288.928          28.000    25086352.007 9               9     -2555.384          26.000  
J 7  37657747.142 1 197892816.651 2     -1096.205          41.000    37657751.518 1 154202201.617 1      -854.097          46.000  
G 8  23430381.087 1 123127519.015 3     -3404.385          36.000    23430392.298 4  95943540.277 5     -2652.929          32.000  
G 1  21659934.995 1 113823717.184 1       364.921          47.000    21659938.719 1  88693819.560 1       284.459          44.000  
E30  23953977.448 1 125879024.979 1      -956.141          46.000    23953983.496 1  96452764.843 1      -732.736          45.000  
J 2  38627754.738 1 202990225.156 1        64.010          45.000    38627753.584 1 158174188.104 1        50.074          43.000  
J 3  40414744.129 1 212380911.439 1     -1775.860          44.000    40414744.420 1 165491650.507 2     -1383.669          42.000  
E13  26827996.650 1 140982076.981 2      1445.910          39.000    26828004.386 1 108025256.752 3      1108.110          37.000  
C 9                                                                  39269134.925 1 158120530.155 2     -2131.667          42.000  
> 2020  6  3  3  3 46.0040000  0 25                     
E15  24140825.112 1 126860901.094 1      -748.575          46.000    24140832.329 1  97205126.944 1      -573.460          46.000  
G11  21570590.632 1 113354214.293 2     -2090.567          44.000                                                                  
G22  25351407.513 1 133222534.012 3       730.520          35.000                                                                  
G 7  21790326.171 1 114508924.891 1       183.069          42.000    21790324.567 1  89227739.499 4       142.841          36.000  
E14  24456980.420 1 128522302.586 1      3859.646          44.000    24456984.532 1  98478141.193 1      2957.375          43.000  
C23  24746672.400 1 128862409.702 1     -3154.090          45.000                                                                  
C27  23104969.027 1 120313638.556 1      -430.375          48.000                                                                  
C 8  38006643.742 1 197910589.269 2        82.449          40.000    38006642.065 1 153036999.106 1        63.846          44.000  
C28  23844350.012 1 124163788.861 1     -3054.617          45.000                                                                  
C 7  37700921.876 1 196318588.220 1      -588.042          45.000    37700917.792 1 151805969.396 1      -454.644          43.000  
C13  39077446.056 1 203486497.843 2       282.487          38.000    39077451.364 1 157348702.303 3       218.257          35.000  
R22  21051352.970 4 112373549.845 1     -3597.174          44.000    21051356.126 4  87401664.867 2     -2797.915          41.000  
R12  20892241.403 4 111602603.734 1       585.967          48.000    20892244.889 4  86802037.861 1       455.448          44.000  
R11  21767126.392 4 116316922.746 1     -2744.952          46.000    21767129.591 4  90468725.256 1     -2134.954          46.000  
R23  21396047.397 4 114454912.614 2       969.478          42.000    21396054.554 8  89020059.298 5       754.174          32.000  
R24  24586408.697 4 131474456.372 5      2601.013          32.000                                                                  
G 9  25086995.170 2               6     -3289.331          28.000    25086968.909 9               9     -2563.226          26.000  
J 7  37657955.775 1 197893913.066 1     -1096.810          41.000    37657960.080 1 154203055.963 1      -854.619          46.000  
G 8  23431029.316 1 123130924.026 3     -3405.412          37.000    23431039.614 2  95946193.513 4     -2653.514          33.000  
G 1  21659865.557 1 113823352.840 1       363.739          46.000    21659869.235 1  88693535.646 1       283.577          44.000  
E30  23954159.662 1 125879981.501 1      -957.018          46.000    23954165.450 1  96453497.747 1      -733.167          45.000  
J 2  38627742.545 1 202990161.296 1        63.564          45.000    38627741.490 1 158174138.341 1        49.538          43.000  
J 3  40415082.038 1 212382687.447 1     -1776.268          44.000    40415082.356 1 165493034.419 2     -1384.166          42.000  
E13  26827721.820 1 140980631.308 2      1445.249          39.000    26827729.174 1 108024149.059 3      1107.311          37.000  
C 9                                                                  39269664.328 1 158122661.891 2     -2132.031          41.000  
> 2020  6  3  3  3 47.0040000  0 25                     
E15  24140967.752 1 126861650.443 1      -750.094          46.000    24140974.811 1  97205701.130 1      -574.841          46.000  
G11  21570988.531 1 113356305.430 1     -2091.927          44.000                                                                  
G22  25351268.567 1 133221803.718 3       729.726          35.000                                                                  
G 7  21790291.474 1 114508742.783 1       181.290          42.000    21790290.011 1  89227597.603 3       141.152          36.000  
E14  24456246.112 1 128518443.609 1      3858.381          43.000    24456250.133 1  98475184.327 1      2956.394          43.000  
C23  24747278.284 1 128865564.648 1     -3155.480          45.000                                                                  
C27  23105051.840 1 120314069.758 1      -431.798          49.000                                                                  
C 8  38006627.680 1 197910507.440 2        81.528          40.000    38006626.330 1 153036935.828 1        62.744          44.000  
C28  23844936.773 1 124166844.013 1     -3055.567          45.000                                                                  
C 7  37701034.975 1 196319177.047 1      -589.312          45.000    37701030.863 1 151806424.723 1      -455.699          43.000  
C13  39077391.885 1 203486216.085 2       281.050          38.000    39077397.314 1 157348484.408 3       217.836          35.000  
R22  21052026.886 4 112377147.901 1     -3598.810          44.000    21052030.113 4  87404463.343 2     -2799.032          41.000  
R12  20892131.878 4 111602018.883 1       584.044          48.000    20892135.424 4  86801582.971 1       454.242          44.000  
R11  21767640.491 4 116319668.727 1     -2746.889          47.000    21767643.589 4  90470861.000 1     -2136.274          46.000  
R23  21395865.982 4 114453944.219 2       967.560          41.000    21395873.835 4  89019306.131 5       752.515          32.000  
R24  24585922.132 4               6      2600.411          32.000                                                                  
G 9  25087621.551 2               7     -3290.338          28.000    25087586.707 9               9     -2564.521          26.000  
J 7  37658164.554 1 197895010.443 1     -1097.853          41.000    37658168.954 1 154203911.068 1      -855.632          46.000  
G 8  23431677.901 1 123134330.045 2     -3406.510          38.000    23431687.381 2  95948847.542 5     -2654.546          34.000  
G 1  21659796.585 1 113822990.110 1       362.160          46.000    21659800.075 1  88693253.018 1       281.919          44.000  
E30  23954342.082 1 125880939.186 1      -958.405          46.000    23954347.845 1  96454231.554 1      -734.257          45.000  
J 2  38627730.445 1 202990098.456 1        62.201          45.000    38627729.550 1 158174089.370 1        48.515          43.000  
J 3  40415420.253 1 212384464.380 1     -1777.435          44.000    40415420.441 1 165494419.055 2     -1385.144          42.000  
E13  26827447.080 1 140979186.838 2      1443.827          39.000    26827454.265 1 108023042.260 3      1106.097          37.000  
C 9                                                                  39270193.879 1 158124794.388 2     -2132.818          41.000  
> 2020  6  3  3  3 48.0040000  0 25                     
E15  24141110.757 1 126862401.240 1      -751.472          46.000    24141117.754 1  97206276.403 1      -575.722          46.000  
G11  21571386.694 1 113358398.083 1     -2093.253          44.000                                                                  
G22  25351129.903 1 133221074.461 3       728.566          35.000                                                                  
G 7  21790257.143 1 114508562.279 2       179.869          42.000    21790255.715 1  89227456.961 3       140.092          36.000  
E14  24455512.252 1 128514585.759 1      3857.300          43.000    24455515.876 1  98472228.309 1      2955.683          43.000  
C23  24747884.405 1 128868720.928 1     -3156.875          45.000                                                                  
C27  23105134.982 1 120314502.347 1      -433.079          49.000                                                                  
C 8  38006611.947 1 197910426.769 2        80.258          41.000    38006610.810 1 153036873.428 1        62.233          44.000  
C28  23845523.641 1 124169900.384 1     -3056.710          45.000                                                                  
C 7  37701148.113 1 196319766.791 1      -589.966          45.000    37701144.094 1 151806880.765 1      -456.510          43.000  
C13  39077337.953 1 203485935.403 2       280.157          38.000    39077343.436 1 157348267.358 4       216.993          35.000  
R22  21052701.186 4 112380747.510 1     -3600.214          44.000    21052704.484 4  87407263.032 2     -2800.085          41.000  
R12  20892022.729 4 111601435.550 1       582.735          48.000    20892026.210 4  86801129.262 1       453.357          45.000  
R11  21768154.864 4 116322416.284 1     -2748.114          47.000    21768157.807 4  90472997.995 1     -2137.452          46.000  
R23  21395684.977 4 114452977.518 2       966.041          41.000    21395693.288 4  89018554.262 5       750.589          32.000  
R24  24585435.920 4 131469256.116 5      2598.575          32.000                                                                  
G 9  25088247.920 2 131839482.872 5     -3291.260          29.000    25088207.620 9               9     -2565.580          26.000  
J 7  37658373.600 1 197896108.814 1     -1098.771          41.000    37658377.935 1 154204766.935 1      -856.068          46.000  
G 8  23432326.545 1 123137737.037 2     -3407.281          38.000    23432335.676 2  95951502.342 4     -2655.198          34.000  
G 1  21659727.658 1 113822629.036 1       360.355          46.000    21659731.383 1  88692971.641 1       280.933          44.000  
E30  23954524.556 1 125881898.053 1      -959.333          46.000    23954530.245 1  96454966.285 1      -735.231          45.000  
J 2  38627718.566 1 202990036.628 1        61.331          44.000    38627717.812 1 158174041.189 1        47.812          43.000  
J 3  40415758.456 1 212386242.234 1     -1778.137          44.000    40415758.680 1 165495804.392 2     -1385.499          42.000  
E13  26827172.530 1 140977743.606 2      1442.556          39.000    26827179.628 1 108021936.403 3      1105.247          37.000  
C 9                                                                  39270723.734 1 158126927.642 2     -2133.459          41.000  
> 2020  6  3  3  3 49.0040000  0 25                     
E15  24141253.791 1 126863153.073 1      -752.371          46.000    24141260.874 1  97206852.489 1      -576.539          46.000  
G11  21571785.167 1 113360491.878 2     -2094.467          44.000                                                                  
G22  25350991.292 1 133220345.758 4       728.378          34.000                                                                  
G 7  21790223.064 1 114508382.957 1       178.535          42.000    21790221.567 1  89227317.219 3       139.434          36.000  
E14  24454778.221 1 128510728.617 1      3856.610          43.000    24454781.833 1  98469272.820 1      2955.269          43.000  
C23  24748490.758 1 128871878.167 1     -3157.803          46.000                                                                  
C27  23105218.253 1 120314935.930 1      -434.080          48.000                                                                  
C 8  38006596.473 1 197910346.839 2        79.693          41.000    38006595.405 1 153036811.640 1        61.209          44.000  
C28  23846110.800 1 124172957.551 1     -3057.616          45.000                                                                  
C 7  37701261.455 1 196320357.094 1      -590.507          45.000    37701257.473 1 151807337.208 1      -456.602          43.000  
C13  39077284.091 1 203485655.397 2       279.656          39.000    39077289.621 1 157348050.902 4       215.536          35.000  
R22  21053375.700 4 112384348.255 1     -3601.246          44.000    21053379.064 4  87410063.616 2     -2801.054          41.000  
R12  20891913.854 4 111600853.322 1       581.641          48.000    20891917.213 4  86800676.425 1       452.283          44.000  
R11  21768669.489 4 116325165.058 1     -2749.312          47.000    21768672.318 4  90475135.933 1     -2138.405          46.000  
R23  21395504.332 4 114452012.131 2       964.699          41.000    21395512.989 4               6       751.027          32.000  
R24  24584949.969 4 131466657.618 5      2597.727          32.000                                                                  
G 9  25088874.733 2 131842774.287 5     -3291.577          30.000    25088832.025 9               9     -2565.164          26.000  
J 7  37658582.726 1 197897207.766 2     -1099.176          41.000    37658586.989 1 154205623.275 1      -856.696          46.000  
G 8  23432975.517 1 123141144.670 2     -3407.639          38.000    23432984.050 2  95954157.666 4     -2656.383          34.000  
G 1  21659659.159 1 113822269.198 1       359.277          46.000    21659662.750 1  88692691.256 1       280.067          44.000  
E30  23954707.134 1 125882857.726 1      -960.025          46.000    23954712.914 1  96455701.609 1      -735.582          45.000  
J 2  38627706.908 1 202989975.420 1        60.919          44.000    38627706.175 1 158173993.498 1        47.552          43.000  
J 3  40416096.986 1 212388020.631 1     -1778.742          44.000    40416097.111 1 165497190.153 2     -1385.944          42.000  
E13  26826897.958 1 140976301.204 2      1441.834          39.000    26826905.078 1 108020831.197 2      1104.782          37.000  
C 9                                                                  39271253.650 1 158129061.376 2     -2134.032          41.000  
> 2020  6  3  3  3 50.0040000  0 25                     
E15  24141397.088 1 126863905.932 1      -753.399          46.000    24141404.221 1  97207429.360 1      -577.368          46.000  
G11  21572183.750 1 113362586.743 1     -2095.404          44.000                                                                  
G22  25350852.779 1 133219617.641 4       727.853          34.000                                                                  
G 7  21790189.082 1 114508204.824 2       177.489          42.000    21790187.734 1  89227178.418 3       138.403          36.000  
E14  24454044.367 1 128506872.150 1      3855.917          43.000    24454047.935 1  98466317.878 1      2954.638          43.000  
C23  24749097.125 1 128875036.312 1     -3158.619          46.000                                                                  
C27  23105301.688 1 120315370.490 1      -435.009          48.000                                                                  
C 8  38006581.050 1 197910267.656 2        78.932          41.000    38006580.145 1 153036750.395 1        60.844          44.000  
C28  23846698.038 1 124176015.520 1     -3058.394          45.000                                                                  
C 7  37701375.002 1 196320947.939 1      -591.221          45.000    37701370.972 1 151807794.084 1      -457.140          43.000  
C13  39077230.502 1 203485376.078 2       278.995          39.000    39077235.878 1 157347834.892 4       215.967          35.000  
R22  21054050.444 4 112387950.141 1     -3602.359          44.000    21054053.761 4  87412865.081 2     -2801.855          41.000  
R12  20891805.146 4 111600272.154 1       580.405          48.000    20891808.498 4  86800224.399 1       451.500          44.000  
R11  21769184.534 4 116327915.055 1     -2750.710          47.000    21769186.993 4  90477274.808 1     -2139.226          47.000  
R23  21395323.946 4 114451048.035 2       963.449          41.000    21395332.811 4  89017053.522 5       749.513          32.000  
R24  24584464.105 4 131464059.995 5      2596.574          33.000                                                                  
G 9  25089501.599 2               6     -3293.066          30.000    25089457.983 8               7     -2565.955          27.000  
J 7  37658791.975 1 197898307.311 2     -1100.153          41.000    37658796.215 1 154206480.057 1      -857.238          46.000  
G 8  23433624.463 1 123144552.937 2     -3408.802          39.000    23433632.882 2  95956813.385 4     -2655.739          35.000  
G 1  21659590.771 1 113821910.595 1       358.032          46.000    21659594.379 1  88692411.828 1       278.955          44.000  
E30  23954889.888 1 125883818.191 1      -960.973          46.000    23954895.766 1  96456437.542 1      -736.320          46.000  
J 2  38627695.384 1 202989914.825 1        60.338          44.000    38627694.646 1 158173946.282 1        46.957          43.000  
J 3  40416435.548 1 212389799.544 1     -1779.224          44.000    40416435.530 1 165498576.304 1     -1386.224          42.000  
E13  26826623.508 1 140974859.615 2      1441.085          39.000    26826630.957 1 108019726.576 3      1104.454          37.000  
C 9                                                                  39271783.671 1 158131195.584 2     -2134.636          41.000  
> 2020  6  3  3  3 51.0040000  0 25                     
E15  24141540.585 1 126864659.912 1      -754.260          46.000    24141547.705 1  97208007.081 1      -577.966          46.000  
G11  21572582.623 1 113364682.810 1     -2096.227          45.000                                                                  
G22  25350714.503 1 133218890.213 4       727.137          34.000                                                                  
G 7  21790155.382 1 114508027.964 1       176.552          42.000    21790154.115 1  89227040.608 3       137.147          36.000  
E14  24453310.633 1 128503016.466 1      3855.356          43.000    24453314.387 1  98463363.529 1      2954.240          43.000  
C23  24749703.807 1 128878195.481 1     -3159.275          46.000                                                                  
C27  23105385.224 1 120315806.128 1      -435.902          48.000                                                                  
C 8  38006565.981 1 197910189.296 2        78.079          41.000    38006565.122 1 153036689.806 1        60.184          44.000  
C28  23847285.531 1 124179074.347 1     -3059.048          45.000                                                                  
C 7  37701488.536 1 196321539.386 1      -591.615          45.000    37701484.550 1 151808251.419 2      -457.203          43.000  
C13  39077177.103 1 203485097.501 2       278.338          39.000    39077182.324 1 157347619.452 4       215.949          34.000  
R22  21054725.432 4 112391553.244 1     -3603.664          44.000    21054728.733 4  87415667.488 2     -2802.625          41.000  
R12  20891696.626 4 111599692.118 1       579.672          48.000    20891699.822 4  86799773.266 1       450.859          44.000  
R11  21769699.625 4 116330666.359 1     -2751.833          48.000    21769702.004 4  90479414.709 1     -2140.402          47.000  
R23  21395143.665 4 114450085.312 2       962.104          40.000    21395153.039 4  89016304.763 5       748.206          32.000  
R24  24583978.649 4 131461463.321 5      2596.367          33.000                                                                  
G 9  25090128.564 2 131849359.016 5     -3292.517          30.000    25090083.586 8               6     -2565.637          28.000  
J 7  37659001.366 1 197899407.519 2     -1100.631          41.000    37659005.556 1 154207337.366 1      -857.468          46.000  
G 8  23434273.656 1 123147961.852 2     -3408.979          39.000    23434282.010 2  95959469.717 4     -2656.722          35.000  
G 1  21659522.542 1 113821553.324 1       356.767          45.000    21659526.277 1  88692133.431 1       277.978          44.000  
E30  23955072.743 1 125884779.524 1      -961.568          46.000    23955078.798 1  96457174.146 1      -736.726          46.000  
J 2  38627683.822 1 202989854.927 1        59.846          44.000    38627683.219 1 158173899.618 1        46.503          43.000  
J 3  40416774.201 1 212391579.058 1     -1779.580          44.000    40416774.167 1 165499962.958 2     -1386.785          42.000  
E13  26826349.161 1 140973418.948 2      1440.516          39.000    26826356.746 1 108018622.703 2      1103.796          37.000  
C 9                                                                  39272313.849 1 158133330.285 2     -2134.883          41.000  
> 2020  6  3  3  3 52.0040000  0 25                     
E15  24141684.142 1 126865414.853 1      -755.613          46.000    24141691.359 1  97208585.542 1      -579.027          46.000  
G11  21572981.672 1 113366779.931 1     -2097.546          45.000                                                                  
G22  25350576.155 1 133218163.254 4       726.691          33.000                                                                  
G 7  21790121.996 1 114507852.199 1       175.534          42.000    21790120.707 1  89226903.664 3       136.337          36.000  
E14  24452576.914 1 128499161.427 2      3854.497          43.000    24452580.665 1  98460409.653 1      2953.593          43.000  
C23  24750310.615 1 128881355.517 1     -3160.697          46.000                                                                  
C27  23105469.117 1 120316242.692 1      -437.074          48.000                                                                  
C 8  38006551.085 1 197910111.585 2        77.379          41.000    38006550.211 1 153036629.709 1        59.983          44.000  
C28  23847873.176 1 124182133.905 1     -3059.972          45.000                                                                  
C 7  37701602.224 1 196322131.306 1      -592.222          45.000    37701598.178 1 151808709.143 1      -457.958          43.000  
C13  39077123.679 1 203484819.530 2       277.449          39.000    39077128.905 1 157347404.539 4       214.293          34.000  
R22  21055400.688 4 112395157.412 1     -3604.879          44.000    21055403.925 4  87418470.733 2     -2803.580          41.000  
R12  20891588.231 4 111599113.103 1       578.488          48.000    20891591.369 4  86799322.922 1       449.866          44.000  
R11  21770214.940 4 116333418.787 1     -2753.103          48.000    21770217.300 4  90481555.477 1     -2141.231          47.000  
R23  21394963.649 4 114449123.794 2       960.774          40.000    21394973.481 4  89015556.910 5       746.948          32.000  
R24  24583493.318 4 131458867.523 4      2594.850          33.000                                                                  
G 9  25090755.456 2 131852652.230 5     -3293.524          30.000    25090709.550 8               6     -2566.479          28.000  
J 7  37659210.866 1 197900508.214 1     -1101.133          41.000    37659215.038 1 154208195.057 1      -857.932          46.000  
G 8  23434922.858 1 123151371.320 2     -3409.797          39.000    23434930.857 2  95962126.429 3     -2657.344          35.000  
G 1  21659454.760 1 113821197.216 1       355.400          45.000    21659458.427 1  88691855.939 2       276.989          43.000  
E30  23955255.720 1 125885741.555 1      -962.409          46.000    23955261.800 1  96457911.299 1      -737.525          45.000  
J 2  38627672.390 1 202989795.569 1        59.128          44.000    38627671.856 1 158173853.371 1        45.829          43.000  
J 3  40417113.008 1 212393359.022 1     -1780.189          44.000    40417112.929 1 165501349.931 2     -1387.113          42.000  
E13  26826075.034 1 140971979.019 2      1439.460          39.000    26826082.665 1 108017519.389 2      1102.969          37.000  
C 9                                                                  39272844.102 1 158135465.409 2     -2135.551          41.000  
> 2020  6  3  3  3 53.0040000  0 25                     
E15  24141827.818 1 126866170.826 1      -756.256          46.000    24141835.215 1  97209164.800 1      -579.568          46.000  
G11  21573380.902 1 113368878.187 1     -2098.951          45.000                                                                  
G22  25350437.945 1 133217436.950 4       725.260          34.000                                                                  
G 7  21790088.799 1 114507677.683 1       173.875          42.000    21790087.483 1  89226767.647 3       135.762          36.000  
E14  24451843.044 1 128495307.079 2      3854.167          43.000    24451847.250 1  98457456.339 1      2953.158          43.000  
C23  24750917.659 1 128884516.512 1     -3161.292          46.000                                                                  
C27  23105553.161 1 120316680.250 1      -438.065          48.000                                                                  
C 8  38006536.281 1 197910034.661 2        76.462          42.000    38006535.471 1 153036570.225 1        59.229          44.000  
C28  23848460.916 1 124185194.293 1     -3060.733          45.000                                                                  
C 7  37701716.129 1 196322723.815 1      -592.892          45.000    37701712.028 1 151809167.304 1      -458.369          43.000  
C13  39077070.507 1 203484542.257 2       276.856          38.000    39077075.652 1 157347190.132 4       213.886          35.000  
R22  21056076.138 4 112398762.733 1     -3605.780          44.000    21056079.384 4  87421274.876 2     -2804.623          41.000  
R12  20891480.052 4 111598535.204 1       577.336          48.000    20891483.227 4  86798873.443 1       449.053          44.000  
R11  21770730.539 4 116336172.421 1     -2754.164          48.000    21770732.772 4  90483697.199 1     -2142.195          47.000  
R23  21394783.768 4 114448163.562 2       959.705          39.000    21394794.268 4  89014810.040 5       746.243          33.000  
R24  24583008.232 4 131456272.620 4      2595.141          34.000                                                                  
G 9  25091382.579 2               6     -3292.914          31.000    25091338.385 8               7     -2567.828          29.000  
J 7  37659420.426 1 197901609.545 2     -1101.466          41.000    37659424.628 1 154209053.227 1      -858.284          46.000  
G 8  23435572.065 1 123154781.418 2     -3410.263          39.000    23435579.697 2  95964783.652 3     -2657.650          35.000  
G 1  21659387.244 1 113820842.370 1       354.142          45.000    21659390.781 1  88691579.429 1       275.999          43.000  
E30  23955439.027 1 125886704.419 1      -963.162          46.000    23955445.055 1  96458649.068 1      -738.083          46.000  
J 2  38627661.276 1 202989736.870 1        58.448          44.000    38627660.539 1 158173807.621 1        45.480          43.000  
J 3  40417451.850 1 212395139.523 1     -1780.529          44.000    40417451.710 1 165502737.346 2     -1387.529          42.000  
E13  26825801.284 1 140970539.953 2      1438.708          39.000    26825808.804 1 108016416.736 3      1102.121          37.000  
C 9                                                                  39273374.437 1 158137601.009 2     -2135.923          41.000  
> 2020  6  3  3  3 54.0040000  0 25                     
E15  24141971.907 1 126866927.865 1      -757.676          46.000    24141979.276 1  97209744.849 1      -580.350          46.000  
G11  21573780.216 1 113370977.532 2     -2099.692          45.000                                                                  
G22  25350299.899 1 133216711.174 4       726.198          34.000                                                                  
G 7  21790055.843 1 114507504.321 1       172.821          42.000    21790054.531 1  89226632.563 3       134.390          36.000  
E14  24451109.290 1 128491453.468 2      3853.129          43.000    24451113.931 1  98454503.546 1      2952.687          43.000  
C23  24751524.811 1 128887678.444 1     -3162.392          47.000                                                                  
C27  23105637.416 1 120317118.804 1      -439.195          48.000                                                                  
C 8  38006521.749 1 197909958.476 2        75.713          42.000    38006520.783 1 153036511.313 1        58.667          44.000  
C28  23849048.796 1 124188255.472 1     -3061.525          45.000                                                                  
C 7  37701830.066 1 196323316.864 1      -593.265          45.000    37701825.888 1 151809625.887 1      -458.751          43.000  
C13  39077017.397 1 203484265.667 2       276.118          39.000    39077022.541 1 157346976.236 4       213.964          35.000  
R22  21056751.759 4 112402369.201 1     -3607.160          44.000    21056754.996 4  87424079.890 2     -2805.419          42.000  
R12  20891372.174 4 111597958.393 1       576.298          48.000    20891375.297 4  86798424.811 1       448.272          45.000  
R11  21771246.364 4 116338927.255 1     -2755.513          48.000    21771248.385 4  90485839.832 1     -2143.128          47.000  
R23  21394604.200 4 114447204.625 2       958.215          38.000    21394615.251 4  89014064.182 5       745.813          33.000  
R24  24582523.381 4 131453678.733 4      2593.555          34.000                                                                  
G 9  25092009.945 2               7     -3295.001          30.000    25091970.512 8               6     -2567.273          30.000  
J 7  37659630.088 1 197902711.459 2     -1102.255          40.000    37659634.334 1 154209911.871 1      -858.876          46.000  
G 8  23436221.475 1 123158192.149 2     -3411.096          39.000    23436228.723 1  95967441.332 3     -2657.577          36.000  
G 1  21659319.754 1 113820488.748 1       352.971          45.000    21659323.417 1  88691303.884 1       274.993          43.000  
E30  23955622.261 1 125887668.062 1      -964.060          46.000    23955628.435 1  96459387.441 1      -738.682          45.000  
J 2  38627650.109 1 202989678.774 1        57.828          44.000    38627649.531 1 158173762.354 1        44.727          43.000  
J 3  40417790.777 1 212396920.569 1     -1781.369          44.000    40417790.713 1 165504125.182 1     -1388.356          42.000  
E13  26825527.641 1 140969101.691 2      1438.156          39.000    26825534.977 1 108015314.682 2      1101.911          37.000  
C 9                                                                  39273904.895 1 158139737.063 2     -2136.142          41.000  
> 2020  6  3  3  3 55.0040000  0 25                     
E15  24142116.241 1 126867685.922 1      -758.570          46.000    24142123.639 1  97210325.707 1      -581.077          46.000  
G11  21574180.008 1 113373078.021 2     -2101.297          45.000                                                                  
G22  25350161.930 1 133215986.034 4       724.930          34.000                                                                  
G 7  21790023.123 1 114507332.154 1       171.641          42.000    21790021.776 1  89226498.412 3       133.373          36.000  
E14  24450375.923 1 128487600.533 1      3852.676          43.000    24450380.661 1  98451551.320 1      2952.167          43.000  
C23  24752132.144 1 128890841.305 1     -3163.166          46.000                                                                  
C27  23105721.809 1 120317558.351 1      -439.858          48.000                                                                  
C 8  38006507.326 1 197909883.013 2        75.321          42.000    38006506.325 1 153036452.963 1        58.116          44.000  
C28  23849636.906 1 124191317.464 1     -3062.289          46.000                                                                  
C 7  37701944.011 1 196323910.460 1      -593.816          45.000    37701939.824 1 151810084.877 1      -458.907          43.000  
C13  39076964.356 1 203483989.726 2       275.876          39.000    39076969.497 1 157346762.890 4       213.055          35.000  
R22  21057427.706 4 112405976.803 1     -3608.097          44.000    21057430.824 4  87426885.823 2     -2806.370          42.000  
R12  20891264.398 4 111597382.681 1       575.327          48.000    20891267.572 4  86797977.027 1       447.676          44.000  
R11  21771762.201 4 116341683.313 1     -2756.592          48.000    21771764.362 4  90487983.440 1     -2144.068          47.000  
R23  21394424.963 4 114446246.978 3       957.377          39.000    21394436.305 4               6       745.085          32.000  
R24  24582038.554 4 131451085.755 4      2592.418          34.000                                                                  
G 9  25092637.395 2               6     -3295.685          30.000    25092596.639 8               7     -2568.311          30.000  
J 7  37659839.896 1 197903813.959 2     -1102.496          40.000    37659844.128 1 154210770.958 1      -859.197          46.000  
G 8  23436870.892 1 123161603.476 2     -3411.239          39.000    23436877.899 1  95970099.498 3     -2657.697          36.000  
G 1  21659252.621 1 113820136.387 1       351.910          45.000    21659256.141 1  88691029.291 1       274.348          43.000  
E30  23955805.883 1 125888632.502 1      -964.733          46.000    23955812.067 1  96460126.428 1      -739.166          46.000  
J 2  38627639.102 1 202989621.317 1        57.171          44.000    38627638.608 1 158173717.560 1        44.723          43.000  
J 3  40418129.781 1 212398702.126 1     -1781.495          44.000    40418129.736 1 165505513.409 1     -1388.525          42.000  
E13  26825253.940 1 140967664.284 2      1437.070          39.000    26825261.456 1 108014213.291 2      1101.246          37.000  
C 9                                                                  39274435.454 1 158141873.596 2     -2136.868          41.000  
> 2020  6  3  3  3 56.0040000  0 25                     
E15  24142260.632 1 126868444.925 1      -759.493          46.000    24142267.946 1  97210907.292 1      -581.945          46.000  
G11  21574579.853 1 113375179.507 2     -2102.020          45.000                                                                  
G22  25350023.956 1 133215261.397 3       724.674          34.000                                                                  
G 7  21789990.488 1 114507161.083 1       170.586          42.000    21789989.283 1  89226365.108 3       132.779          36.000  
E14  24449642.652 1 128483748.228 2      3852.000          43.000    24449647.648 1  98448599.560 1      2951.439          43.000  
C23  24752739.652 1 128894005.046 1     -3164.476          46.000                                                                  
C27  23105806.358 1 120317998.816 1      -440.830          48.000                                                                  
C 8  38006492.948 1 197909808.232 2        74.470          42.000    38006491.982 1 153036395.119 1        57.558          44.000  
C28  23850225.156 1 124194380.167 1     -3063.309          46.000                                                                  
C 7  37702058.075 1 196324504.514 1      -594.254          45.000    37702053.983 1 151810544.258 2      -459.528          43.000  
C13  39076911.429 1 203483714.414 2       274.931          39.000    39076916.563 1 157346550.004 4       212.304          35.000  
R22  21058103.780 4 112409585.474 1     -3609.256          44.000    21058106.835 4  87429692.549 2     -2806.834          42.000  
R12  20891156.774 4 111596807.946 1       574.272          48.000    20891159.946 4  86797530.015 1       446.671          44.000  
R11  21772278.430 4 116344440.572 1     -2757.901          48.000    21772280.380 4  90490127.955 1     -2144.892          47.000  
R23  21394245.909 4 114445290.538 2       955.679          38.000    21394257.516 4  89012575.518 5       743.017          32.000  
R24  24581554.184 4 131448493.591 4      2591.335          34.000                                                                  
G 9  25093264.796 2 131865830.946 5     -3295.709          29.000    25093226.394 8               6     -2567.767          30.000  
J 7  37660049.824 1 197904916.982 2     -1103.088          40.000    37660054.032 1 154211630.453 1      -859.603          46.000  
G 8  23437520.557 1 123165015.359 2     -3412.208          38.000    23437527.154 1  95972758.139 3     -2659.184          36.000  
G 1  21659185.741 1 113819785.182 1       350.590          45.000    21659189.262 1  88690755.629 1       273.327          43.000  
E30  23955989.847 1 125889597.662 1      -965.669          46.000    23955995.892 1  96460865.961 1      -739.774          46.000  
J 2  38627628.320 1 202989564.375 1        56.693          44.000    38627627.754 1 158173673.199 1        44.214          43.000  
J 3  40418468.919 1 212400484.153 1     -1782.260          44.000    40418468.721 1 165506901.985 1     -1388.804          42.000  
E13  26824980.593 1 140966227.616 2      1436.285          39.000    26824988.035 1 108013112.470 3      1100.640          37.000  
C 9                                                                  39274966.171 1 158144010.525 2     -2137.069          41.000  
> 2020  6  3  3  3 57.0040000  0 25                     
E15  24142405.273 1 126869205.001 1      -760.769          46.000    24142412.686 1  97211489.673 1      -582.903          46.000  
G11  21574979.980 1 113377282.143 1     -2103.422          45.000                                                                  
G22  25349886.333 1 133214537.352 3       723.594          35.000                                                                  
G 7  21789958.107 1 114506991.230 1       168.948          42.000    21789956.888 1  89226232.733 3       131.971          36.000  
E14  24448909.501 1 128479896.627 1      3851.266          43.000    24448914.658 1  98445648.331 1      2950.910          43.000  
C23  24753347.519 1 128897169.716 1     -3165.309          46.000                                                                  
C27  23105891.123 1 120318440.292 1      -442.160          48.000                                                                  
C 8  38006478.747 1 197909734.197 2        73.419          43.000    38006477.859 1 153036337.875 1        56.831          44.000  
C28  23850813.512 1 124197443.686 1     -3064.255          46.000                                                                  
C 7  37702172.331 1 196325099.134 1      -594.954          45.000    37702168.219 1 151811004.053 2      -459.985          43.000  
C13  39076858.629 1 203483439.783 3       274.063          39.000    39076863.844 1 157346337.622 4       211.927          35.000  
R22  21058780.012 4 112413195.275 1     -3610.401          44.000    21058782.985 4  87432500.185 2     -2807.992          42.000  
R12  20891049.434 4 111596234.315 1       572.958          49.000    20891052.513 4  86797083.865 1       445.498          45.000  
R11  21772794.648 4 116347199.058 1     -2759.298          48.000    21772796.703 4  90492273.450 1     -2145.903          47.000  
R23  21394067.205 4 114444335.434 3       954.432          38.000    21394078.972 4               7       742.699          31.000  
R24  24581070.082 4 131445902.309 4      2590.387          34.000                                                                  
G 9  25093892.232 2 131869127.022 5     -3296.771          29.000    25093854.820 8               6     -2568.903          31.000  
J 7  37660259.699 1 197906020.615 2     -1104.125          40.000    37660264.098 1 154212490.419 1      -860.481          46.000  
G 8  23438170.292 1 123168427.829 2     -3412.900          38.000    23438176.596 1  95975417.214 3     -2659.927          36.000  
G 1  21659119.121 1 113819435.250 1       348.989          45.000    21659122.498 1  88690482.953 1       271.859          43.000  
E30  23956173.409 1 125890563.615 1      -966.522          46.000    23956179.604 1  96461606.111 1      -740.522          46.000  
J 2  38627617.567 1 202989508.078 1        55.745          44.000    38627617.027 1 158173629.341 1        43.490          43.000  
J 3  40418808.091 1 212402266.706 1     -1783.039          44.000    40418807.908 1 165508290.982 1     -1389.186          42.000  
E13  26824707.569 1 140964791.807 2      1435.097          39.000    26824714.816 1 108012012.293 2      1099.805          37.000  
C 9                                                                  39275497.010 1 158146147.960 2     -2137.938          41.000  
